id,gid,name,latitude,longitude,address,satation_id,station_name,station_distance,station_time,genre_code,genre_name,review_count,access,paypay_flg
100000454370,yd8YuufQ_gU,܂,43.462049895230805,142.46007603820226,kCmSxǖ쒬2,20136,xǖ,764,9,0101017,,14,JRxǖ^xǖw k13 (971m),False
100000782568,HHANcqACtuU,J~z,43.41534743508494,142.6384169450631,kCmSxǖ쒬\x,,,,,0111,HAH,50,,False
100000318299,ju0hoDAQYfc,܂܂,43.45311414,142.47293042,kCmSxǖ쒬Β2-1-17,20136,xǖ,1563,19,0108001,ē,12,JRxǖ^xǖw k18 (1392m),False
100000712205,RoE4bIpddHA, V,43.460894125435,142.474053728836,kCmSxǖ쒬{3-4-10,20136,xǖ,826,10,0106001,[,6,JRxǖ^xǖw k9 (684m),False
100000696705,rkOUGLPYxUA,ēG,43.4602357,142.46755280000002,kCmSxǖ쒬ђ2-5-18,20136,xǖ,482,6,0108001,ē,10,JRxǖ^xǖw k6 (444m),False
100000719574,RtMUSe6fb8o,ƂƂ,43.4489591,142.4639982,kCmSxǖ쒬咬5-942-25,20136,xǖ,1956,24,0108001,ē,5,JRxǖ^xǖw k22 (1756m),False
100000824000,k9PxdC3oGZI,,43.459607,142.46797700000002,kCmSxǖ쒬ђ1-1-14,20136,xǖ,518,6,0101,aH,9,JRxǖ^xǖw k7 (500m),False
100001242647,bUfjCOZIbWo,앟N,43.461595268164615,142.4747279641122,kCmSxǖ쒬{4-69-77,20136,xǖ,818,10,0110,ArAz[,1,JRxǖ^xǖw k9 (658m),True
100000910537,jMaD_cEN9uo,ܘQ,43.45679634347,142.46729503653,kCmSxǖ쒬咬2-3-27,20136,xǖ,920,11,0101015,Ƃ񂩂,,JRxǖ^xǖw k11 (821m),True
100000836871,zrgaTa8WePg,teBA tkC Xg,43.4591070569438,142.47931589370705,kCmSxǖ쒬V4-4-25,20136,xǖ,1242,15,0101,aH,15,JRxǖ^xǖw k17 (1294m),False
100000722253,dANs656d2XA,H,43.461762,142.467521,kCmSxǖ쒬2-1-27,20136,xǖ,320,4,0111,HAH,3,JRxǖ^xǖw k4 (288m),False
100000318305,QH8pWU5Cm2A,ӂc,43.4612715,142.46793316,kCmSxǖ쒬ђ1-2-9,20136,xǖ,382,4,0101030,񂶂Ă,4,JRxǖ^xǖw k4 (321m),True
100000903075,e59Zuxf-jis,Ђ,43.46072435,142.46858869,kCmSxǖ쒬ђ1-4-8,20136,xǖ,378,4,0101,aH,3,JRxǖ^xǖw k5 (397m),False
100000318304,5io5G0QOjho,΂̒,43.46090207,142.46760543,kCmSxǖ쒬ђ2-4-25,20136,xǖ,420,5,0101025,Ă,4,JRxǖ^xǖw k5 (372m),False
137883847685840897,wixyGPTS88Y,㉑,43.462605,142.467804,kCmSxǖ쒬 1-3-11,20136,xǖ,201,2,0108001,ē,1,,True
100000318303,G00XW6THw0c,Ƃ肢,43.4615187,142.46806647,kCmSxǖ쒬ђ1-2-14,20136,xǖ,318,3,0101025,Ă,1,JRxǖ^xǖw k4 (291m),False
100000905150,oNNxclGIChk,cX,43.463708066791,142.46656379823,kCmSxǖ쒬2-4-11,20136,xǖ,159,1,01,O,,JRxǖ^xǖw k3 (247m),False
100000901596,nSi6Y2clffY,݂ǂ,43.462941258445,142.46769632923,kCmSxǖ쒬1-4-2,20136,xǖ,197,2,0101,aH,,JRxǖ^xǖw k3 (170m),False
100000901559,zrhZQR8ZFZE,ނƃXg̐,43.415898134421,142.5348727094,kCmSxǖ쒬{{_,,,,,0101034,CN,,JRxǖ^xǖw k114 (9078m),False
100000910508,3msXtu0Ky9o,J_,43.533710100942,142.44036435959,kCmSxǖ쒬11k35,20492,n,803,10,0101051,ؗ,,JRxǖ^nw k11 (862m),False
100000905474,jNSDVKrBNQA,Ђ܂ ,43.453949042665,142.47801269845,kCmSxǖ쒬1-1-15,20136,xǖ,1687,21,0101047,,,JRxǖ^xǖw k19 (1520m),False
100000902902,-QkjwxD5JHE,F΂,43.462753854931,142.46781889454,kCmSxǖ쒬1-4-26,20136,xǖ,188,2,0101025,Ă,,JRxǖ^xǖw k3 (178m),False
100000318296,kek5DQggny2,|i,43.4619881,142.46795812,kCmSxǖ쒬1-3-22,20136,xǖ,314,3,0101,aH,,JRxǖ^xǖw k3 (245m),False
20130842509,CFMvzzmTgiU,ɂ܂,43.457930277778,142.468272222222,kCmSxǖ쒬咬PڂQ|P,20136,xǖ,769,9,0101025,Ă,,,False
20130364566,AxPcYBjP7Ww,򂢂V,43.459277222222,142.467558333333,kCmSxǖ쒬ђPڂP|PO,20136,xǖ,555,6,0101033,y,,,False
20130837751,tn4k6V3JEns,YΏĒ̂,43.460713333333,142.468005277778,kCmSxǖ쒬ђPڂQ|Q,20136,xǖ,444,5,0101025,Ă,,,False
