id,gid,name,latitude,longitude,address,satation_id,station_name,station_distance,station_time,genre_code,genre_name,review_count,access,paypay_flg
100000902323,ZgTECqrhhXI,傍Ki,43.7955015,142.35023019999994,kCs咬213-92,20324,ߕ,2662,33,0101,aH,,JRٖ{(M`)^ߕw k35 (2803m),False
100000305726,xzz5_i3UNSw,,43.76900077,142.40833606,kCsL125-4-18,20555,iR,1748,21,0101,aH,,JRΖk{^iRw k16 (1282m),False
100000306555,-kpR0VA7gOs,yV,43.77780099,142.37370057,kCs32-3-8,20266,V,1240,15,0101025,Ă,,JR@J{^Vw k16 (1259m),False
100000902265,8x8rgfvoioI,݋򂢏g,43.762061169041,142.39207679155,kCsL52-1-6,20014,l,1456,18,0101025,Ă,,JR@J{^lw k23 (1819m),False
100000305846,w9XHs-41dNI,,43.7723424,142.41410189,kCsL157-4-1,20555,iR,1251,15,0101025,Ă,,JRΖk{^iRw k14 (1101m),False
100000903607,ImlwQghG8Qc,ۂ݋򂢏y,43.805458288272,142.43185232121,kCsiR516-5-9,20380,iR,1344,16,0101025,Ă,,JR@J{^iRw k13 (1006m),False
100000903908,3u5i2PczP-2,܂,43.769026617262,142.33128718881,kCs_22-1-14,20012,,3059,38,0101,aH,,JRٖ{(M`)^ߕw k30 (2334m),False
100000902091,ibgQH3434pc,,43.771566184623,142.32707044464,kCsa48-3-10,20012,,3085,38,0110,ArAz[,,JRٖ{(M`)^ߕw k25 (1966m),False
100000900195,MDkBoU_wet2,j[,43.765783741292,142.37626139522,kCs517,20014,l,363,4,0101025,Ă,,JR@J{^lw k3 (198m),False
100000306438,Z3cVRP0Jsk6,Ecɂ{,43.8281616,142.4150965,kCs鐲24-638,20380,iR,2600,32,0101025,Ă,,JR@J{^iRw k33 (2646m),False
100000900380,b5fL0bSTRng,[a,43.767846418095,142.35609167502,kCs25,20012,,666,8,0101025,Ă,,JRٖ{(M`)^w k7 (519m),False
100000900674,dOVhem6Op1w,₷,43.767932053154,142.35965222544,kCs37,20012,,530,6,0101029,DݏĂAĂ,,JRٖ{(M`)^w k7 (534m),False
100000903815,GfEgORvyIJk,,43.819342845163,142.35665701127,kCst33-7-14,,,,,0101025,Ă,,JRٖ{(M`)^ߕw k61 (4826m),False
100001517679,x2xxuSiHzd2,yΐጎ TNX,43.769013358585774,142.3573648147326,kCs35-634-1,20012,,776,9,0101017,,,JRٖ{(M`)^w k9 (680m),False
100000305660,HF3NFG-1YGA,齏,43.75414397,142.40613707,kCs15-2-14,20014,l,2747,34,0101,aH,,JRΖk{^iRw k37 (2943m),False
100000904479,N-b75y0RFs2,[P,43.776326004778,142.31570394161,kCsa54-2-2,20324,ߕ,3363,42,0101025,Ă,,JRٖ{(M`)^ߕw k23 (1783m),False
100000902505,_6bjh29mCiM,Ώv,43.758150285381,142.39701558685,kCsL23-3-14,20014,l,1880,23,0101018,ǂ,,JR@J{^lw k31 (2443m),False
100000902271,OCNuRfLRLTM,C,43.785198117476,142.36359827127,kCs咬23,20266,V,1964,24,0101025,Ă,,JR@J{^Vw k31 (2417m),False
100000305698,-xGPj22B5SE,ӂ,43.81874345,142.35754094,kCst33-8-11,,,,,0101,aH,,JRٖ{(M`)^ߕw k61 (4852m),False
100000306659,KoSKpBm0rBM,`bg,43.76293671,142.39065778,kCsL51-4-1,20014,l,1403,17,0101025,Ă,,JR@J{^lw k21 (1652m),False
100000902391,aYFTyeHV2o-,i,43.772297232007,142.36232138375,kCs77,20012,,1030,12,0101,aH,,JRٖ{(M`)^w k14 (1099m),False
100000901533,u4MtKTs0W5I,k̒,43.748142012685,142.39883081328,kCs84-1-22,20014,l,3127,39,0101025,Ă,,JR@J{^lw k39 (3106m),False
100000306409,TRfeYxgNEv2,ǂ,43.77116981,142.3269058,kCsa58-4-3,20012,,3062,38,0101025,Ă,,JRٖ{(M`)^ߕw k26 (2008m),False
100000900500,T4zQkNKW5aE,Âi,43.785479610595,142.36345177513,kCs咬22,20266,V,1980,24,0101,aH,,JR@J{^Vw k31 (2441m),False
100000902020,VL3CzRdYGyU,iq,43.769432128491,142.35854086705,kCs46,20012,,817,10,0101025,Ă,,JRٖ{(M`)^w k9 (664m),False
100000899929,uiN3bCf59AI,ݏƂ,43.77116782243,142.32688038229,kCsa58-4-3,20012,,3062,38,0101025,Ă,,JRٖ{(M`)^ߕw k26 (2008m),False
100000901473,JMSk6NBBvk6,K,43.796761934962,142.34541636909,kCs咬215,20324,ߕ,2133,26,0101,aH,,JRٖ{(M`)^ߕw k30 (2383m),False
147753862921904129,OJ-7HZimiOE,  iR,43.793072,142.41832,kCsiR7 92-12,20555,iR,2055,25,0101034,CN,1,,True
100000899963,QRLhuyvj8R2,V̉,43.768316289783,142.36321491697,kCs49,20012,,791,9,0101025,Ă,,JRٖ{(M`)^w k10 (805m),False
100000305840,-hekxf7Kkpg,Ă,43.77059809,142.34522069,kCs13-2-7,20012,,1559,19,0101025,Ă,,JRٖ{(M`)^w k20 (1604m),False
100000306705,Wy9le416aEM,͂T,43.76716061,142.37667856,kCs617ڍ5,20014,l,491,6,0101025,Ă,,JR@J{^lw k5 (358m),False
100000306436,4mc2ugyHYFo,꒚,43.7685102,142.34921529999997,kCs11,20012,,1069,13,0101025,Ă,,JRٖ{(M`)^w k14 (1104m),False
100000305641,bVSwqWydng-,CM,43.75226165,142.35685642,kCs_y412-9-14,20114,_y,1009,12,0101,aH,,JRxǖ^_yw k11 (817m),False
t000425094,ASxTmjiagp6,RestaurantƂ܂,43.7656082,142.357759,kCs17 zepR14K,20012,,269,3,0101053,aHȋj,2,,False
76651,BqlsHeXqdFs,Ό X,43.7820635487989,142.356506002184,kCs3,20012,,2368,29,0101017,,1,,False
163383944698847233,F3H1s2_BKGw,O[YR[g Cg[[Jh[,43.768234,142.372482,kCsZ 14-64 Cg[[Jh[X B1F,20014,l,716,8,0106001,[,,,True
220237818370834432,18TSeXi5zYg,ĒLZL,43.748425,142.415039,kCs8-1-1,20014,l,3684,46,0101025,Ă,,,True
30064174083457025,TiBPbgYEfvg,S͊O,43.813957,142.440308,kCsiR321 1-3,20380,iR,653,8,0101017,,,,True
91603,nqb02joHtQQ,͂ǂ iRX,43.80438914057748,142.42293773404543,kCsiR214-49-1,20380,iR,1720,21,0101017,,1,,False
108517,QiwaOls7gV6,򂢂Θaኄ,43.75593790,142.39955718,kCsL142-1,20014,l,2226,27,0101017,,1,,False
109735,2nd8aApNVIc,ΐV ,43.7699215,142.3608703,kCs57E657Hӂ[,20012,,755,9,0101017,,1,,False
75414948516954113,ybNQtxppxmY,ĒeBs,43.789062,142.414185,kCsiR 71-13,20555,iR,1397,17,0101025,Ă,,,True
94976,1UkoEqL07j2,H V A.s.hX,43.76605168,142.35881674,kCs17-43-40 A.s.hr1F,20012,,349,4,0101017,,1,,False
95660,pV60L3z5-Hs,wiJH Ȃ̉,43.76254583630499,142.35920773113588,kCs{Oʐ4153-1 JRw\1F,20012,,237,2,0101017,,,,False
90910,yHcgW0xp8LE,܂񂴂ǂ,43.76286012,142.35839331,kCs{8-3-1 w,20012,,155,1,0101017,,,,False
110358,EnEXJnCdRR6,,43.77843522,142.31404822,kCsa44-4-9,20324,ߕ,3062,38,0101017,,,,False
104121,Zkj-WVU59AM,_CjO[G,43.75930403,142.39626848,kCsL333-4,20014,l,1779,22,0101017,,,,False
107360,ZsuLN_Y5GrM,Γy X,43.79718972,142.41066770,kCsiR28-1-33 xKXxKXX1F,20555,iR,2597,32,0101017,,,,False
81371,1SIaDvzRYfQ,K,43.7649250831861,142.357982861652,kCs{7 wOr1F,20012,,164,2,0101017,,,,False
107545,kOqcIzWG37Q,Ώ S͂,43.81395835,142.44030001,kCsiR3211-3,20380,iR,652,8,0101017,,,,False
392000000000126701003101,slleJoB9Fl6,߂Z ߕX,43.7814085,142.337098,kCs[710-1-53,20324,ߕ,1631,20,0101018,ǂ,,,False
20130167741,DrOgtdOdtLU,uΓc,43.767237500000,142.357341944444,kCsQʂUډET,20012,,534,6,0101034,CN,9,,False
20130489263,7J8hPNYK62Y,Ώl,43.761164444444,142.387452777778,kCsSʂQT,20014,l,975,12,0101018,ǂ,8,,False
20130168959,5q5v0jX3GwY,Y,43.768281944444,142.357488888889,kCsRʂUډEQ,20012,,986,11,0101014,VՂAg,6,,False
20130436547,eSdgNiFThEY,Ƃ΂,43.764233055556,142.373231944444,kCsRʂPUڍQ,20014,l,373,4,0101017,,5,,False
20130605677,iKnD6HoGx1-,,43.788857222222,142.339864444444,kCsђPSڂQXTP|PV,20324,ߕ,1662,19,0101025,Ă,7,,False
20130759858,yIRNeZndlLg,CVۈX,43.785968611111,142.408785277778,kCsiRVSڂS|PT,20555,iR,843,10,0101012,i,4,,False
20130168975,kgAAAxytJLY,܂Βߊ,43.768465277778,142.357488888889,kCsRʂUډEP,20012,,1013,12,0101018,ǂ,4,,False
20130187430,2hw_giSes-Q,ځ[,43.645700000000,142.449271388889,kCs_yQQS,20328,P,302,3,0101053,aHȋj,4,,False
20130171997,y2re8wIfmbs,悵y,43.769806944444,142.360891388889,kCsTʂVډEV,20012,,750,9,0101025,Ă,4,,False
20130175641,JMSk6OSS9kU,K,43.796345277778,142.347404722222,kCs咬QPT,,,,,0101012,i,3,,False
20130840693,oI3fEtYl_u6,ΏE,43.785485555556,142.354230000000,kCsPUڂWSP|RW,,,,,0101018,ǂ,3,,False
20130169167,JDiqOJWE_6E,~,43.767812500000,142.359636111111,kCsRʂVډEU,20012,,551,6,0101014,VՂAg,3,,False
20130179524,c6Mu5aQxq3E,܂Βߊ얖LX,43.806196111111,142.386389166667,kCsLSRڂU|PP,,,,,0101018,ǂ,2,,False
20130862806,fugJKkyM3HU,ȂƉ@iRX,43.791278888889,142.401641111111,kCsiRQSڂQ|QR,20555,iR,1612,20,0101027,,3,,False
20130690433,8xWFeGbp2WE,Tr,43.768754166667,142.357725000000,kCsRʂU,20012,,1026,12,0101012,i,1,,False
20130862813,pu8QiEI_K5s,ȂƉ@_yX,43.751395000000,142.356348055556,kCs_ySPQڂPO|PQ,20114,_y,861,10,0101027,,3,,False
20130173162,jSSjwTc7---,,43.763235833333,142.373537500000,kCsQʂPUڂPOXO|R,20014,l,361,4,0101012,i,1,,False
20130817835,RtOujjeGpCE,K`,43.789104444444,142.341264166667,kCsk咬PR,20324,ߕ,1768,21,0101050,F[Ă,3,,False
20130840685,iJoq0le6Rf6,΂񂴂Eӂ,43.768579166667,142.359305555556,kCsRʂVڂSQT|T,20012,,665,8,0101005,,3,,False
20130170424,h1mqV2vaoZg,KxX,43.769437222222,142.357550000000,kCsSʂTډEPO,20012,,830,10,0101012,i,1,,False
20130184708,-qiK-MNeyCo,ٌc,43.770500555556,142.405947222222,kCsLPRT,20555,iR,1803,22,0109001,痿,1,,False
20130521561,J-JzOQxJAzM,܂,43.768762500000,142.358725000000,kCsRʂUڍP,20012,,711,8,0101011,{,1,,False
20130566133,RVxVo6cyVME,Ƃ񂩂oOt,43.770176111111,142.360363611111,kCsTʂVډEQ|P,20012,,857,10,0101015,Ƃ񂩂,1,,False
20130184722,zqEx2W7clTg,gq,43.771158888889,142.407977777778,kCsLPRTڂS|PO,20555,iR,1654,19,0101018,ǂ,1,,False
20130865348,Djp7I7N5Goo,O@{X,43.765821111111,142.358164166667,kCsPʂV,20012,,305,3,0101031,́AAeq,2,,False
20130744191,6DssgGlwQYg,ՌÎ,43.769081944444,142.360169166667,kCsSʂV,20012,,683,8,0101032,ꗿ,1,,False
20130695772,HHuUT_ved4Q,ēE,43.745199166667,142.376529444444,kCs_yQTڂP|PU,20114,_y,1657,20,0108001,ē,1,,False
20130172095,nvnz_59XgDk,p,43.769731944444,142.361938333333,kCsTʂW,20012,,1008,12,0101012,i,1,,False
20130720096,GbuTBWOoXLs,|v,43.759889444444,142.384714166667,kCsPʂQS,20014,l,1038,12,0101053,aHȋj,1,,False
20130872050,bi9n9jk-1K6,{Ǝ@Ԃ,43.767631944444,142.359386111111,kCsRʂVڂVPP|Q,20012,,490,6,0101027,,,,False
20130170496,n0XGoHk5I9I,,43.769095833333,142.358852777778,kCsSʂUډEW,20012,,1033,12,0101011,{,,,False
20130167641,_W4P2Gbp2WE,C,43.768754166667,142.357725000000,kCsRʂU,20012,,1026,12,0101011,{,,,False
20130521729,CXki4hvXtbY,aHނ,43.759088333333,142.416141111111,kCsLSWڂQ|P,,,,,0101011,{,,,False
20130724979,9S2qaw7oUDM,Ƃ񂩂QX,43.766537777778,142.358775000000,kCsQʂVډET,20012,,360,4,0101015,Ƃ񂩂,,,False
20130755153,Ca5TT_2sRP-,݉,43.764408333333,142.382200277778,kCsTʂQPڂPVQP,20014,l,616,7,0101053,aHȋj,,,False
20130169839,LdL6v8ERRLo,Ώ,43.766001944445,142.365099444444,kCsRʂPP,20012,,925,11,0101025,Ă,,,False
20130826175,uKwuwpYhPps,ʓ@,43.767898611111,142.359686111111,kCsRʂVڂPPUS|S,20012,,541,6,0101011,{,,,False
20130827866,XDGbzImf_dg,Eʒ,43.769884444444,142.359469166667,kCsSʂU,20012,,1108,13,0101011,{,,,False
20130831667,TU7GYrEgM56,А@CI[wOXPKX,43.764632500000,142.357597500000,kCs{ʂVڂQ|T,20012,,160,2,0101015,Ƃ񂩂,,,False
20130822609,5zLJXx3y6Lw,P,43.813169444444,142.436222777778,kCsiRQQOڂP|U,20380,iR,234,2,0101012,i,,,False
20130807008,wBdCNYK9tFE,{΂,43.754386666667,142.368488333333,kCsUʂPVڂR|PT,20014,l,1550,19,0101025,Ă,,,False
20130190557,PDXNnGMBdJA,wOԂ,43.764932500000,142.358555833333,kCs{ʂV,20012,,434,5,0101018,ǂ,,,False
20130827862,5Pnaq8NDbE2,Tቮ,43.767482222222,142.361394166667,kCsRʂW,20012,,563,7,0101011,{,,,False
20130827863,Lg3L0H8pee-,Rf,43.768015555556,142.361180277778,kCsRʂWڍS,20012,,603,7,0101005,,,,False
20130868413,5-nhUr4buH6,lč؎V,43.768687500000,142.361585833333,kCsSʂW,20012,,662,8,0101011,{,,,False
20130178514,qkkFMUWt8Fs,O[vtX,43.813635277778,142.351675000000,kCstQQڂR|PO,,,,,0101012,i,,,False
20130169243,LEzWxvtn3EA,,43.768495833333,142.359311111111,kCsRʂV,20012,,945,11,0101022,Ԃ,,,False
20130432147,sRQdYaxX3cg,Аl@,43.807718333333,142.391949444444,kCsLPUڂP|QW,,,,,0101012,i,,,False
20130489485,9OaSAKQxq3E,܂Βߊ얖LX,43.810136944444,142.377759444444,kCsLSRڂU|PP,,,,,0101018,ǂ,,,False
