id,gid,name,latitude,longitude,address,satation_id,station_name,station_distance,station_time,genre_code,genre_name,review_count,access,paypay_flg
100001161748,e4QF0nzuRCo,ƒhƒ‰ƒCƒuƒCƒ“‚İ‚³‚«,42.58905030532692,140.68721848029963,–kŠC“¹ˆ¸“cŒS–L‰Y’¬‚‰ª48-4,20357,–L‰Y,2977,37,0101034,ŠC‘N—¿—,7,JRº—––{ü(’·–œ•”Eº—–`“Ï¬–q)^–L‰Y‰w “k•à42•ª (3298m),False
100000772723,e5RM-Z9s9Qs,ƒhƒ‰ƒCƒuƒCƒ“‚¢‚¸‚İ,42.601205,140.651577,–kŠC“¹ˆ¸“cŒS–L‰Y’¬–Lò162,20072,‘åŠİ,2526,31,0101031,˜¥‚à‚ÌA‹˜¥Aeq˜¥,,JRº—––{ü(’·–œ•”Eº—–`“Ï¬–q)^‘åŠİ‰w “k•à28•ª (2190m),False
100000318777,fTODS3hdk5w,Ÿõ‚µ,42.58374783138725,140.70947292949984,–kŠC“¹ˆ¸“cŒS–L‰Y’¬K’¬7,20357,–L‰Y,713,8,0101,˜aH,1,JRº—––{ü(’·–œ•”Eº—–`“Ï¬–q)^–L‰Y‰w “k•à10•ª (756m),False
100000899795,jIT656nlcJE,‹ğ‰®G,42.58290153,140.71145732,–kŠC“¹ˆ¸“cŒS–L‰Y’¬ŠCŠİ’¬13,20357,–L‰Y,552,6,0101025,Ä‚«’¹,,JRº—––{ü(’·–œ•”Eº—–`“Ï¬–q)^–L‰Y‰w “k•à6•ª (457m),False
95505,khDK7FgX4_o,‚©‚Á‚±‚¤,42.57988269,140.71521842,–kŠC“¹ˆ¸“cŒS–L‰Y’¬šˆ®’¬21-2 –L‰Y‰w\“à,20357,–L‰Y,27,0,0101017,‚»‚Î,,,False
20130388425,cCrPGOO8-0M,‚Æ‚èŸ,42.585367777778,140.709193333333,–kŠC“¹ˆ¸“cŒS–L‰Y’¬šK’¬‚W‚V|‚P‚R,20357,–L‰Y,846,10,0101025,Ä‚«’¹,,,False
