id,gid,name,latitude,longitude,address,satation_id,station_name,station_distance,station_time,genre_code,genre_name,review_count,access,paypay_flg
100000820861,6luMyB9uui6,mH,44.017508552102875,145.1921056358483,kCڗSP{361-1,,,,,0101034,CN,10,,True
100000699082,aCNRYJU3yPI,k̍ ̔ԉ,44.01380444765716,145.18951286791093,kCڗSP當2-8,,,,,0101034,CN,10,,False
100000699080,uVVtbVUk_II,y Ђ됣,44.0209978,145.19260299999996,kCڗSPxm57,,,,,0101034,CN,8,,False
100000824557,NLua9PpFfng,܂ݐH,43.96423599,145.13959949,kCڗSPz27,,,,,0111,HAH,7,,False
100000699892,_SOGwoE0ltg,P̏h ܂,43.971741,145.149027,kCڗSPؕl24Ԓn,,,,,0101011,{,30,,False
100000899685,OPK3yYNFNiM,PcX@CNH[,44.017460943728,145.19221639352,kCڗSP{361,,,,,0101034,CN,3,,False
100000901342,BbV02KQcnDg,,44.023566621061406,145.18758389969412,kCڗSPh100Ԓn73,,,,,0101018,ǂ,1,,True
100001164764,MlX6NJnIZuQ,߂ ,44.02118689579999,145.1886012975,kCڗSPΒ300-6,,,,,0111,HAH,1,,False
100001164589,M1XpuIypxck,H ,44.02172512,145.19854094,kCڗSPD143-1,,,,,0101034,CN,1,,False
100000904383,KFVTqIypxck,,44.020194523673,145.19469289119,kCڗSPD1-6,,,,,0106001,[,1,,False
100001165248,xKQLTe9vylQ,,44.01868321473186,145.1930139286651,kCڗSP{369-1,,,,,0101,aH,9,,False
100000903249,czbK2u95Bto,CN@M,44.02129179,145.19214689,kCڗSPxm86-2,,,,,0101034,CN,1,,False
100000699088,f2qnEkQSAz-,ݎ,44.0200368,145.19274470000005,kCڗSPxm4-1,,,,,0101,aH,1,,False
100000907925,Yox7q9MFFNA,H̓X֎q,44.013362193905,145.18835898931,kCڗSP當10-5,,,,,0111,HAH,,,False
100000699087,YOKHe53RS2A,׏ ,44.0209312,145.192628,kCڗSPxm-48,,,,,0101034,CN,,,False
100000699085,kp-zR5se6TU,aH ܂邱,44.0210061,145.19138640000006,kCڗSPxm-108,,,,,0101018,ǂ,,,False
100000900669,xNeqwtQ1_LI,lG̖ ,44.02003638,145.19274406,kCڗSPxm4-1,,,,,0101034,CN,,,False
100000320533,Lkn1b9Z5arA,ƘF΂,44.02166952,145.19223856,kCڗSPD19-8,,,,,0101050,F[Ă,,,False
100000320534,QyPh3x3kdcM,g,44.0209312,145.192628,kCڗSPxm48Ԓn3,,,,,0101025,Ă,,,False
100000909726,W-jZywp8fMc,lqR,43.974208842994,145.15135374767,kCڗSPؕl8-1,,,,,0101011,{,,,False
100000902576,RTFNE898Vf2, ,44.02037940994,145.19334321711,kCڗSPxmrWlXze1F,,,,,0106001,[,,,False
100000909990,KSVfHLGnDzQ,݂ˉ,43.8761760250407,145.09454339999996,kCڗSPl10,,,,,0106001,[,,,False
20130428903,c4ZsbdQ1_LI,ΏZ,44.020203055556,145.193066388889,kCڗSPxm,,,,,0101018,ǂ,,,False
20130428740,BbV02Gov8Kc,Ώ,44.028743611111,145.181541944444,kCڗSPh,,,,,0101018,ǂ,,,False
