id,gid,name,latitude,longitude,address,satation_id,station_name,station_distance,station_time,genre_code,genre_name,review_count,access,paypay_flg
100000901318,6y61kbF3UVo,h,43.055099452737,141.35425460855,kCDys܏3 4O[r 2F,20288,,134,1,0101022,Ԃ,,DyscnSk^̉w k2 (134m),False
100000904842,qgcU6WEZl-Q,Ȃ~[ DyOzX,43.05937607,141.35374015,kCDys3-8 DyOz {B1F,20073,,115,1,0101031,́AAeq,,DysdR@^Sډw k2 (130m),False
100000902356,4kAoEcsCdpU,{n{؁@y̌O,43.05629769999999,141.3558435,kCDysl𐼓42r B1F 2,20513,L,69,0,0110,ArAz[,,DyscnSL^L̉w k1 (82m),False
100000900176,NN9-ozrYaSc,H쏈@,43.055155163756,141.35572050334,kCDys܏2 Ќكr2F,20513,L,99,1,0110,ArAz[,,DyscnSL^L̉w k2 (125m),False
100001309780,OIJhemtl0bc,tBbV[}Y}[Pbg SEAFOOD TOWER STYLE,43.056651520943824,141.35418643951414,kCDysO32^r1F,20288,,166,2,0101,aH,,DyscnSk^̉w k2 (116m),False
100000911724,itSjMFAJwjs,d܂Ԃ,43.055386912378,141.35400220587,kCDysl3-2-7 2O[r 7F,20288,,65,0,0119001,o[,,DyscnSk^̉w k2 (94m),True
100000905537,CuwjIHtqquk,k̋ Dy,43.058736805326,141.35012457763,kCDys5̓rn1F,20073,,158,1,0101034,CN,,DysdR@^Sډw k3 (188m),False
100000698120,g48uuoCwyOg,,43.05950006139107,141.35460468220901,kCDys21Krn1K,20073,,130,1,0101,aH,,DyscnS^ʉw k2 (109m),False
100001516316,5BzmOHXHr4U,GACHIǂ,43.0542253,141.35074669999995,kCDys܏5 2όr 5F,20299,ُwZO,263,3,0101025,Ă,,DysdR@^ُwZOw k3 (197m),False
100000910998,-DzxEwqa4W-,L悵,43.056423820896,141.35403050383,kCDysO3sr 6F,20288,,100,1,0101025,Ă,,DyscnSk^̉w k2 (112m),False
100000903488,qCo2eabo_pc,򂤓,43.054742026392,141.35052806735,kCDysl𐼃V[[r 1F()5,20299,ُwZO,200,2,0110,ArAz[,,DysdR@^ُwZOw k2 (107m),False
100000910223,7b1F32cR1YE,傤̍B DyX,43.059460074566,141.35474201562,kCDys2-5Kr B1F,20073,,113,1,0101031,́AAeq,,DyscnS^ʉw k2 (116m),False
100000901344,mw0lfOHYHbo,ҁ[,43.054934034784,141.35607293081,kCDys܏2 Ќكr 1F,20513,L,110,1,0110,ArAz[,,DyscnSL^L̉w k1 (85m),False
100000902187,5m7k9KaYUt6,^CK[ Ah hS,43.053152874675,141.35338075325,kCDysZ4 r4F,20513,L,319,3,0101014,VՂAg,,DyscnSk^̉w k4 (292m),False
100000902054,AtxBkh66_7I,Dy킵Vbv,43.060875746114,141.35516382305,kCDysʐ2ۂnXI[^E,20073,,64,0,0118,XC[c,,DyscnS^ʉw k1 (83m),False
100000903446,yxQp14wx64o,c ׂ ʓX,43.058713759316,141.35014927887,kCDys5Xݏr B1F,20073,,160,2,0101034,CN,,DysdR@^Sډw k3 (185m),False
100001203697,ZyBHzyrEfl6,݋ƕ ̖{X,43.05634774594618,141.35379215478895,kCDysO3JvZCDy1K,20288,,74,0,0101034,CN,,DyscnSk^̉w k1 (87m),False
100000910402,MU7pbANAiBo,,43.056439766687,141.34714141888,kCDysO76 KXNGA 1F,20413,W,252,3,0101014,VՂAg,,DysdR@^Wډw k4 (265m),False
100000902835,Lmh3jK_whU2,₶ׂ A[oX,43.056373315838,141.35178826239,kCDysO4A[or B1F,20288,,189,2,0110,ArAz[,,DyscnSk^̉w k3 (176m),False
100000901174,CM0kFb1Do6-,a_CjO  ̓X,43.053185472727,141.35337883738,kCDysZ4 ^JZr 1F,20513,L,316,3,0119004,_CjOo[,,DyscnSk^̉w k4 (288m),False
100000903940,BiNgC1bNbNI,䂤,43.054955407128,141.35650404925,kCDys܏2 Ќكr 1F,20513,L,55,0,0110,ArAz[,,DyscnSL^L̉w k1 (38m),False
100000902388,0BmS-CYT9m2,Ս ̓X,43.054492047075,141.35545063036,kCDys܏2 I[Nr7F,20513,L,183,2,0110,ArAz[,,DyscnSL^L̉w k2 (164m),False
100000068641,Hwe73D-98m2,뗬,43.05735749999999,141.35647919999997,kCDysO1-2,20513,L,120,1,0101,aH,,DyscnSL^L̉w k4 (264m),False
100000900173,0pKEzlFwdvk,Ԃт,43.056266236411,141.35370255186,kCDysO3r 5F,20288,,58,0,0101,aH,,DyscnSk^̉w k1 (73m),False
100000907484,Dz6xjkklMVU,Ή XXLmX,43.055360707543,141.35468282455,kCDysl3-1-1 No3O[r 1F,20288,,158,1,0101017,,,DyscnSk^̉w k2 (165m),False
100000068897,D5SpK6jU7vw,,43.0577396,141.31664939999996,kCDysk27-3-20 ANr1F,20540,~R,248,3,0101017,,,DyscnS^~Rw k5 (343m),False
100000757677,MobN2lt0FOQ,Jl^ O ls,43.05664623484978,141.35384186501233,kCDysO3 [r 1F,20288,,134,1,0101034,CN,,DyscnSk^̉w k2 (139m),False
100000729704,l3R0GIFUYcw,CN≮ }C` H ʓ@ ̂X,43.0575185,141.35054909999997,kCDys5ړ2.5r B1F,20416,S,262,3,0101034,CN,,DysdR@^Sډw k3 (204m),False
100000900043,kfrlF_0U3Us,aH T,43.053716535595,141.34982777764,kCDys܏656r,20299,ُwZO,263,3,0101,aH,,DysdR@^ُwZOw k2 (167m),False
100000911914,DVM99kTY-no,قĂ̕,43.052925507125,141.35130090561,kCDysZ𐼐5-7-1 p[LO,20474,{莛O,299,3,0101018,ǂ,,DysdR@^{莛Ow k3 (247m),False
100000904269,RMH77txIRs2,̂,43.040037893123,141.34049132273,kCDys\l12-2-22,20406,PS,451,5,0115001,JtF,,DysdR@^PSw k6 (445m),False
100000904720,ZlSYLC5BhIk,aK OzDyX,43.05937607,141.35374015,kCDys3-8 OzDyX B1,20073,,115,1,0101015,Ƃ񂩂,,DysdR@^Sډw k2 (152m),False
100001261691,dUv56FBDfcQ,a,43.054147538282244,141.35438184292218,kCDys܏3ڒQԊكr B1F,20513,L,281,3,0110,ArAz[,,DyscnSk^̉w k3 (220m),False
100000068623,FRj1RLnp6Zc,ic,43.0598198,141.31460779999998,kCDyskO28-1-22 2F,20412,QW,86,1,0101,aH,,DyscnS^QWډw k1 (59m),False
100001186539,G5797I702nE,,43.05741220358724,141.35247945785522,kCDys4 DyiiC1K,20288,,222,2,0106001,[,,DysdR@^Sډw k3 (176m),False
100000900625,pUrTkRmd4pw,Ꞩ,43.052850319198,141.35014096609,kCDysZ6 GXG[r3F,20474,{莛O,214,2,0101025,Ă,,DysdR@^{莛Ow k2 (145m),False
100000901874,XDutjwdmfHY,̉,43.048947106034,141.35438618601,kCDys4-1-14,20373,,49,0,0101011,{,,DyscnSk^w k1 (59m),False
100001481495,xyJzd431fKc,Ƃ悵 }}NXX,43.05498963015402,141.31788404139297,kCDys27-1-1 }}NX1F,20540,~R,230,2,0101015,Ƃ񂩂,,DyscnS^~Rw k2 (101m),False
100000068831,VU1xGp4bIh6,RLb`,43.0395724,141.31695319999994,kCDysE1-8-2,20406,PS,1919,23,0101025,Ă,,DyscnS^~Rw k23 (1774m),False
100001302978,U34zAMQvo62,ԂԎ ,43.0560693,141.35353229999998,kCDysl3-9-1 2Mr7K,20288,,21,0,0101022,Ԃ,,DyscnSk^̉w k1 (18m),False
100000911575,W09_UIkqYlY,Ȃ,43.053755648141,141.32775793613,kCDysl20-1-1,20402,PW,422,5,0101,aH,,DyscnS^PWډw k6 (466m),False
100001529434,_czIeQptA_g,̕l@DyOzX,43.0593514,141.3528697,kCDys3-8 DyOz B1F,20073,,43,0,0114001,AAٓ,,DyscnS^ʉw k1 (29m),False
100001260263,cykOPLA_H5w, ̓X,43.0552043,141.35457889999998,kCDysl𐼎O1-2 N-PLACE2K,20288,,169,2,0101047,,,DyscnSk^̉w k2 (160m),False
100000910003,pBJ4R7d5JbA,X~rLg@Tgr,43.046136648312,141.35028663690002,kCDys\61-27,20374,,58,0,0101025,Ă,,DysdR@^ʉw k1 (54m),False
100001483558,frd72Ihp8DM,̏ a,43.05381932818407,141.3550685638063,kCDysZ3-6-31 WCt揬Hr 2F,20513,L,212,2,0101011,{,,DyscnSL^L̉w k3 (202m),False
100000070733,E6h844EKBas,Daigoʓ@,43.0562725503036,141.350854935582,kCDysO5 NORBESA 1F,20288,,254,3,0110,ArAz[,,DysdR@^ُwZOw k3 (174m),False
100000904302,8CxqyPsSw2-,{NHV@a,43.059583872134,141.3494089952,kCDysʐ5arB1F,20073,,40,0,0101031,́AAeq,,DysdR@^Sډw k4 (279m),False
100000901352,x2laO4bo_pc,a dinning Ԃ݂Â,43.055714966049,141.35071077199,kCDysl5 F-45r 9F,20288,,217,2,0119004,_CjOo[,,DysdR@^ُwZOw k2 (126m),False
100000908715,VnYpVv8XY1s,ǂ Dy2X,43.057906186165,141.35029205467,kCDys5ze\Dy 1F,20416,S,225,2,0101031,́AAeq,,DysdR@^Sډw k3 (199m),False
100000906553,H499lsBgz9E,k,43.054090244643,141.34255387784,kCDysl10-1003-4,20316,O,428,5,0115001,JtF,,DysdR@^Ow k6 (416m),False
100000730727,pdozlm_F_pI,cq DypRX,43.058774,141.35319300000003,kCDys3ڎDyPARCO 8F,20073,,130,1,0101015,Ƃ񂩂,,DysdR@^Sډw k2 (153m),False
100000903811,3gZlaUDq0mo,؂ƌ{ Ђ,43.056351281824,141.35243468732,kCDysO6CtBjja22 8F,20288,,174,2,0101025,Ă,,DyscnSk^̉w k2 (111m),False
100001543011,LzqJPd3PBmc,Veggy Way,43.05624000038272,141.31678577055226,kCDysʐ27-2-3 ~RjaWest27,20540,~R,72,0,0115001,JtF,,DyscnS^~Rw k1 (59m),True
100001428044,KubaChuVKy6, y,43.05395948016037,141.35250345214956,kCDys܏4-5 ̎r,20288,,270,3,0101,aH,,DyscnSk^̉w k3 (169m),False
100000010663,L0BNhMqbgLE,,43.052888796367,141.35288447142,kCDysZ4-3,20513,L,386,4,0106001,[,,DyscnSk^̉w k4 (324m),False
100001455539,lwqyheVmdng,znNE  8ړX,43.058329336567546,141.34474238129155,kCDys8ڏZr1F,20413,W,216,2,0110,ArAz[,,DysdR@^Wډw k3 (197m),False
100000904159,65i1ObWgJRM,Ƃ񕺉qۂ,43.057817695418,141.35652075382,kCDys1,20513,L,187,2,0101025,Ă,,DyscnSL^L̉w k4 (314m),False
100000903664,za5UEABg-tc,X,43.054035527063,141.34801112405,kCDys܏7,20299,ُwZO,201,2,0101,aH,,DysdR@^ُwZOw k3 (228m),False
100000899869,6qTo_n4_8Yw,F΂₫ ÒO,43.055534721019,141.34994968932,kCDysl6 cr B1,20299,ُwZO,151,1,0101031,́AAeq,,DysdR@^ُwZOw k1 (46m),False
100000904236,gPqfl-0Mf0U,Ē ,43.054133397834,141.35275788945,kCDys܏𐼃ACVr2 1F4,20288,,239,2,0101025,Ă,,DyscnSk^̉w k3 (191m),False
100001521617,Thuc4SImHWo,I_,43.05404549060245,141.35225884723877,kCDys܏4-13-4,20288,,253,3,0101,aH,,DyscnSk^̉w k3 (169m),False
100000704849,zQCxEAqa4W-,aH~,43.0568187,141.35395719999997,kCDysO3 vC^Er 3F,20288,,143,1,0101011,{,,DyscnSk^̉w k2 (139m),True
100000899957,h6Z-9mpGsjY,{Y DZ^[X,43.070952561474,141.31923860177,kCDysk\23-1-2 DZ^[,20418,\l,472,5,0114001,AAٓ,,DyscnS^\lw k8 (577m),True
100000903513,pVcSLXwq5OU,`,43.054321883936,141.35104884633,kCDys܏5 LCZԊ 4F,20288,,263,3,0110,ArAz[,,DysdR@^ُwZOw k3 (181m),False
100000069769,5eF6R6ik5_U,tHOKUSAI,43.0309769,141.3452373,kCDys\10-2-12 ݃r 1F,20042,ΎR,120,1,0110,ArAz[,,DysdR@^ΎRʉw k1 (22m),True
100000900894,wUOuFueKZaU,܂Ƃ,43.071008285974,141.31922994891,kCDysk\23-1-27DZ^[1F,20418,\l,488,6,0101018,ǂ,,DyscnS^\lw k8 (577m),True
100000905277,-NSAehK8R2Y,,43.055716049649,141.32444659289,kCDys222-5 XtHh 2F,20402,PW,385,4,0101029,DݏĂAĂ,,DyscnS^~Rw k8 (620m),False
100001542201,z0ZCGzC7oGs,OH p_S suEzou ,43.05640656460368,141.35656791712722,kCDysl1-4,20513,L,23,0,0104001,ؗ,,DyscnSL^L̉w k1 (18m),False
100000906472,kSX4FR5YPmE,YΏā@,43.053893213671,141.34991932903,kCDys܏6 5jar1F,20299,ُwZO,256,3,0110,ArAz[,,DysdR@^ُwZOw k2 (149m),False
100000902155,OHw2acZKv_Y,hitosina.,43.053235511486,141.35215007305,kCDysZ5 ACr 3F,20288,,327,4,0119004,_CjOo[,,DyscnSk^̉w k4 (308m),False
100000800902,XObiLF_r0ug,킩,43.055862732840325,141.35185320796927,kCDysl4-14-2MYvUr7K,20288,,135,1,0110,ArAz[,,JRٖ{(M`)^Lyw k103 (8199m),False
100000903445,uueJhAERpwU,K`⎟,43.056069933661,141.35183865645,kCDysO4-11-3,20288,,152,1,0108003,z,,DyscnSk^̉w k2 (161m),False
100001250575,SJhoIchCTFc,̊CNs,43.053986088994876,141.35315647125242,kCDysZ4 Dỹ[4F,20288,,275,3,0101034,CN,,DyscnSk^̉w k3 (199m),False
100000904664,8R7u4WJq1Ws,͂񏈁@IgH,43.057838173629,141.35836788388,kCDysO1,20513,L,303,3,0101031,́AAeq,,DyscnSL^L̉w k5 (357m),False
100001258298,RHIiUKoE51I,₶ׂ,43.06533764813611,141.36560497016364,kCDysk7-82 |[iR1F,20456,oXZ^[O,494,6,0101034,CN,,DyscnS^oXZ^[Ow k5 (370m),False
100000901036,VlIfjyUvFQY,ĒX ςς 1X,43.05905652,141.34963218,kCDys5-17-2 Zgxmr 1F,20073,,146,1,0110,ArAz[,,DysdR@^Sډw k2 (145m),False
100000901463,nwXQgfyTFcA,,43.06304020277945,141.35445405306712,kCDysk2ڃI[NDyrn1K,20073,,207,2,0101034,CN,,DyscnS^ʉw k2 (142m),False
100000902820,-3zi2PQ_7g-,Γ@,43.066538608063,141.34663019682,kCDysk܏62-2 DyZ^[r B1F,20210,ۂ,354,4,0101017,,,DyscnSk^ۂw k6 (408m),False
100000906567,NjrvmkH_UUM,Ðm,43.05507048522,141.3557908482,kCDys܏2-9-27O[r1F,20513,L,105,1,0101,aH,,DyscnSL^L̉w k2 (116m),False
100001513415,KesDlshu1Sg,,43.069655014598744,141.32529953966207,kCDysk\19,20298,K,621,7,0101034,CN,,JRٖ{(M`)^Kw k9 (661m),False
100000904234,fxcByWR9RrE,ӂƂƂg,43.053976778058,141.35480521207,kCDysZ3 r 3F,20513,L,238,2,0101034,CN,,DyscnSL^L̉w k4 (253m),False
100000903680,xbhoXk0Mf0U,Ĉ叫 ̓܏X,43.054295236327,141.35288949768,kCDys܏𐼑8|[X^[r3K,20288,,209,2,0101034,CN,,DyscnSk^̉w k3 (170m),False
100000904267,qkjnKZB1Is-, 3X,43.056738104282,141.35226779847,kCDysO4JcLXNEFA[ B1F,20288,,178,2,0101025,Ă,,DyscnSk^̉w k2 (153m),False
100000906408,97EqTDw-Cqk,g,43.053173602505,141.35341005919,kCDysZ4 G4r B1F,20513,L,315,3,0101017,,,DyscnSk^̉w k4 (290m),False
100000903381,WpIQk4uS-wg,,43.055482683567,141.35456124401,kCDysl𐼑3O[r B1F3,20288,,109,1,0101022,Ԃ,,DyscnSk^̉w k2 (148m),False
100000912074,ib-mTGWaugU,łǂ ,43.049847414438,141.34785305227,kCDys씪8 䈟88 1F,20319,R@X,257,3,0101018,ǂ,,DysdR@^{莛Ow k4 (274m),False
100000912198,OCaZovn7fww,oh,43.05797965339,141.35851923383,kCDysO1- ̂񉡒,20513,L,345,4,0101017,,,DyscnSL^L̉w k5 (379m),False
100000068736,jYDox3fFSP-,PQ}}NXX,43.0548816,141.31781339999998,kCDys27-1-1 MARUYAMA CLASS 1F,20540,~R,228,2,0101,aH,,DyscnS^~Rw k2 (140m),False
100000901592,zA-Fs6VSC0s,ؔ҉,43.054059614201,141.35025439793,kCDys܏6 5jar 1F,20299,ُwZO,265,3,0110,ArAz[,,DysdR@^ُwZOw k2 (143m),False
100000901401,eE8Phzv-MQo,kCt 낤 ̓X,43.054277947022,141.35018279424,kCDys܏6 j[jar 1F,20299,ُwZO,224,2,0110,ArAz[,,DysdR@^ُwZOw k2 (118m),False
100000903785,_RzC5SRVL3M,EXIT BAR;PLUS,43.064813395891,141.3529529756,kCDysk2sƉ{r2F,20210,ۂ,167,2,0107001,J[,,DyscnSk^ۂw k5 (342m),False
100000910054,f-aScNf5l1A,܂,43.059322769151,141.35886431121,kCDys2-7-1,20456,oXZ^[O,255,3,0101034,CN,,DyscnS^oXZ^[Ow k4 (280m),False
100000910485,MwM-is1w02s,{,43.066776389135,141.34702008566,kCDysk܏62ʃr B1F,20210,ۂ,327,4,0101014,VՂAg,,DyscnSk^ۂw k5 (367m),False
100001274949,ZTVfyQL-FLE,,43.054116,141.3501665,kCDys܏6-9-4 5jar 2F,20299,ُwZO,263,3,0101,aH,,DysdR@^ُwZOw k2 (133m),False
100000904237,3sFNcOHX3dg,̂ӂg@ GX^X,43.067165928043,141.35271251412,kCDysk܏2GX^ B1F,20210,ۂ,60,0,0101029,DݏĂAĂ,,JRٖ{(M`)^Dyw k4 (269m),False
100000728926,0ojHEcBAA-I,k̂ǂ@ӂ CIDyKX,43.06944751767771,141.33336386375424,kCDysk14-28 CIDyKVbsOZ^[,20298,K,276,3,0101018,ǂ,,JRٖ{(M`)^Kw k3 (206m),False
100000152588,tHd66CjuvV2, ďĒX,43.0615733,141.3414776,kCDysk10 m[UR[g 1F,20400,PP,385,4,0101025,Ă,,DyscnS^PPډw k4 (311m),False
100001472048,UxJxcEUWPOc,CNH Ƃ,43.05305389999999,141.35045420000006,kCDysZ6-7-1-1F,20474,{莛O,260,3,0110,ArAz[,,DysdR@^{莛Ow k3 (188m),True
100000904931,DcwSFjjaIGE,͂,43.056689221619,141.3333777405,kCDys16-1-320 FRAGRANCEO2F,20402,PW,176,2,0101018,ǂ,,DysdR@^PTډw k4 (304m),False
100000902337,y0rPLKNwIVQ,Ƃ,43.057039197897,141.35540733042,kCDysO2KTOr B1F,20513,L,152,1,0101014,VՂAg,,DyscnSL^L̉w k4 (276m),True
