id,gid,name,latitude,longitude,address,satation_id,station_name,station_distance,station_time,genre_code,genre_name,review_count,access,paypay_flg
100000909658,ErVRlnCwY2E,‚Ύ‚Ά‚Ύ‚Ά’ΰ,43.125272413155,141.25337646498,–kC“ΉD–ysθξ‹ζ‘O“cάπ10-5-9,20334,θξ,1169,14,0101031,¥‚ΰ‚ΜA‹¥Aeq¥,,JR”Ω–{ό(¬’M`®μ)^θξ‰w “k•ΰ15• (1202m),False
100000302049,Swqp3ed3z92,‰~‰®,43.1198411,141.2435769,–kC“ΉD–ysθξ‹ζθξ–{’¬κπ3’–Ϊ,20334,θξ,27,0,0101025,Δ‚«’Ή,,JR”Ω–{ό(¬’M`®μ)^θξ‰w “k•ΰ1• (50m),False
100001427964,qfXGj4VxllI,ƒƒXƒgƒ‰ƒ“ •™‚ΜεV D–yƒeƒCƒlƒSƒ‹ƒt‹δy•”,43.10400057915993,141.2091479411045,–kC“ΉD–ysθξ‹ζθξ–{’¬593 D–yƒeƒCƒlƒSƒ‹ƒt‹δy•” ƒNƒ‰ƒuƒnƒEƒX2F,20334,θξ,4849,60,0101,aH,,JR”Ω–{ό(¬’M`®μ)^ξ•δ‰w “k•ΰ39• (3073m),False
100000301886,ypsRvqDZcGE,•‹v’Ή,43.12771209,141.25018952,–kC“ΉD–ysθξ‹ζ‘O“cάπ12-13-25,20334,θξ,1211,15,0101025,Δ‚«’Ή,,JR”Ω–{ό(¬’M`®μ)^θξ‰w “k•ΰ14• (1093m),False
100000902864,Aba9-Dec93Y,’Cμ,43.132231452162,141.24302276185,–kC“ΉD–ysθξ‹ζ‘O“cZπ16-18-19,20334,θξ,1527,19,0101,aH,,JR”Ω–{ό(¬’M`®μ)^θξ‰w “k•ΰ17• (1334m),False
100001439702,YMarg5iGQ6w,–kΨ’ΰ V”­¦“X,43.1129258,141.27398889999995,–kC“ΉD–ysθξ‹ζV”­¦άπ3-1-10,20049,ξΟφ‰€,1900,23,0101022,‚µ‚α‚Τ‚µ‚α‚Τ,,JR”Ω–{ό(¬’M`®μ)^”­¦‰w “k•ΰ19• (1508m),False
100000900046,04Y87XoIkaU,ƒSƒEƒJƒN‰®,43.135993835675,141.22912144429,–kC“ΉD–ysθξ‹ζάπ4-1-1 D–y‰^“]–Ζ‹–±κ“ΰ,20050,ξ•δ,1485,18,0101031,¥‚ΰ‚ΜA‹¥Aeq¥,,JR”Ω–{ό(¬’M`®μ)^ξ•δ‰w “k•ΰ14• (1113m),False
100000278361,jSSZ-EoD5d2,©‘RΑ,43.121729689438155,141.2253103938658,–kC“ΉD–ysθξ‹ζξ•δOπ3-8-30,20050,ξ•δ,1040,13,0101008,“¤•…—Ώ—,,JR”Ω–{ό(¬’M`®μ)^ξ•δ‰w “k•ΰ10• (757m),False
100000301849,rZmiGdLYQZM,‘½’Γ”όυ‚µ•x‹u“X,43.10736165,141.25070727,–kC“ΉD–ysθξ‹ζ•x‹u“ρπ4-3-3,20049,ξΟφ‰€,788,9,0101,aH,,JR”Ω–{ό(¬’M`®μ)^ξΟφ‰€‰w “k•ΰ11• (879m),False
100000301847,aYFTyZP_o5k,΄υ‚µ,43.12065991,141.24200438,–kC“ΉD–ysθξ‹ζθξ–{’¬“ρπ4-7-20,20334,θξ,253,3,0101,aH,,JR”Ω–{ό(¬’M`®μ)^θξ‰w “k•ΰ3• (203m),False
100000904060,n_glFH-HsLo,”•ϋ θξ“X,43.119186868889,141.24512931641,–kC“ΉD–ysθξ‹ζθξ–{’¬κπ‚Ώ‚Ν‚ιƒrƒ‹ 1F3,20334,θξ,268,3,0101025,Δ‚«’Ή,,JR”Ω–{ό(¬’M`®μ)^θξ‰w “k•ΰ3• (189m),False
100000301837,CWSTgib8nYQ,‚·‚µ‰¤‘O“c“X,43.1194555,141.26469480000003,–kC“ΉD–ysθξ‹ζ‘O“cZπ5-1-5,20049,ξΟφ‰€,1112,13,0101,aH,,JR”Ω–{ό(¬’M`®μ)^ξΟφ‰€‰w “k•ΰ15• (1179m),False
100000901827,_qUJ70udtRU,‚ ‚½‚η‚µ‚β,43.119611865152,141.24343831869,–kC“ΉD–ysθξ‹ζθξ–{’¬κπη—tƒrƒ‹ 2F3-3-10,20334,θξ,61,0,0101011,“ϊ–{—Ώ—,,JR”Ω–{ό(¬’M`®μ)^θξ‰w “k•ΰ1• (79m),False
163385460822237185,wvBQAWFFqBA,‚Π‚Ζ‚­‚Ώ’ƒ‰® θξΌ—F,43.1203461,141.2452486,–kC“ΉD–ysθξ‹ζ‘O“cκπ 11-1-1 Ό—Fθξ“X1F,20334,θξ,209,2,0118,ƒXƒC[ƒc,,,True
91262,rnE2vLJ4f_o,‚δ‚Ε‘ΎY Ό‹{‚Μ‘ς“X,43.09800452,141.25606002,–kC“ΉD–ysθξ‹ζΌ‹{‚Μ‘ςάπ2-12-15,20049,ξΟφ‰€,1786,22,0101017,‚»‚Ξ,1,,False
141467250570649601,h9pT82vWUG2,ι½‹ξ,43.119766,141.242249,–kC“ΉD–ysθξ‹ζθξ–{’¬“ρπ 4’–Ϊ8-24 ƒLƒeƒl‘•ƒrƒ‹1F,20334,θξ,162,2,0101012,¬‚θυi,,,True
70358,ilLHnR9h3fE,‚ί‚ρZ‚β ƒ_ƒCƒiƒ€θξ“X,43.12361727,141.22274710,–kC“ΉD–ysθξ‹ζξ•δ3π4-6-48,20050,ξ•δ,666,8,0101017,‚»‚Ξ,,,False
85101,zX8Sz0zE7AU,‚²‚Ν‚ρ‚Η‚« θξ“X,43.12089851,141.23305774,–kC“ΉD–ysθξ‹ζξ•δ3π1-2-20,20334,θξ,1087,13,0101017,‚»‚Ξ,,,False
392000000000080701119705,XqMbhbwA-og,‰‚Ύ‚± ƒgƒ‰ƒCƒAƒ‹θξ“X,43.1282651,141.247843,–kC“ΉD–ysθξ‹ζ‘O“c5π13’–Ϊ3-1 ƒgƒ‰ƒCƒAƒ‹θξ“X1F,20334,θξ,1273,15,0101029,‚¨D‚έΔ‚«A‚½‚±Δ‚«,,,False
20130614324,l30xCVuy4_w,‚Ζ‚ρ‚ζ‚µθξ“Xo‘Oκ—pƒ_ƒCƒ„ƒ‹,43.122187777778,141.249792777778,–kC“ΉD–ysθξ‹ζ‘O“c‚Rπ‚P‚O’–Ϊ‚Q|‚Q‚P,20334,θξ,869,10,0101015,‚Ζ‚ρ‚©‚Β,1,,False
20130861675,d3IHltYDneE,¬’M‚Θ‚ι‚Ζ‰®θξ@ξ•δ“X,43.129188333333,141.212711111111,–kC“ΉD–ysθξ‹ζξ•δ‚Qπ‚V’–Ϊ‚U|‚P,20516,―’u,456,5,0101027,’Ή—Ώ—,2,,False
20130714739,_Jy0C41s4-w,‚Θ‚ι‚Ζ‰®θξ“X,43.132103055556,141.243792500000,–kC“ΉD–ysθξ‹ζ‘O“c‚Uπ‚P‚T’–Ϊ‚R|‚R‚O,20334,θξ,1495,18,0101027,’Ή—Ώ—,1,,False
20130123493,SscHLfd5wP6,ƒhƒ‹ƒtƒBƒ“,43.130047500000,141.237984722222,–kC“ΉD–ysθξ‹ζ‚Rπ‚Q’–Ϊ‚P‚O|‚T,20334,θξ,1447,18,0101053,aHi‚»‚Μ‘Όj,1,,False
20130728344,6jC43CgES7E,‚g]‚r‚”‚™‚‚…—Lΐ‰οΠ,43.111347222222,141.248076666667,–kC“ΉD–ysθξ‹ζ•x‹u‚Rπ‚U’–Ϊ‚P|‚P,20049,ξΟφ‰€,1089,13,0101018,‚¤‚Η‚ρ,,,False
20130126611,o8-KxWNbFV2,‚β‚«‚Ζ‚θ‚Ά‚΄‚©‚βΚ,43.123184722222,141.250836944444,–kC“ΉD–ysθξ‹ζ‘O“c‚Sπ‚P‚O’–Ϊ‚Q|‚P‚S,20334,θξ,871,10,0101025,Δ‚«’Ή,,,False
20130125009,MPA20N75d3-,‚β‚«‚Ζ‚θ‹π‰®‹ΰ‘ΎY,43.119037777778,141.243304444444,–kC“ΉD–ysθξ‹ζθξ–{’¬‚Pπ‚R’–Ϊ‚Q|‚W,20334,θξ,318,3,0101025,Δ‚«’Ή,,,False
