id,gid,name,latitude,longitude,address,satation_id,station_name,station_distance,station_time,genre_code,genre_name,review_count,access,paypay_flg
100000871967,_zvK2EJxfH6,ʂǂH[ ,42.96624300,143.43168209,kCSrcLc255-6,20351,,4608,57,0101018,ǂ,11,,False
100000857203,eBDw4NweDDc,yƁ@䂽,42.922106919560804,143.4511549153442,kCSrc174,20033,rc(kC),193,2,0101033,y,6,JR{(V`H)^rcikCjw k3 (209m),False
100001248912,Ps3G8oYPJv2,,42.92221054361951,143.45222843587396,kCSrc3,20033,rc(kC),138,1,0111,HAH,2,JR{(V`H)^rcikCjw k2 (132m),False
100000831307,Ykr_PX3gvrc,y̑q,42.92364932656473,143.4517287703012,kCSrc36Ԓn9,20033,rc(kC),316,3,0101047,,2,JR{(V`H)^rcikCjw k3 (218m),True
100000319905,TVsAuOAeZCk,Ƃ肹,42.92426853,143.45073823,kCSrc3-16,20033,rc(kC),455,5,0101025,Ă,2,JR{(V`H)^rcikCjw k5 (344m),False
100000899954,_GbXCk_pDRg,ɐD,42.930293446188,143.44634684333,kCSrc8,20033,rc(kC),1368,17,0101017,,2,JR{(V`H)^rcikCjw k15 (1166m),False
100000319926,-6r21Ba639A,X̏t,42.926609505460824,143.4504481263806,kCSrc5-10,20033,rc(kC),654,8,0101,aH,,JR{(V`H)^rcikCjw k8 (647m),False
100000319903,1tv3DT5Kzgo,U,42.92603493,143.44879104,kCSrc5-15,20033,rc(kC),764,9,0101,aH,,JR{(V`H)^rcikCjw k8 (636m),False
228306421242593281,JUSVl9voLoM,Ēq,42.923279,143.430725,kCSrcʓ 11-5,20351,,1580,19,0101025,Ă,,,True
20130413445,2qqjdr95nfQ,F΂,42.926812500000,143.448724444444,kCSrcPUڂRO,20033,rc(kC),853,10,0101050,F[Ă,,,False
20130857766,kJ-aYdbUqQ6,Ή,42.930097777778,143.431900277778,kCSrcʖ{PU|W,20351,,901,11,0101017,,,,False
20130846434,nxO-F5Eci4w,{ʉƁEyuT,42.931819722222,143.424356388889,kCSrcʐRO|PU,20351,,342,4,0101011,{,,,False
20130413456,_MZFQbhkuF6,VÕqY,42.928381944444,143.449135277778,kCSrcPV,20033,rc(kC),994,11,0101012,i,,,False
20130804159,RncnFw95yjg,y,42.929561666667,143.430425555556,kCSrcʖ{Q|U,20351,,897,11,0304003,h,,,False
20130413457,y_yYEbhkuF6,,42.928754166667,143.448671388889,kCSrcPV,20033,rc(kC),1024,12,0101012,i,,,False
