id,gid,name,latitude,longitude,address,satation_id,station_name,station_distance,station_time,genre_code,genre_name,review_count,access,paypay_flg
100000076184,MBrq7Vd3syU,{,43.093881,141.29388259999996,kCDys攭\3-4-13,20435,,498,6,0110,ArAz[,1,JRٖ{(M`)^w k7 (516m),False
100000075763,d1tKrT_s6ZM,̋ՎX,43.0797697,141.30762670000001,kCDysՎ1-6-15 j[A[1K,20195,Վ(ٖ{),226,2,0101025,Ă,6,JRٖ{(M`)^Վw k3 (204m),False
100000850561,aK81lT7hDTA,,43.08791030781477,141.27973335573483,kCDys攭Z9-1-1,29254,{̑,309,3,0101,aH,6,DyscnS^{̑w k5 (364m),True
h292700,SsiFtZ-ClJ-,؏{ 񂩂 ՎX,43.07765816,141.30449860,kCDysՎ3-1-6 zNIEr1F,20196,Վ(Dysc),174,2,0110,ArAz[,2,,True
100000927467,l0YF4M4h4xc,YΏĂ b,43.080081144184525,141.28760796800884,kCDys搼k8-1-2,29255,,310,3,0101025,Ă,4,DyscnS^w k4 (263m),False
ha2s700,VlPb1yYeLBE,ȂDining Ƃ,43.07857201,141.30633449,kCDysՎ12-5-3 nVgr2F,20196,Վ(Dysc),352,4,0110,ArAz[,,,True
100001424503,VzjVKHWMjKA,kC ы` Y JRՎwOX,43.0807419,141.30900429999997,kCDysՎ1-20 JRՎSˉ,20195,Վ(ٖ{),163,2,0110,ArAz[,2,JRٖ{(M`)^Վw k3 (181m),True
100000076302,x1nZunEUABk,{؂Ă,43.0798585,141.3068601,kCDysՎ1-3-5,20195,Վ(ٖ{),243,3,0110,ArAz[,3,JRٖ{(M`)^Վw k3 (203m),True
h922900,CTRkl8Wv35M,ˉ ͂ CI[DyX,43.09619410,141.27696935,kCDys攭12-1-1 CI[Dy1F,20434,,668,8,0111001,HAH,6,,False
h922907,bkZ1ndvaGjY,ˉ ͂ JRՎX,43.08165222,141.30719534,kCDysՎ21-1-10,20195,Վ(ٖ{),65,0,0111001,HAH,6,,False
100000075792,j1VES21qUNw,ĒƂ,43.0870693,141.31550889999994,kCDys攪Z1-4-10,20446,,470,5,0101025,Ă,2,JRD^w k6 (426m),True
ID0101894,442CmABkOIQ, DyVX,43.096950392192,141.29790134484,kCDys攭121230,20435,,1094,13,0101031,́AAeq,1,JRٖ{(M`)^w k12 (932m),True
100000903573,52goXCGrAVQ,Ƃ,43.06275506345,141.29341856996,kCDysR̎11-1-11,20196,Վ(Dysc),1906,23,0101031,́AAeq,1,DyscnS^w k27 (2155m),True
100001468828,xXEZv4PmH_I,sbJ[j PICANHA ՎX,43.0772345,141.30487229999994,kCDysՎ3-3-7 TM-23r,20196,Վ(Dysc),163,2,0102001,Xe[LAno[O,,JRٖ{(M`)^Վw k7 (514m),False
h793013,RtChBGWLhm2,Y΋  Վ{ʓX,43.07756376,141.30530687,kCDysՎ13-3-14 ̉r1F,20196,Վ(Dysc),218,2,0110,ArAz[,1,DyscnS^ՎiDyscjw k4 (262m),True
100001279776,CNWnEzaZGbY,Dݏ Ȃ,43.0780314,141.28682989999993,kCDys搼7-2-33 tWbNXr 1F,29255,,483,6,0101029,DݏĂAĂ,4,DyscnS^w k7 (495m),False
100000075818,0Go9QwFcQR-,ƂɍXȂ,43.0795363,141.30735449999997,kCDysՎ1-6-8,20195,Վ(ٖ{),258,3,0101017,,6,JRٖ{(M`)^Վw k3 (229m),False
100000075867,bAz3JuWv35M,@CIX,43.0965442,141.27755330000002,kCDys攭12-1,20434,,487,6,0101029,DݏĂAĂ,2,JRٖ{(M`)^w k5 (365m),False
100000909416,5SgITn7ixNY,K[nbg CIX,43.096052922072,141.27713075599,kCDys攭CI[Dy12-1-1,20434,,685,8,0101033,y,3,JRٖ{(M`)^w k6 (418m),True
100000909583,0Kfs4fhKssE,݋򂢏@,43.089943535708,141.30984132559,kCDys攪܏4-1-32,20446,,1017,12,0110,ArAz[,2,JRٖ{(M`)^Վw k12 (965m),True
100001295007,9pcBSQNwEoI,Ő ՎX,43.07840279730202,141.30536084771154,kCDysՎ2-222 Vh1K,20196,Վ(Dysc),280,3,0110,ArAz[,1,JRٖ{(M`)^Վw k5 (375m),False
100001240980,Vjl24OwZvG2,肪Ƃ,43.076887384919914,141.30436843037603,kCDysՎ4-4-21 ^P_r 1F,20196,Վ(Dysc),124,1,0110,ArAz[,1,JRٖ{(M`)^Վw k8 (623m),False
100001356193,dH_cuCCUgdU,{̑ǂԂ,43.0928806,141.26479340000003,kCDys{̑4-7-8,29254,{̑,954,11,0112001,n엿,1,DyscnS^{̑w k15 (1137m),False
100001510825,SK4uHNZO7zw,͂,43.0787199810692,141.30892258040865,kCDysՎ1-3-10,20195,Վ(ٖ{),457,5,0110,ArAz[,1,JRٖ{(M`)^Վw k5 (345m),False
100000075860,eDunXbx8SRA,Z,43.0508913,141.2653621,kCDys敟7-14-36,29255,,4054,50,0101017,,5,DyscnS^w k55 (4334m),False
100001223482,zpBSCZWs7kw,X~rm@,43.079886826757075,141.3076071977615,kCDysՎ1-6-16,20195,Վ(ٖ{),207,2,0101044,YΏĂ,5,JRٖ{(M`)^Վw k3 (191m),True
100000075906,jU_ETEdiBtk,DݏēSēY,43.0800891,141.30816549999997,kCDysՎ1-7-6 RXWfX 1F,20195,Վ(ٖ{),217,2,0101029,DݏĂAĂ,4,JRٖ{(M`)^Վw k3 (187m),False
100001244010,Z1xBouJwQZQ,H Ƃ,43.079728,141.30786280000007,kCDysՎ1-6-19,20195,Վ(ٖ{),236,2,0101027,,1,JRٖ{(M`)^Վw k3 (213m),True
100000075826,K3y6xc6Bv86,Ώ Z,43.0795061,141.31326509999997,kCDys攪3-3-17,20195,Վ(ٖ{),584,7,0101018,ǂ,2,JRٖ{(M`)^Վw k9 (689m),False
100001453475,SHDWvQBUA7w,R킳 CI[DyX,43.0963609,141.27777279999998,kCDys攭12-1 CI[Dy1F,20434,,517,6,0101017,,1,JRٖ{(M`)^w k5 (355m),False
100000075873,UlAMldElBDs,Ƃ񂩂ƂK,43.0790682,141.26844649999998,kCDys搼l9-1-16,29254,{̑,1340,16,0101015,Ƃ񂩂,6,DyscnS^{̑w k20 (1549m),False
100000772500,V6J-yj1kBw2,H a ԂÂ,43.077089,141.315541,kCDys\lO1-19,20195,Վ(ٖ{),879,10,0101014,VՂAg,12,DyscnS^\lw k10 (779m),False
100000075936,53H-q-diBtk,ǔn,43.08008995430692,141.30814632803344,kCDysՎ1 RXWfX 1F,20195,Վ(ٖ{),218,2,0101011,{,3,JRٖ{(M`)^Վw k3 (186m),False
100000911848,rVteaxnLI1I, CI[DyX,43.096551743248,141.27758699579,kCDys攭CI[Dy12-1-1,20434,,486,6,0104001,ؗ,2,JRٖ{(M`)^w k5 (364m),False
100001445626,z08xKC1XcIg,悢 \lX,43.075788993505924,141.31439483507438,kCDys\lO1-122,20418,\l,751,9,0111,HAH,2,DyscnS^\lw k8 (569m),False
100000075816,eU7sQ511YwM,N,43.0772892,141.3048437,kCDysՎ3-3-7,20196,Վ(Dysc),160,2,0101018,ǂ,1,JRٖ{(M`)^Վw k7 (557m),False
100000075828,9IXV6P2jJHQ,Ί,43.0803656,141.28815340000006,kCDys搼k8-2-1,29255,,222,2,0101017,,1,DyscnS^w k3 (199m),False
100000753062,32JTwz8UvNM,Ђ̉ Y,43.078974,141.306592,kCDysՎ2-5-6 _CApXՎ 1F,20195,Վ(ٖ{),334,4,0110,ArAz[,2,JRٖ{(M`)^Վw k4 (305m),True
100000075628,OoCJsyEDd6I,i 齐@@,43.0719404,141.31400989999997,kCDys\l4-1-25,20418,\l,230,2,0101,aH,1,DyscnS^\lw k3 (191m),False
100000301411,C6bKC7XAJBQ,܂,43.07138291,141.27079062,kCDys搼܏5-8-13,29255,,2335,29,0101025,Ă,1,DyscnS^{̑w k28 (2180m),False
100000912364,ZnUFZBkAFGo,X[{bNX bL[X,43.097543289164,141.27582081417,kCDys攭13-1-20 bL[X,20434,,389,4,0104001,ؗ,3,JRٖ{(M`)^w k4 (300m),False
100000909114,0nr1hylbvrQ,Ƃ悵 \lX,43.068467951884,141.30850235029,kCDys\lO7-1-13 {̐X24r1F,20418,\l,556,6,0101015,Ƃ񂩂,36,DyscnS^\lw k9 (650m),False
100001276848,ZKPGI6FZfIg,n 낤 CI[DyX,43.09619410,141.27696935,kCDys攭12-1-1 CI[Dy3F,20434,,668,8,0101018,ǂ,2,JRٖ{(M`)^w k6 (449m),False
100000911618,QWwet8Wv35M,zn₾ CI[DyX,43.095928967976725,141.2770281828291,kCDys攭12-1,20434,,671,8,0101029,DݏĂAĂ,3,JRٖ{(M`)^w k6 (433m),True
100001523602,80A35GkVRD2,WCpbN`L DyՎX,43.074867779625784,141.30203496472382,kCDysՎ6-4-16 OEFlXՎwO1F,20196,Վ(Dysc),213,2,0101027,,2,DyscnS^ՎiDyscjw k3 (234m),True
100000910778,GJx7D5kbSOg,ȂgH,43.068123899509644,141.3051333289086,kCDysR̎1-1-13,20418,\l,868,10,0106001,[,1,DyscnS^\lw k13 (1021m),False
100001220527,O-X4TObl092,a,43.0876123,141.2938997,kCDys攭܏3-9-3 s[X}C,20435,,289,3,0101018,ǂ,1,JRٖ{(M`)^w k3 (196m),False
100001220238,ajCFN6gePSY,kC,43.09452779999999,141.28162529999997,kCDys攭11-1-32,29254,{̑,674,8,0101034,CN,1,DyscnS^{̑w k9 (708m),False
100001219430,ZL-UGgtd4ss,ׂ 24ʓX,43.07790894894293,141.3161405705523,kCDys攪4-1-1,20195,Վ(ٖ{),828,10,0101013,]i,14,DyscnS^\lw k11 (883m),False
100000876071,_gDDlxnLI1I,x΁@CI[DyX,43.09596276275506,141.27719001293508,kCDys攭12-1 CI[Dy1F,29254,{̑,688,8,0101017,,6,JRٖ{(M`)^w k6 (428m),False
1003941,xMlHIP1bcIc,@Dy搼X,43.08574819,141.28025842,kCDys搼k172-3,29254,{̑,600,7,0114001,AAٓ,11,DyscnS^{̑w k8 (580m),False
100000075678,SqZBq3zjAWQ,Ƃɑa,43.07586941,141.30197948,kCDysՎ5-2-24,20196,Վ(Dysc),178,2,0101,aH,4,JRٖ{(M`)^Վw k11 (845m),True
100001358150,IkStKn23F46,[ ,43.074352890620574,141.30467784078132,kCDys\ll5-10-14,20196,Վ(Dysc),111,1,0106001,[,3,JRٖ{(M`)^Վw k11 (815m),False
3005963,TlBQmmOumxQ,ay@z@sX,43.07395331,141.31203149,kCDys\l331-7,20418,\l,515,6,0101012,i,10,,False
100000789601,ZR-CvWRCAV-,Ք,43.08294538221215,141.30506458564128,kCDys攪3-1 SHcn,20195,Վ(ٖ{),268,3,0101025,Ă,4,JRٖ{(M`)^Վw k4 (301m),False
100000075877,7TTY1m3ShUs,gƎDyX,43.08126411681544,141.28483919762266,kCDys搼11-1,29255,,558,6,0101031,́AAeq,8,DyscnS^w k7 (499m),True
100000075838,0IbBBcdpsDQ,VxX,43.0760575,141.274899,kCDys搼l6-2-1,29255,,1788,22,0101017,,2,DyscnS^{̑w k20 (1564m),False
100000902597,d_ngd4PHoTM,ȂȂ,43.071916607355,141.30580775953,kCDys\ll6-2-30,20196,Վ(Dysc),468,5,0101017,,2,DyscnS^\lw k12 (939m),False
100000075844,A7dt2e0QEnc,,43.0678946,141.27537989999996,kCDys搼Z2-3-25,29255,,1954,24,0101017,,1,DyscnS^w k28 (2180m),False
100000912172,zN9_gzz1HCU,y CI[DyX,43.096129219499,141.27699044152,kCDys攭12-1-1 CI[Dy 3Kt[hR[g,20434,,669,8,0101017,,,JRٖ{(M`)^w k6 (411m),True
100000908183,0ZWB7w4ptJQ,₫Ƃ g ՎsʂX,43.078261402233,141.30891054554,kCDys\ll2-9-28,20195,Վ(ٖ{),473,5,0101025,Ă,,JRٖ{(M`)^Վw k5 (406m),False
3002944,s1wHSuMZXsI,DyCNہ@X,43.09244776,141.29395139,kCDys攭1134-22,20435,,342,4,0101012,i,2,JRٖ{(M`)^w k5 (350m),False
100000075840,mklySzxOitg,ނ̗DyX,43.0926264,141.30595659999994,kCDys攪Z7-1-3,20435,,1303,16,0101018,ǂ,5,JRٖ{(M`)^Վw k16 (1235m),False
3016391,idEB0e1dvJY,㓙I@DyX,43.07686321,141.28460864,kCDys搼13-2-1,29255,,697,8,0101012,i,2,DyscnS^w k10 (777m),False
1002140,mKPVBmrEHSg,̂@DyX,43.07686321,141.28460864,kCDys搼13-2-1,29255,,697,8,0101012,i,3,,False
1003744,QIY8mmrEHSg,Ё@DyX,43.07686321,141.28460864,kCDys搼13-2-1,29255,,697,8,0101048,,3,,False
J001246809,O23nvDcCFH-,DݏĂ ܂ ՎX,43.07928028,141.30706772,kCDysՎ126-14 1F,20195,Վ(ٖ{),290,3,0101029,DݏĂAĂ,,iqٖ{Վ(iq)wok5/DyscnSՎ(Dysc)wRok8,False
3038224,bugs4pn1UnI,LJckC@X,43.09244776,141.29395139,kCDys攭1134-22,20435,,342,4,0101015,Ƃ񂩂,1,,False
100000075647,szeKzlcmOLQ,,43.0752603,141.27133260000005,kCDys搼l7-11-1,29254,{̑,1891,23,0101,aH,4,DyscnS^{̑w k22 (1756m),False
3034731,tZSw0OTc4lU,IZbg@f,43.07305208,141.26807407,kCDys搼5710-8 r1F,29254,{̑,2182,27,0101031,́AAeq,2,,False
ID0200192,wj8D8fyFo-g,ȂK {̐XX,43.068506621967,141.30847408402,kCDys\l37-1-13 {̐X24r,20418,\l,559,6,0101031,́AAeq,3,DyscnS^\lw k9 (650m),True
3038098,Z4uUPP-lFQc,@X,43.07850210,141.29126634,kCDys搼k4-1-8,29255,,427,5,0101031,́AAeq,1,DyscnS^w k6 (415m),True
100000075821,a-DuAT58uF-,OΓX,43.0731869,141.30351359999997,kCDys\ll6-5-18,20196,Վ(Dysc),279,3,0101017,,2,JRٖ{(M`)^Վw k13 (1029m),False
3038097,xn-dHDfHXcw,@ՎX,43.07914140,141.30695107,kCDysՎ2-6-8,20195,Վ(ٖ{),331,4,0101031,́AAeq,3,JRٖ{(M`)^Վw k4 (249m),False
100000075675,Fn4uNQqzlKk,ӂi,43.0883578,141.3125146,kCDys攪܏2-4-16,20446,,738,9,0101,aH,2,JRD^w k10 (787m),False
100000075919,LKguZIPNxps,࢒k,43.0702129,141.3150571,kCDys\l4-2-23 Xr8B1F,20418,\l,51,0,0110,ArAz[,3,DyscnS^\lw k2 (107m),True
3037475,swYPuYldNf2,₫@v@fo[,43.08643458,141.29406840,kCDys攭5312-3ΐr1F,20435,,421,5,0101029,DݏĂAĂ,1,,False
3039550,6C-XUoQ2PGU,قƂƁ@X,43.08314869,141.28790521,kCDys攭3671,29255,,277,3,0114001,AAٓ,1,,False
3023652,kz2hKZn1UnI,ONE@X,43.09244776,141.29395139,kCDys攭1134-22,20435,,342,4,0101012,i,0,,False
100000771508,WQLa7hSmorQ,,43.074349758817235,141.30475457770854,kCDys\ll5-10-14,20196,Վ(Dysc),113,1,0101,aH,1,JRٖ{(M`)^Վw k11 (857m),False
100001522774,lnLfHS86gDs,R,43.06763789893319,141.2617558233135,kCDys搼씪8-4-2 Xe[W88,29254,{̑,2867,35,0101017,,1,DyscnS^{̑w k37 (2912m),False
100001330075,3r28MvIX746,Y΋ 璹,43.07515458049081,141.30453507873293,kCDysՎ5,20196,Վ(Dysc),96,1,0101025,Ă,1,JRٖ{(M`)^Վw k10 (738m),True
100000912173,3zLHr5RhbqQ,,43.078192113774,141.30522569784,kCDysՎ2-26 Րr 2F,20196,Վ(Dysc),249,3,0101017,,1,JRٖ{(M`)^Վw k6 (450m),False
100000075931,uNt5bWsRIkY,@܂,43.0868721,141.31580329999997,kCDys攪Z1-4-6,20446,,435,5,0101011,{,6,JRD^w k5 (388m),False
100000900824,hwf9gzh_T-U,ܓVR@H,43.046733609975,141.26082986233,kCDys敟423,29255,,4684,58,0101018,ǂ,15,DyscnS^w k63 (5009m),False
h032510,hVsexaPgghA,{iY Ē񂩂 ՎX,43.07546113,141.30217671,kCDysՎ25-2-5,20196,Վ(Dysc),161,2,0101026,Ă,,,True
100000064543,bP3Mx8Wv35M,Hӂ CIX,43.0963748,141.276534,kCDys攭12-1-1 CI[Dy,20434,,621,7,0101003,ۂ,4,JRٖ{(M`)^w k5 (391m),False
6077187,Zb4QLN0SF_c,GXp[ECgE,43.08735179,141.31415551,kCDys 51-2-32 pX`Mq1F,20446,,568,7,0107002,X[vJ[,10,,True
100000075638,XeiZ5BDY9Rs,ȉ悵,43.082154,141.2708351,kCDys搼9-5-12,29254,{̑,998,12,0101,aH,3,DyscnS^{̑w k14 (1116m),False
100000904116,yw3d2ZqB96o,Ƃ炳,43.09003015783,141.28932695589,kCDys攭5-10-1,20435,,410,5,0101025,Ă,2,JRٖ{(M`)^w k8 (580m),False
100001279712,nPPRmzJEDPU,Ώ  ܂,43.06769153143278,141.27488021505735,kCDys搼Z2-4-32 SKr1F,29255,,2005,25,0101017,,1,DyscnS^w k28 (2235m),False
100000905738,1sgs3hMplqk,ȗ,43.078094062548,141.28876975074,kCDys搼쐼FX6-1-1,29255,,484,6,0101018,ǂ,1,DyscnS^w k6 (408m),False
100001179967,c5sifGT3qAc,kCH[,43.0834702,141.3265692,kCDys攪5-1-22 ]h`Fk吼B1F,20446,,786,9,0101,aH,1,JRD^w k11 (865m),False
100001247372,x_CGTbVbfPk,͂Ȃ܂邤ǂ Cg[[Jh[ՎX,43.0807293818719,141.30593285276132,kCDysՎ1-4-1 Cg[[Jh[ՎXB1Ft[hR[g,20195,Վ(ٖ{),175,2,0101018,ǂ,,JRٖ{(M`)^Վw k3 (191m),True
100000075914,4P0NmW0umXQ,ubX[,43.0779586,141.30454370000007,kCDysՎ3-1-3 e[I[r nK,20196,Վ(Dysc),220,2,0101034,CN,8,JRٖ{(M`)^Վw k7 (515m),False
J000897922,AUZRW1GAB5A, R,43.07705547,141.30470139,kCDysՎ1336,20196,Վ(Dysc),140,1,0101053,aHȋj,,nSՎwRԏok2Bze}`QKłB,False
J000251597,ISJaWS3X1JE,齂̈ɐZ,43.08931257,141.31152506,kCDys攪63-1-1,20446,,870,10,0101053,aHȋj,,JRwk10A͂nZ^[ׂłB,False
6052199,dyFnTgpEtqc,͂ɂقւ {̑X,43.088283973207,141.27907228248,kCDys 69-609 y{̑2F,29254,{̑,245,3,0110,ArAz[,5,,True
7515090,IkVT4t5ROfV,܂イČ{X,43.07535781,141.28379214,kCDys 22-7-16,29255,,870,10,0110,ArAz[,5,,True
7619151,pQTpo6A36Lw,Jc ̂,43.07927413,141.28773879,kCDys 7-1-45,29255,,315,3,0101014,VՂAg,1,,False
