id,gid,name,latitude,longitude,address,satation_id,station_name,station_distance,station_time,genre_code,genre_name,review_count,access,paypay_flg
100000021739,ox4Mq_J5Ay2,レストハウスかしわ,42.70038302881766,143.20913887055224,北海道河西郡更別村更別西8線15-12,,,,,0111,定食、食堂,13,,False
100000319781,FgEp8jFIOqU,食堂わがや,42.64941185438233,143.18725152076263,北海道河西郡更別村更別区南1線93,,,,,0111,定食、食堂,3,,False
100001306335,2zOQKjfqf3I,かっこう料理店,42.68582874331294,143.23615482263187,北海道河西郡更別村勢雄317-8,,,,,0101033,郷土料理,1,,False
100000319780,LJwy03B2Hlc,あさひ食堂,42.65026989,143.18632091,北海道河西郡更別村更別区南1線91,,,,,0101031,丼もの、牛丼、親子丼,1,,False
100000910362,0S8dfpk0H2M,コムニカフェ,42.629112908997,143.1815268482,北海道河西郡更別村更別区南4線73-24,,,,,0115001,カフェ,1,,False
100000901910,xwgLPOq9kLU,レストラン ポテト 道の駅さらべつ,42.63331080,143.27184755,北海道河西郡更別村弘和464-1 道の駅 さらべつ,,,,,0111,定食、食堂,1,,False
20130438420,qYFNbfRF356,鳥せいチェーン更別店,42.650353888889,143.187866944444,北海道河西郡更別村南２線９２−７,,,,,0101025,焼き鳥,,,False
20130409781,qYFNbWpt2Tw,鳥せいチェーン更別店,42.650353888889,143.187866944444,北海道河西郡更別村南２線９２−７,,,,,0101025,焼き鳥,,,False
