id,gid,name,latitude,longitude,address,satation_id,station_name,station_distance,station_time,genre_code,genre_name,review_count,access,paypay_flg
20130625583,ZRZ10f8wkms,‘åŸ,42.683010277778,141.675551666667,–kŠC“¹“Ï¬–qsšÀƒm’[‚Q‚Q‚W|‚Q‚P‚U,,,,,0101015,‚Æ‚ñ‚©‚Â,,,False
20130838559,tTSx1Uf5gZQ,ˆ¬‚èS‘ ·,42.631329444444,141.596072500000,–kŠC“¹“Ï¬–qs‘å’¬‚P’š–Ú‚S|‚P‚R,20352,“Ï¬–q,1097,13,0101012,ˆ¬‚èõi,,,False
20130836031,ZGlrv1PVdes,‚İ‚©‚Ã‚«,42.633435000000,141.598505277778,–kŠC“¹“Ï¬–qs‹Ñ’¬‚Q’š–Ú‚P|‚P‚O,20352,“Ï¬–q,764,9,0101025,Ä‚«’¹,,,False
20130845194,ZdmdT5HLZJc,‘å«,42.646447777778,141.602345000000,–kŠC“¹“Ï¬–qst“ú’¬‚Q’š–Ú‚P‚R|‚S,20352,“Ï¬–q,960,12,0101050,˜F’[Ä‚«,,,False
20130689076,I0G78FkTYuI,ƒpƒVƒtƒBƒbƒNƒt[ƒYŠ”®‰ïĞ,42.618543888889,141.510758055556,–kŠC“¹“Ï¬–qsŸì’¬‚R’š–Ú‚V|‚Q‚O,,,,,0101018,‚¤‚Ç‚ñ,,,False
20130730965,mNOQhfU_v_o,ƒvƒŒƒW[ƒ‹,42.699950555556,141.694648333333,–kŠC“¹“Ï¬–qsšA•c‚P‚T‚U|‚R‚O,,,,,0101053,˜aHi‚»‚Ì‘¼j,,,False
20130264677,QR67XeeWqHI,ƒXƒiƒbƒNƒGƒo,42.632162777778,141.596203055556,–kŠC“¹“Ï¬–qs‘å’¬‚Q’š–Ú‚P|‚P‚V,20352,“Ï¬–q,1001,12,0101025,Ä‚«’¹,,,False
20130264689,q4cfSJScano,‹¼”‰®ˆê‹x,42.632496111111,141.596780555556,–kŠC“¹“Ï¬–qs‹Ñ’¬‚Q’š–Ú‚R|‚P‚S,20352,“Ï¬–q,915,11,0101018,‚¤‚Ç‚ñ,,,False
20130831850,zI2wS68pBmY,‘nìƒ_ƒCƒjƒ“ƒO@—I‘V,42.626613333333,141.530383055556,–kŠC“¹“Ï¬–qs”–Ø’¬‚P’š–Ú‚Q‚Q|‚T,20045,…ˆä,1731,21,0101011,“ú–{—¿—,,,False
