id,gid,name,latitude,longitude,address,satation_id,station_name,station_distance,station_time,genre_code,genre_name,review_count,access,paypay_flg
t000002540,kkwRSWywDcE, ,43.033953766302,141.36746949186,kCDysL敽28 ݃S[fX,20487,(Dysc),142,1,0101003,ۂ,,,False
100000905275,ldvHZBBB_Pc,V ݓX,43.0312682706554,141.37803574110444,kCDysL敽݌܏10-5-7,20546,,855,10,0101017,,3,DyscnSk^약݉w k12 (903m),False
100001382753,wjNAWk8hgss,cSĒ OD 약ݓX,43.0261833,141.37086580000005,kCDysL敽ݎO14-3-4 2F,20556,약,79,0,0101025,Ă,3,DyscnSk^약݉w k1 (69m),True
100001387742,txHwYfKZWv6,₫ ,43.0383821,141.38257250000004,kCDysL3-4-15,20546,,211,2,0101025,Ă,1,DyscnSL^w k4 (270m),False
100000909963,JAxxOETZOV2,zn₾ Dyh[X,43.00728060,141.41131860,kCDysLrPu1Dyh[,20501,Z,2479,30,0101029,DݏĂAĂ,1,DyscnSL^Zw k11 (813m),False
J000254113,I2Deyal0sk2,,43.00436089,141.39005109,kCDysL敟Z29-14-15,20501,Z,2283,28,0101053,aHȋj,,ZwoXŖ8AoXuZwvԁAuZ29ځvԌցAZ2-9_܁A90m捶łB,True
100000907902,Q4oONauU5aM,H V,43.037181076665,141.40497920009,kCDysL挎܏5-2-14,20387,싽V,687,8,0106001,[,2,DyscnS^싽Vډw k9 (672m),False
100000074502,M6xG09nLqqs,܂H,43.0034138,141.38321059999998,kCDysL搼O9-7-31,20285,qO,2132,26,0101017,,2,DyscnSk^qOw k26 (2067m),False
1002301,mKPVBykO30c,̂@DyLX,43.03654605,141.37948080,kCDysL1042-16,20546,,507,6,0101012,i,8,DyscnSL^Lw k7 (542m),False
100000075009,vKWEmnXx-eo,₫Ƃ꒹,43.0371405,141.3615883,kCDysL撆̓2-1-7 OZGr1F,20378,̓,99,1,0101025,Ă,1,DyscnSk^̓w k2 (113m),True
100000880591,QHjVliUySMo,M,43.02670107470566,141.36973894879384,kCDysL敽ݎO13-5-7 {[r 2F,20556,약,175,2,0110,ArAz[,2,DyscnSk^약݉w k3 (180m),False
100001351527,7axuiQHDwnk,Ԃ yR,43.039008913954845,141.3716013043686,kCDysL敽ݎO4-2-7,20365,L,589,7,0101031,́AAeq,1,DyscnSL^Lw k8 (598m),False
0010001825,zxkZo0OPcag,₫Ƃ ̋ X,43.03193864,141.39565462,kCDysL挎6-3-32,20332,,59,0,0101025,Ă,9,nSLw1ԏo@k1@,False
100000074383,PQYvZ11NxX2,ߒ,43.0392097,141.36940690000006,kCDysL敽ݓ3-6-22,20487,(Dysc),579,7,0101023,Ȃ,1,DyscnSk^݉w k7 (514m),False
100001523070,pU7Fu3rVP5I, ݂ق,43.0267774,141.3701942,kCDysL敽ݎO13-5-13bMr1F,20556,약,124,1,0108001,ē,,DyscnSk^약݉w k2 (115m),False
100001516687,LW0-1fAeOVg,YΏ _{,43.03336643088419,141.39526961318597,kCDysL挎5-2-12,20332,,254,3,0101025,Ă,,DyscnSL^w k3 (203m),False
100001534795,Y3dcCO6rbeE,؉Ƃ,43.03683781915971,141.39713739294822,kCDysL挎3-6-3,20332,,860,10,0112001,n엿,,DyscnSL^w k8 (605m),True
h286914,h1V8EcHibzI, ̓X,43.02889073,141.35912469,kCDysL撆̓26-1-6,20191,y쏬wZO,842,10,0111001,HAH,13,DysdR@^y쏬wZOw k12 (892m),False
3024767,cHJME-DZDqY,ONE@ZX,43.00444417,141.38834845,kCDysL敟Z2101-10,20501,Z,2301,28,0101012,i,3,,False
3001180,s1wHSnpHLM-,DyCNہ@ZX,43.00444417,141.38834845,kCDysL敟Z2101-10,20501,Z,2301,28,0101012,i,2,DyscnSL^Zw k32 (2515m),False
3013747,QCneuRkjcvk,@,43.03281364,141.39903205,kCDysL挎166-17,20332,,351,4,0101031,́AAeq,1,,False
3043905,DwaVzMQoeoA,Ĉ؂Ƃ΂񂳂݂,43.04135636,141.36947033,kCDysL敽223-1 A-28,20365,L,648,8,0101015,Ƃ񂩂,3,,False
100000075113,Ref8IcZTNYQ,ƂƂ,43.029021974121854,141.35905072453693,kCDysL撆̓6-1-5,20191,y쏬wZO,820,10,01,O,2,DysdR@^y쏬wZOw k11 (877m),False
1003797,QIY8mykO30c,Ё@DyLX,43.03654605,141.37948080,kCDysL1042-16,20546,,507,6,0101048,,2,,False
3048510,rUn1u0XNRbs,_ےr[t@DyLX,43.04027035,141.36887044,kCDysL敽232-39,20487,(Dysc),750,9,0101031,́AAeq,0,,False
3035126,zKxB-EDZDqY,LJckC@ZX,43.00444417,141.38834845,kCDysL敟Z2101-10,20501,Z,2301,28,0101015,Ƃ񂩂,0,,False
3048512,Qdk4vmXNRbs,؍nē@RM@DyLX,43.04027035,141.36887044,kCDysL敽232-39,20487,(Dysc),750,9,0101,aH,0,,False
100000074393,jNxXWabgbuM,W{₫@˂,43.0270999,141.37099910000006,kCDysL敽ݎO13-7-10,20556,약,64,0,0101025,Ă,2,DyscnSk^약݉w k1 (49m),False
3048514,4BfWZWXNRbs,Ƃ񂩂@_y@DyLX,43.04027035,141.36887044,kCDysL敽232-39,20487,(Dysc),750,9,0101015,Ƃ񂩂,0,,False
100001217944,vAveFPNbB-o,ĐH,43.00728060,141.41131860,kCDysLrPu1 Dyh[1F,20501,Z,2479,30,0114001,AAٓ,1,DyscnSL^Zw k10 (746m),False
100000074458,fLSqU8GqS6w,Ώ@Ό,43.0358129,141.38548620000006,kCDysL7-1-21,20546,,41,0,0101017,,1,DyscnSL^w k1 (35m),False
100000074412,_zZnkBfcoEY,₫Ƃgݖ؂̉ԓX,43.03878430989879,141.36999647055222,kCDysL敽ݎO4-1-32,20487,(Dysc),516,6,0101025,Ă,1,DyscnSk^݉w k6 (485m),False
100000074432,3PVcM-mmGVg,傲܂Ώ,43.017079,141.38772319999998,kCDysL搼O4-1-18,20501,Z,1529,19,0101017,,1,DyscnSL^w k23 (1771m),False
3049021,vFJNUmw2AFs,񂩂{X,43.01704375,141.42397806,kCDysL挎31913-1,20386,싽PW,1984,24,0101012,i,1,,False
3043877,6REG90sEA9E,CƘہ@ݓX,43.04003986,141.37022033,kCDysL敽331-31,20487,(Dysc),658,8,0101031,́AAeq,0,DyscnSk^݉w k8 (633m),True
3048527,Iu49qGXNRbs,X@@DyLX,43.04027035,141.36887044,kCDysL敽232-39,20487,(Dysc),750,9,0101,aH,0,,False
100000074877,Ej-uJl4oEGg,,43.0168086810266,141.40208202023769,kCDysL敟Z2-9-14,20501,Z,556,6,0101034,CN,3,DyscnSL^Zw k7 (492m),False
100001261668,52T6MZCd13A,̓X^Co[,43.036859,141.35981449999997,kCDysL撆̓2-3-12 vU̓1F,20378,̓,154,1,0101025,Ă,1,DyscnSk^̓w k2 (142m),False
100001494162,J3NyBwC7AP-,O[R[gCg[[JZX,43.01987159999999,141.40349449999997,kCDysL敟Z1-2-5,20501,Z,146,1,0101017,,1,DyscnSL^Zw k2 (142m),True
100000818795,C9B4338iMpQ,v`[,43.0260381691263,141.37414051489395,kCDysL敽ݎl13-9-24,20556,약,272,3,0102,mH,1,DyscnSk^약݉w k4 (322m),False
J001054634,s8Om6iPxcCE,{ Ƃǂ,43.04532853,141.38251620,kCDysLL313-1-17,20365,L,644,8,0101053,aHȋj,2,nSLwk8A312ڃoX₩k2łBY}[gXOłB,True
J000254261,jy1MlyamKps,H Vy,43.03329406,141.39598507,kCDysL挎15-1-29 Of[,20332,,277,3,0101053,aHȋj,1,nSLw1ԏok3łB,False
100000074445,EXbshKK17GY,Ώ,43.0328136,141.3990324,kCDysL挎6-6-17,20332,,351,4,0101017,,7,DyscnSL^w k5 (383m),False
100000907429,-YSiHuTvSg6,g` X,43.022359475662,141.42392263373,kCDysL挎l18-1-1,20386,싽PW,1397,17,0101017,,,DyscnS^싽PRډw k19 (1496m),True
100000074757,ZVc5NKskn8M,P^bL[tCh`LX,43.0260144,141.3986023,kCDysL挎10-2-5,20332,,413,5,0102003,no[K[,6,DyscnSL^w k6 (420m),True
100000074512,BFzxzbJFuRg,͂񕗘a,43.02785604867413,141.3967374380287,kCDysL挎9-8-1 pT[W 1F,20332,,232,2,0118,XC[c,3,DyscnSL^w k2 (167m),False
100000074923,13DyiDpKVsE,{ʁ@킾݁@@,43.0353601,141.36614910000003,kCDysL敽ݓ7-1-21,20487,(Dysc),193,2,0101031,́AAeq,3,DyscnSk^݉w k4 (275m),False
100000074856,nlXn2fPRD06,₤,43.01727959999999,141.40789080000002,kCDysL敟ZO1-3-14,20501,Z,526,6,0110,ArAz[,2,DyscnSL^Zw k7 (502m),True
100000074305,xLPaVdVRcDI,B齊Ǘ,43.0265804,141.36439139999993,kCDysL敽݈13-4-11,20556,약,682,8,0101,aH,2,DyscnSk^약݉w k10 (774m),False
100000074296,8Rpl7jvcCmk,LX,43.0469589,141.37412010000003,kCDysLLZ9-1-18,20145,wO(kC),558,6,0101,aH,3,DyscnSL^wOikCjw k7 (561m),False
100000074327,8FUx7TwPMkU,齏Ђc,43.0184181,141.40031369999997,kCDysL敟Z2-8-21,20501,Z,540,6,0101,aH,1,DyscnSL^Zw k7 (490m),True
100000899816,RfGwQ7PPbs-,  ,43.034037462105,141.36873791673,kCDysL敽ݓ8-4-9,20487,(Dysc),102,1,0110,ArAz[,1,DyscnSk^݉w k1 (73m),False
100000074459,nnGy2EiOV1U,Ώ@܂,43.0189994,141.42517810000004,kCDysL挎O18-15-23,20386,싽PW,1662,20,0101017,,1,DyscnS^싽PWډw k21 (1670m),False
100000074300,BeIKHWLTLHY,,43.0199506,141.3680693,kCDysL敽ݎO18-3-1,20290,,433,5,0101,aH,1,DyscnSk^w k5 (355m),False
33482078993113089,-xBgMmXhsSc,i t,43.026478,141.369064,kCDysL敽314 1-11 약݃r 1K,20556,약,223,2,0101012,i,2,,True
100001284332,zDWE6rQ3GP6,{BAR ,43.03654631268837,141.40681663128282,kCDysL挎܏7-3-4,20387,싽V,547,6,0119001,o[,1,DyscnS^싽Vډw k7 (567m),True
100001457292,1Xu51Ku3Frw,obeY O,43.0344019,141.36869060000004,kCDysL敽ݓ8-4-2,20487,(Dysc),46,0,0101,aH,1,DyscnSk^݉w k1 (54m),False
100000074418,kZJVuGwgv0w,₫Ƃg̓X,43.0388709,141.36179089999996,kCDysL撆̓1-2-7 JTpVI̓ 1F,20378,̓,196,2,0101025,Ă,1,DyscnSk^̓w k3 (171m),False
100000909627,u1qmgTvcCmk,Ē{ DyXgALX,43.046935902763,141.37414786596,kCDysLLZ9-1-15 XgALX1F,20145,wO(kC),561,7,0101025,Ă,,DyscnSL^wOikCjw k7 (564m),False
100000074403,OTlrojG2wCU,v,43.031211,141.40037400000006,kCDysL挎7-16,20332,,372,4,0101025,Ă,1,DyscnSL^w k6 (422m),False
100001263889,DxElmLs2Yy6,Ƃ,43.0365906,141.38491680000004,kCDysL6-2-4,20546,,84,1,0110,ArAz[,,DyscnSL^w k1 (58m),False
100000911340,lf-qBZsKpDs,qT[ DycƏ,43.0473311570578,141.36963308831298,kCDysLLZ658 ەFnӌݖ{Ѓr2K,20145,wO(kC),114,1,0101034,CN,,DyscnSL^wOikCjw k1 (62m),False
100000074426,1k-zrF49EZo,y,43.0236395,141.395311,kCDysL搼l1-5-3,20501,Z,752,9,0101025,Ă,1,DyscnSL^w k9 (657m),False
100000907651,RxjGrBR2RFo,ǂ ЂV,43.034697916455,141.39748023887,kCDysL挎4-3-14,20332,,534,6,0110,ArAz[,,DyscnSL^w k5 (393m),False
100000900841,vX1uXV8gubw,Ȃi,43.054782106147,141.36867180171,kCDysLL2-2-18,20150,e,576,7,0101,aH,,DyscnS^ew k7 (520m),False
100001163106,95yB8qRt9tk,@QbRE,43.03449038,141.36764584,kCDysL敽ݓ8-2-6 2r ݃S[fX B1F,20487,(Dysc),47,0,0101034,CN,,DyscnSk^݉w k2 (127m),False
100000740854,hLBEHXKB_9Y,݂ˎRC,43.0349352,141.3694655,kCDysL敽ݎO7-1-27,20487,(Dysc),93,1,0101025,Ă,,DyscnSk^݉w k2 (108m),True
100000074763,z7qwzPK5LlY,Y,43.0344908,141.36764619999997,kCDysL敽ݓ8-2-6 2r݃S[fX B1F,20487,(Dysc),47,0,0101029,DݏĂAĂ,,DyscnSk^݉w k2 (100m),False
100001521621,jAOJvuiOKzM,zn ₾ rbNnEXGNXgX,43.014509932447226,141.35812124013896,kCDysL敽݈22-2-15 rbNnEX,20290,,981,12,0101029,DݏĂAĂ,,DyscnSk^w k14 (1051m),True
100001313098,bMF7X0-OEgo,I[uؘH[,43.03483812798717,141.3665233696347,kCDysL敽ݓ8-1-40,20487,(Dysc),146,1,0101031,́AAeq,,DyscnSk^݉w k3 (198m),False
100000074331,QUNg7hikPf2,S ݓX,43.0349824,141.3678628,kCDysL敽ݓ7-4-35,20487,(Dysc),63,0,0101,aH,,DyscnSk^݉w k1 (82m),False
100000900108,TN96B1ZXFqI,ē,43.033685355828,141.35971731065,kCDysL撆̓4-1-1 ̓24r 1F,20378,̓,510,6,0106001,[,,DyscnSk^̓w k6 (463m),False
100000074423,vafZJabKAg2,₫Ƃg@DOX,43.0102965,141.38749029999997,kCDysL搼l7-7-3,20501,Z,2159,26,0101025,Ă,,DyscnSL^Zw k27 (2141m),True
100000074392,ahLHxkLiA1o,DyƁ@H,43.03500529999999,141.4108367,kCDysL挎܏8-5-12 4r 1F,20387,싽V,696,8,0106001,[,,DyscnS^싽Vډw k7 (538m),False
100000910274,RfGwQ0LCyCg,,43.02514480143,141.41864576717,kCDysL挎O15-6-36ur,20501,Z,1487,18,0101017,,,DyscnS^싽PRډw k16 (1245m),False
100000901739,1aIzuwSZos2,LՋy ݓX,43.034449109177,141.36711936136,kCDysL敽ݓ8 2r,20487,(Dysc),144,1,0101029,DݏĂAĂ,,DyscnSk^݉w k2 (158m),False
100000074309,fT3YOKkFVR6,a,43.0241724,141.37069930000007,kCDysL敽ݎl16-4-52,20556,약,390,4,0101,aH,,DyscnSk^약݉w k4 (305m),False
100001347940,he9DllPmSI-,Xg敗 KKRDyÃZ^[,43.03646070708279,141.36713705046532,kCDysL敽݈6-3-40 KKRDyÃZ^[K,20487,(Dysc),286,3,0111,HAH,,DyscnSk^݉w k3 (234m),False
100000902303,V7wrEsYCxBw,܂,43.036012730241666,141.38405140939415,kCDysL6-2-2 NPO@lk̐,20546,,170,2,0115002,iX,,DyscnSL^w k2 (110m),False
100000902444,npCaRFwJCv6,@s,43.026673626861,141.3700214422,kCDysL敽ݎO13-5-17 {[r 2F,20556,약,149,1,0101011,{,,DyscnSk^약݉w k2 (149m),False
100000074329,u9IvT6AsTt2,zSLX,43.0461229,141.37335069999995,kCDysLLZ9,20365,L,609,7,0101,aH,,DyscnSL^wOikCjw k7 (495m),False
100000911917,AlnJfBb0Z6I,ς&#39;YX^C,43.052851832212,141.36672268847,kCDysLL܏2-2-2 ؑr 1F,20145,wO(kC),629,7,0115001,JtF,,DyscnSL^wOikCjw k9 (655m),False
100000905584,px_NjlyB6yM,[,43.034453667629,141.36875347409,kCDysL敽ݓ8-4-2,20487,(Dysc),44,0,0108003,z,,DyscnSk^݉w k1 (34m),False
100000912196,wHthzaezsDM,LɊy,43.051349320628,141.37423626576,kCDysLL6-2-14,20150,e,644,8,0118,XC[c,,DyscnS^ew k9 (668m),False
100000074278,RDaUcDPUZA-,Ԑ,43.0342102,141.3637271,kCDysL敽݈8-2-27,20487,(Dysc),482,6,0101011,{,,DyscnSk^̓w k7 (511m),False
100000910154,ZWjpHYDHh6s,TUG FݓX,43.03008690268,141.3678664078,kCDysL敽ݓ10-3-28 FݓX 1F,20487,(Dysc),630,7,0118,XC[c,,DyscnSk^݉w k7 (514m),False
100001458639,Lepvic5j0UM,RR LXgAX,43.04696633629395,141.37417511104513,kCDysLLZ9-1-18,20145,wO(kC),564,7,0101029,DݏĂAĂ,,DyscnSL^Lw k6 (441m),True
100000074491,TUhgYAHShEE,,43.0350879,141.36898769999993,kCDysL敽ݓ7-4-19,20487,(Dysc),97,1,0101017,,,DyscnSk^݉w k1 (69m),False
100000911877,qdSPSNNG6-I, X,43.044910457641,141.38350414182,kCDysL1-2-1Y}[gX,20365,L,714,8,0101029,DݏĂAĂ,,DyscnS^Dyw k10 (765m),False
100001514984,OHhLZZ6yF7s,SĒEy  CIX,43.0183186774895,141.38725198692475,kCDysL搼O3-4-1 CI 1F,20501,Z,1638,20,0101025,Ă,,DyscnSL^w k21 (1622m),False
100000902852,9iFDrpHAXI6,₫Ƃ g X,43.01724262361,141.42368832272,kCDysL挎O19-1-50,20386,싽PW,1953,24,0101025,Ă,,DyscnS^싽PWډw k24 (1926m),False
100000074288,89dJNVxoyqo,LЎւ̖ڎ,43.0322188,141.36347449999994,kCDysL敽݈9-2-17,20487,(Dysc),642,8,0101,aH,,DyscnSk^݉w k8 (623m),False
100000074405,a-8asnyK3-g,Ƃ蔪,43.0362628,141.38013669999998,kCDysL\4-3,20546,,472,5,0101025,Ă,,DyscnSL^w k7 (489m),False
100000074973,1d3fJ-3jvEw,Ȃ,43.0413827867118,141.384939551353,kCDysLl3-2-15,20546,,596,7,0101025,Ă,,DyscnSL^w k7 (501m),False
100000074286,q-2wmD7CFhU,i,43.0309439,141.3699851,kCDysL敽ݎO10-2-3,20487,(Dysc),529,6,0101,aH,,DyscnSk^݉w k6 (444m),False
100000074413,kv_SxvuK9Eg,₫ƂHꌎX,43.0190631,141.42104789999996,kCDysL挎O18-1-77,20501,Z,1777,22,0110,ArAz[,,DyscnS^싽PRډw k24 (1865m),False
100001541977,DQ36anKAoLw,΂񂴂ԂƂ,43.048838644070315,141.3776619344238,kCDysLLO9-2-1,20464,Dy,919,11,0101010,΂񂴂,,DyscnSL^Lw k8 (610m),True
100001455487,TY41hG-0MLc, ,43.03977944055958,141.39249717055225,kCDysLO8-2-1,20546,,847,10,0110,ArAz[,,DyscnS^΁ikCjw k10 (776m),True
100000902560,g2jFGbs24FE,ΖkC,43.054338153483,141.36508075946,kCDysLLl1-1-1,20145,wO(kC),851,10,0101011,{,,DyscnSL^wOikCjw k11 (885m),False
100000903405,-xBgMxc9dEw,㕎,43.02724607066,141.36978701658,kCDysL敽ݎO13,20556,약,172,2,0101,aH,,DyscnSk^약݉w k3 (180m),False
