id,gid,name,latitude,longitude,address,satation_id,station_name,station_distance,station_time,genre_code,genre_name,review_count,access,paypay_flg
100000317061,NLua9EUHZ-6,܂ݐH,42.25414600,140.27260581,kCCS_{125,20582,_,51,0,0101017,,7,JRٖ{(ف`)^_w k1 (9m),False
100001278308,VQy2H7KG2RA,ɐH,42.254088,140.27411729999994,kCCS_{197,20582,_,133,1,0111,HAH,7,JRٖ{(ف`)^_w k2 (116m),True
100000804085,Pmj75fVBtjg,,42.250315203992216,140.28728234587118,kCCS_Y147,20582,_,1594,19,0101017,,7,JRٖ{(ف`)^_w k20 (1585m),False
100000317040,lpYnWohYnRg,T,42.25441824,140.27374462,kCCS_{204,20582,_,95,1,0101,aH,,JRٖ{(ف`)^_w k2 (122m),False
100000908916,XRaJyFZfy9-,Vy,42.235396813392,140.31012263484,kCCS_l152,20586,Rz,1552,19,0101033,y,7,JRٖ{(ف`)^Rzw k24 (1887m),False
100000317053,DVCQnb0_sSo,Sā@݂悵,42.25490153,140.27356405,kCCS_xm21-2,20582,_,148,1,0108001,ē,3,JRٖ{(ف`)^_w k3 (169m),False
100000317087,RanQyUdI_HA,hCuC䂤,42.28880646,140.271865,kCCS_ԉY105,20587,R(kC),2902,36,0102,mH,1,JRٖ{(ف`)^hmw k15 (1176m),False
100000789650,gIBcm0sFkzU,]˂qi,42.255807,140.268306,kCCS_L60,20582,_,666,8,0101,aH,4,JRٖ{(ف`)^_w k8 (620m),False
100000840302,KAy7EJcwRqk,Ƃ̖,42.25165172463952,140.2862675146721,kCCS_Y153-7,20582,_,1422,17,0101029,DݏĂAĂ,4,JRٖ{(ف`)^_w k19 (1448m),False
h846400,LrsUPlHn1-2, ,42.12899972,139.97849202,kCCS_FΉ_Β52-1,,,,,0101012,i,1,,True
100000902270,EsFqFKOd726,ēɂӂ,42.25773726,140.26731701,kCCS_40,20582,_,711,8,0101022,Ԃ,2,JRٖ{(ف`)^_w k10 (759m),True
100000908028,EV2A0yG4Vic,Ђ炽Ȃ,42.13460586,140.00604242,kCCS_FΕ329,,,,,0106001,[,5,,False
100000062467,q_lxdxItWLc,,42.25678087612791,140.2678294985642,kCCS_{20,20582,_,677,8,0101017,,3,JRٖ{(ف`)^_w k9 (718m),False
100000317065,Hcwssvm9b5-,SăxCx[,42.25452436374855,140.2727883416568,kCCS_{136,20582,_,133,1,0101045,SĂ,2,JRٖ{(ف`)^_w k1 (79m),True
100000317058,Cnd9webW1EY,₫Ƃ@`,42.25452239096041,140.27348018076896,kCCS_{206-1Xe[Vr1F,20582,_,90,1,0101025,Ă,2,JRٖ{(ف`)^_w k2 (127m),False
100000317055,1wl4QXutn1o,ēxm,42.25567363,140.271578,kCCS_{227-1,20582,_,296,3,0108001,ē,1,JRٖ{(ف`)^_w k4 (320m),False
100000317041,--eNGsJmRNU,,42.18962416,140.42636276,kCCS_371,20103,,521,6,0101,aH,1,JRٖ{(ف`)^w k9 (661m),False
100000839539,9JhoZikTaDE,v,42.25500418,140.26892263,kCCS_L151,20582,_,580,7,0101,aH,1,JRٖ{(ف`)^_w k8 (570m),False
5672465,4JUjS8r-x9s, ,42.25698735,140.26854198,kCCS_ {55-11,20582,_,580,7,0110,ArAz[,,JRٖ{(ف`)^_w k9 (664m),True
100000317042,VdOqUqIHW2Q,g~,42.12883047,139.98311669,kCCS_F΍蒬115,,,,,0101,aH,,,False
100000317075,Xvkqge7tcmk,pbp[,42.2555822,140.26981739999997,kCCS_{66-1,20582,_,454,5,0102,mH,,JRٖ{(ف`)^_w k6 (461m),False
100000909510,XwHso4-vysI,_,42.2541706582,140.27475193185,kCCS_xm15-1,20582,_,206,2,0110,ArAz[,,JRٖ{(ف`)^_w k3 (179m),True
100000317047,89dJNbv6gRI,ւ̖ڎ,42.25409887,140.27506678,kCCS_xm39,20582,_,267,3,0101,aH,,JRٖ{(ف`)^_w k3 (207m),False
100000904953,pC1zuc4HYKo,ERNX,42.25470744,140.28351351,kCCS_Y128-39,20582,_,1155,14,01,O,,JRٖ{(ف`)^_w k15 (1144m),False
100000317071,U-MjwURZKpo,ȂׂH,42.12912756,139.98043076,kCCS_FΉ_Β14,,,,,0111,HAH,,,False
100000907113,dvsMtVxpLho,_ƃXg@؍H[,42.26278752622,140.26238457696,kCCS_101-4{c_,20582,_,1589,19,0101051,ؗ,,JRٖ{(ف`)^_w k20 (1602m),False
100000317038,cSDnIsedHm2,,42.25484041,140.27302519,kCCS_{212,20582,_,146,1,0101,aH,,JRٖ{(ف`)^_w k2 (165m),False
100000317057,EtWVZ2hYnRg,V,42.2544186,140.27374499999996,kCCS_{204-3,20582,_,95,1,0101025,Ă,,JRٖ{(ف`)^_w k2 (123m),False
100000904464,5Gsm3EI6iKE,e,42.25491524432,140.26815734831,kCCS_L114-3,20582,_,683,8,0101,aH,,JRٖ{(ف`)^_w k8 (600m),False
172385392993247233,OR2YqrB_ROc,C,42.254616,140.274109,kCCS_xm 47-1 KSr1F,20582,_,140,1,0101012,i,1,,True
20130336465,EtWVZ24HnEk,VX,42.188732500000,140.425496111111,kCCS_QWS,20103,,459,5,0101012,i,,,False
20130836303,-q6-e3bXquo,齁EC,42.254840277778,140.273025277778,kCCS_{QPQ,20582,_,146,1,0101012,i,,,False
20130340936,eOE4BYxnQ9M,̂Ɖ,42.128552500000,139.975083888889,kCCS_FΉ_ΒPPR,,,,,0101011,{,,,False
20130336730,_vYbmWDrfZM,XgEۂՂ,42.252224166667,140.283885833333,kCCS__PV|UP,20582,_,1353,16,0101053,aHȋj,,,False
