id,gid,name,latitude,longitude,address,satation_id,station_name,station_distance,station_time,genre_code,genre_name,review_count,access,paypay_flg
100000061089,lVqMDsGup9A,–¼…‚¤‚Ç‚ñ –ìXP,42.827762966529356,140.89071435247274,–kŠC“¹ˆ¸“cŒS‹‹É’¬Xi466-5,,,,,0101018,‚¤‚Ç‚ñ,13,,True
100000205212,BJNUJAra2wY,ˆêSˆÁ,42.858597572262475,140.87383013218172,–kŠC“¹ˆ¸“cŒS‹‹É’¬ì¼76-29,,,,,0101017,‚»‚Î,4,,False
100001334628,K7KfO-AqxS2,‹‹É‰·ò H“°,42.85963593151792,140.8734317416389,–kŠC“¹ˆ¸“cŒS‹‹É’¬ì¼68,,,,,0111,’èHAH“°,10,,False
94866,n-Epe4oNd6Q,–¼…‚Ì‹½‚«‚å‚¤‚²‚­,42.85890714,140.87090219,–kŠC“¹ˆ¸“cŒS‹‹É’¬šì¼45-1 “¹‚Ì‰w –¼…‚Ì‹½‚«‚å‚¤‚²‚­,,,,,0101017,‚»‚Î,7,,False
100000317492,mPnCe23JcP2,gõi,42.859824,140.8824515,–kŠC“¹ˆ¸“cŒS‹‹É’¬‹‹É787,,,,,0101,˜aH,1,,True
20130346085,ew0UsdhW1UM,‚â‚«’¹Ê‰Ø,42.860001666667,140.878776666667,–kŠC“¹ˆ¸“cŒS‹‹É’¬šOè‚V‚V|‚T‚O,,,,,0101025,Ä‚«’¹,,,False
