id,gid,name,latitude,longitude,address,satation_id,station_name,station_distance,station_time,genre_code,genre_name,review_count,access,paypay_flg
100001353154,EWJ2qiIa8ak,cɂ Ώ,43.754913172280226,142.3694682199989,kCs{O14-12-35,20014,l,1467,18,0101017,,4,JR@J{^lw k16 (1267m),False
100000305700,EuEuzwUz2UE,,43.80318539,142.38856687,kCsL13-4-5,20555,iR,3461,43,0101034,CN,4,JR@J{^Vw k33 (2588m),False
100000910616,joikMvtqHeY,,43.772190981107926,142.36149770928046,kCs7732-12 g[[ze,20012,,1048,13,0101011,{,2,JRٖ{(M`)^w k14 (1049m),False
100001205849,jeQiK1LItP-,WhbÕsW,43.74502757954788,142.3905303120613,kCs112-4-22,29091,΂u(kC),2826,35,0101033,y,6,JR@J{^lw k34 (2670m),True
100000074905,RfGwQ0FaLg-,,43.789847314089705,142.32879281044006,kCsΒ19,20324,ߕ,384,4,0111,HAH,12,JRٖ{(M`)^ߕw k5 (392m),False
100000903002,zSok4x3VCeU,Ώꒃ,43.734450113730745,142.3790119039145,kCs΂u33-1-13O[vU,29091,΂u(kC),1298,16,0101017,,4,JRxǖ^΂uikCjw k19 (1524m),False
100001437880,9U7d3i_BHu6,ԗt ʓX,43.78087144064189,142.38752103711113,kCs6-500-6,20266,V,1150,14,0101022,Ԃ,3,JR@J{^Vw k5 (361m),True
100000748190,llmjwAsYEnQ,܏,43.76835,142.365772,kCs510,20014,l,1034,12,0106001,[,10,JRٖ{(M`)^w k13 (1036m),False
100001187282,cPIhX6j3u52,T܂т {X,43.770120509418696,142.3914885017483,kCsL121-4-16,20014,l,1670,20,0106001,[,15,JR@J{^Vw k17 (1333m),False
100000452489,NwV3MXDVnhs,,43.76813,142.3579866,kCs36ډE6,20012,,623,7,0101,aH,6,JRٖ{(M`)^w k7 (515m),False
100000711474,-CLMbJ9hrK2,ΏMZH,43.77779610307505,142.3674320619018,kCs1-2-13,20266,V,1643,20,0101017,,12,JR@J{^lw k23 (1787m),False
100000907097,LvxJII3es8k,lt̃N[o[,43.769681482157395,142.36095330926207,kCs57ڑRArB1,20012,,716,8,0101051,ؗ,4,JRٖ{(M`)^w k10 (774m),False
100001351494,PDDltElLCZc,y͂炢,43.806853670108524,142.39754693002476,kCsL28-4-16,20555,iR,3968,49,0101017,,4,JRΖk{^iRw k40 (3200m),False
100000021479,RLf7AGbp2WE,⌮3E6ēX,43.768486412532106,142.35880138479456,kCs36,20012,,638,7,0108001,ē,9,JRٖ{(M`)^w k7 (565m),False
s000306740,f7aIk-ROEcE,Ԃԉ p[YX,43.78085814,142.4124767,kCsiR114-119-57  ,20555,iR,386,4,0101022,Ԃ,1,,False
100000717977,rJc1p2zl3wY,Ƃے,43.7970792,142.416387,kCsiR410-1-17,20555,iR,2635,32,0101027,,6,JRΖk{^iRw k26 (2031m),True
100000259128,1bkJjYSjkZU,ꖡ,43.774376367421596,142.36159722453692,kCs86ڍ1,20012,,1387,17,0106001,[,11,JRٖ{(M`)^w k16 (1279m),False
100000710528,HlmrQ8TLVQA,] Ƃҁ`kC {OʓX,43.7591399,142.3734463,kCs{18-4155 {OVbsOZ^[,20014,l,867,10,0101,aH,11,JR@J{^lw k8 (606m),True
ID100180,2WypqC7f2eg,͂܎i 숮X,43.783687464116,142.35761390157,kCs4-11-27,20012,,2426,30,0101013,]i,5,JRٖ{(M`)^w k28 (2243m),True
100000752912,No4OvxniSbM,{N,43.7539928,142.3594786,kCs_y312-1-2,20114,_y,1300,16,0101034,CN,10,JRxǖ^_yw k13 (1004m),False
100001239328,VQ1qMwKUqwE,L덁,43.764114066374724,142.35750134047544,kCs{7-2-5CI[wO,20012,,71,0,0101017,,4,JRٖ{(M`)^w k2 (129m),False
100001485148,C6VcnDuMdmE,ӂƂƘD,43.76389339559398,142.35696372603138,kCs{7-2-5 CI[wO4F,20012,,141,1,0101,aH,3,JRٖ{(M`)^w k3 (203m),False
100001475582,nOd9N323Yhw,YH,43.811635826221746,142.36739487607474,kCst79-5-25,20324,ߕ,4559,56,0111,HAH,3,JR@J{^Vw k50 (4001m),False
100000305714,l-b6ZID5k-2,]i傢_yX,43.75567227,142.35338447,kCs_y49-3-33,20012,,1380,17,0101013,]i,2,JRٖ{(M`)^w k13 (997m),False
100000047153,I3AEcSiv7zM,,43.75992240713392,142.40428834722138,kCsL45-2-6,20014,l,2354,29,0108001,ē,9,JRΖk{^iRw k30 (2338m),False
100000305913,ti1-3ALfLAE,͂ܒ{X,43.76837960231215,142.35872446625308,kCs36ڍ10,20012,,626,7,0101017,,13,JRٖ{(M`)^w k8 (591m),False
100001234647,z7ZNZahsdPY,XV[ iRX,43.7927552083544,142.40512957572935,kCsiR25-2-19,20555,iR,1858,23,0101013,]i,4,JRΖk{^iRw k18 (1406m),True
100001444097,IKs9sxDDJQ6,[cafe,43.802828258588164,142.39832037024644,kCsL36-3-9,20555,iR,3563,44,0106001,[,4,JRΖk{^iRw k35 (2758m),False
100000901165,oI3fEqK9miE,Ώ,43.785270502596,142.3541350448,kCs16-841-38,20012,,2732,34,0101018,ǂ,4,JRٖ{(M`)^w k31 (2451m),False
100000452474,9S2qascyVME, 5X,43.770183,142.360364,kCs57ډE2,20012,,844,10,0101015,Ƃ񂩂,13,JRٖ{(M`)^w k10 (795m),False
100001153510,-vKQCNMleQw,[̂,43.739918345814644,142.38247260342712,kCs_22-16,29091,΂u(kC),2103,26,0106001,[,5,JRxǖ^΂uikCjw k27 (2105m),False
100001217417,GS-A1FtnxCE,,43.77122516371118,142.43537838766338,kCsk14-16-9,20459,,1084,13,0106001,[,5,JRΖk{^w k12 (897m),False
100000878944,K6qyNGcbhsI,H,43.80532598859442,142.3864949123299,kCsL14-2-1,20266,V,3635,45,0106001,[,6,JR@J{^Vw k35 (2798m),False
100000305620,AnFe801JaLM,,43.75959685,142.35565348,kCs_y18-3-10,20012,,963,12,0101011,{,11,JRٖ{(M`)^w k7 (494m),False
100001342932,iV2IPSx8uLQ,Ώ Ƃ,43.7881416,142.36027130000002,kCs咬25,20266,V,2339,29,0101017,,4,JRٖ{(M`)^w k35 (2789m),True
100000305630,oDB_8XpOjqM,C,43.7715994431196,142.40847202601532,kCsL145-7-1,20555,iR,1581,19,0101,aH,4,JRΖk{^iRw k13 (986m),False
100001298103,nNsqaNtITd-,aH R,43.77240671774752,142.3607229232788,kCs76 A[gzeY1K,20012,,1114,13,0101002,ȗ,2,JRٖ{(M`)^w k14 (1060m),False
100001430715,vbOjvrGeWIM,숮,43.74521291053932,142.39697171104513,kCs113-4-1,20014,l,3243,40,0101025,Ă,2,JR@J{^lw k39 (3115m),False
100000903589,voVnsgu7u2E,΂̗ ]O,43.89042257024812,142.23829199162083,kCs]Oʒ114-3,,,,,0101017,,2,,False
100001383028,p3Iut0gbmSA, ΂₵,43.80187257921551,142.38398547179304,kCsL11-7-13,20266,V,3095,38,0111,HAH,8,JR@J{^Vw k31 (2443m),False
100000305646,TFz0EWY8Gug,e,43.76784036,142.35893887,kCs37ډE1,20012,,577,7,0101034,CN,6,JRٖ{(M`)^w k7 (499m),False
100000882412,Aelcxk1Uodg,܁EX,43.76960902565856,142.36112259396782,kCs57 TNCr 1F,20012,,698,8,0101025,Ă,6,JRٖ{(M`)^w k10 (773m),False
ID100203,qcyNN_BOewU,͂܎i iRX,43.788121761856,142.39876860383,kCsiR32-2-5,20555,iR,1281,16,0101013,]i,4,JRΖk{^iRw k18 (1377m),True
100000912154,nL-cQv50bvE,X~ Lb`,43.772320790539,142.36693420942,kCs810,20012,,1420,17,0114001,AAٓ,4,JR@J{^lw k17 (1347m),False
100001445604,wjGmHmyZ82o,vD CI[wOX,43.764371789333886,142.35776493527615,kCs{O7-2-5 CI[wO4F,20012,,164,2,0101031,́AAeq,4,JRٖ{(M`)^w k3 (185m),False
100001194099,sVM6nxsPyZI,ׂ쓌X,43.7504812633784,142.4112256431415,kCs57-1-2,20014,l,3304,41,0101,aH,4,JRΖk{^iRw k42 (3351m),False
100000851709,nuUdw_uWEl6,  4ʓX,43.76778917488047,142.3642026452951,kCs410-2189-1,20012,,864,10,0101015,Ƃ񂩂,4,JRٖ{(M`)^w k11 (856m),False
100000019935,dEoWznww4C6,Ă,43.76600487070863,142.36038899814753,kCs28,20012,,355,4,0110,ArAz[,10,JRٖ{(M`)^w k5 (400m),True
100001222173,7XagM0WjvsU,ˉ͂񏈈iRX,43.7935064284817,142.40748991966245,kCsiR36-63-2,20555,iR,2001,25,0111,HAH,10,JRΖk{^iRw k18 (1443m),False
100001434194,mkNoeGu5i1E,肤ǂ ,43.78160110397378,142.3070678012234,kCsa51-6-15,20324,ߕ,2908,36,0101018,ǂ,2,JRٖ{(M`)^ߕw k28 (2247m),False
100001420451,kOqcImUejzg,Ώ S͂,43.81411740746401,142.440129038623,kCsiR321-1-3,20380,iR,631,7,0101017,,2,JR@J{^iRw k8 (630m),False
100000749035,vBHKyHn3Csk,Fbq[ X,43.770042,142.450443,kCs쒬㕺452-2,20459,,1390,17,0106001,[,6,JRΖk{^w k16 (1225m),False
100001235961,Qs1Zn6VBo7c,ԍ؁@CI[wO,43.76399784181158,142.35712583121335,kCs{7-2-5CI[wO 4F,20012,,118,1,0101022,Ԃ,8,JRٖ{(M`)^w k2 (129m),False
100001293102,rk-sxj6wIq2,S_CjO zill,43.76002816859882,142.39379052471043,kCsL32-2-23,20014,l,1541,19,0101045,SĂ,4,JR@J{^lw k26 (2029m),True
100001205545,uOL0M4yBn5k,s񒡎ɐH,43.771418938718305,142.3669952690601,kCs69,20014,l,1419,17,0111001,HAH,8,JR@J{^lw k16 (1275m),False
100001428048,1X4ied6XQIo,Ȃ΂イ,43.79057916152022,142.39161526560667,kCsH22-10-2,20266,V,1765,22,0111,HAH,2,JR@J{^Vw k18 (1432m),False
100000305902,qkEjPaxIrIQ,Ώ ꌹ 4X,43.78769479,142.38022148,kCs411-1-9 勴r1F,20266,V,1292,16,0101017,,2,JR@J{^Vw k13 (977m),False
100000305899,qvs_Yb-sBvY,Ώމ,43.77151786,142.36315489,kCs78ډE4,20012,,987,12,0101017,,2,JRٖ{(M`)^w k14 (1071m),False
100000900935,tdY38kz0BEc,,43.768229758024,142.35697389316,kCs35ډE10 G[R[_Cr 3F,20012,,681,8,0101029,DݏĂAĂ,2,JRٖ{(M`)^w k7 (534m),False
100001505237,zqYjgge06y-,䂫i,43.78620692969535,142.36296069072955,kCs咬23-5,20266,V,2079,25,0101,aH,1,JR@J{^Vw k31 (2484m),False
100000829727,aQn8xiUiaiU,ߒ,43.7683436,142.3509762,kCs12,20012,,967,12,0101011,{,6,JRٖ{(M`)^w k12 (930m),False
100000908792,_1HB3kfkCqY,Ȓ,43.767976556784,142.48348486061,kCs쒬q11-15,20163,kmo,3122,39,0108002,WMXJ,3,JRΖk{^kmow k31 (2464m),False
100001425258,--u_bgvKNFE,MȂƉ LX,43.76659919999999,142.41305510000007,kCsL97-2-1,20555,iR,1809,22,0111,HAH,2,JRΖk{^iRw k20 (1598m),False
100000769575,UwnV8Z9EesY,Ώꔞg,43.793313,142.39504,kCsʒcn21-10-29,20555,iR,1931,24,0101017,,8,JR@J{^Vw k24 (1850m),False
100000453074,Ze0Pi1DVnhs,lG,43.7681280789302,142.35794844232782,kCs36,20012,,625,7,0110,ArAz[,8,JRٖ{(M`)^w k7 (515m),False
100001475377,1n6tvazBXko,r,43.76946625788739,142.36153884508053,kCs58-1703-40 Ar2K,20012,,689,8,0101034,CN,3,JRٖ{(M`)^w k10 (774m),True
100001288076,5G1kqu0Ifvk, 咬X,43.785736745384376,142.3622899036875,kCs咬23-5-17,20266,V,2152,26,0101015,Ƃ񂩂,4,JR@J{^Vw k32 (2542m),False
100000449982,WcEXikVLY2s,,43.771532,142.40806363558204,kCsL135-3-11,20555,iR,1587,19,0101025,Ă,4,JRΖk{^iRw k13 (1002m),False
100000452504,IZYnvftn3EA,R 7ږ{X,43.768459187246876,142.35969510588052,kCs37ډE4,20012,,620,7,0101025,Ă,9,JRٖ{(M`)^w k8 (608m),False
100001528972,5__x3ZhrbLQ, OX,43.761350491565075,142.38120688220903,kCs321E10,20014,l,702,8,0106001,[,2,JR@J{^lw k8 (630m),False
100000711773,tb8egfAzddo,Ώ ,43.79181435298966,142.34045156581544,kCsk咬15,20324,ߕ,1597,19,0101017,,15,JRٖ{(M`)^ߕw k22 (1704m),False
100000305938,JHROOwE5Y6k,Β݂̂(G),43.73655821,142.36556701,kCs_y127-1-1,29091,΂u(kC),813,10,0101017,,2,JRxǖ^΂uikCjw k8 (609m),True
100000306014,w_Co7859pOc,T[,43.8033016,142.37935954,kCst29-19-13,20266,V,3298,41,0106001,[,6,JR@J{^Vw k33 (2637m),False
ID100484,iYOekFN1FRo,͂܎i 쓌X,43.741678817219,142.4070989606,kCs146-2-16,29091,΂u(kC),4174,52,0101013,]i,1,JR@J{^lw k53 (4237m),True
100000912301,1WoeKiTw5cU,򂢂΁Eǂ@Ԃ,43.762079732376,142.34520578982,kCs_y43-2-7 _yVbsOvU1F,20012,,1439,17,0101018,ǂ,6,JRٖ{(M`)^w k18 (1407m),False
100001232436,b3jUb0Kjfog,Ot@[rbtF,43.76371370237924,142.35677471160886,kCs{7-2-5 CI[wO 4F,20012,,199,2,0103001,oCLO,4,JRٖ{(M`)^w k2 (117m),False
100001348009,9xoCqye_ZgM,͂ܒ ZxX,43.7694283,142.36638949999997,kCs610TKr1F,20014,l,1160,14,0101017,,3,JRٖ{(M`)^w k14 (1101m),False
100000305941,yYcn-2iybVQ,łΏԂ,43.7697527,142.39179341,kCsL111-2-7,20014,l,1689,21,0101017,,4,JR@J{^Vw k18 (1394m),False
100001175001,vWAbg01MtyU,Ƃ肹ǂX,43.766230878700775,142.35580298528475,kCs15-E10,20012,,449,5,0101025,Ă,10,JRٖ{(M`)^w k5 (376m),False
100000880047,J_bLQ3eUUiU,щchari chari,43.7863735,142.38383569999996,kCsVx21-10-30,20266,V,901,11,0111,HAH,10,JR@J{^Vw k9 (696m),False
100000305686,3WXc9opJsUc,q,43.79057007,142.39164506,kCsH22-10-2,20266,V,1769,22,0101011,{,2,JR@J{^Vw k18 (1382m),False
100001465188,qyF8zjXZ-ZA,쐬gv Ђ,43.7688379,142.35852999999997,kCs36V^PjIr 1F,20012,,716,8,0108002,WMXJ,6,JRٖ{(M`)^w k8 (642m),False
100000697657,9S2qawhPLgk,Ƃ񂩂2X,43.766516,142.35878200000002,kCs27ډE5,20012,,345,4,0101015,Ƃ񂩂,20,JRٖ{(M`)^w k5 (353m),False
100000910992,F9E2huJYp5M,lG,43.797160517657,142.37656903347,kCst18 쌒Nh,20266,V,2355,29,0111,HAH,6,JR@J{^Vw k27 (2095m),False
100000907181,Dw3GqoxGALo,H&@Ƃ,43.799382799964,142.42805928361,kCsiR713-2-4,20380,iR,2315,28,0110,ArAz[,3,JR@J{^iRw k23 (1784m),True
100001239271,kEHr2SxiU-U,А ,43.76387386869533,142.35753352698362,kCs{7-2-5,20012,,84,1,0101015,Ƃ񂩂,8,JRٖ{(M`)^w k2 (129m),False
100001527448,CtgOZAdY1_I,iv txX,43.80542838456403,142.3724054463212,kCst48-10-27,20266,V,3646,45,0101,aH,1,JR@J{^Vw k40 (3135m),False
100001429745,MpkCqf9_KHE, ,43.7703204,142.40237839999998,kCsL124-3-3,20555,iR,2064,25,0101017,,1,JRΖk{^iRw k17 (1350m),True
100000305664,HRhywFjFWs6,,43.76857636,142.3583889,kCs36ڍ7,20012,,670,8,0101,aH,1,JRٖ{(M`)^w k8 (568m),False
100001343703,rHytTrnU0bc,Y΂₫ 傤,43.7684948,142.3615255,kCs48 GX^[rB1F,20012,,629,7,0101025,Ă,6,JRٖ{(M`)^w k9 (698m),False
100001210606,wn1RSfOLiOk,قƂ͂,43.78052138274581,142.41316010951994,kCsiR124,20555,iR,463,5,0106001,[,5,JRΖk{^iRw k7 (514m),False
100000833546,4WKxF2-gylQ,܂Ē,43.76992149999999,142.3608528656414,kCs57ӂ[Ɠ,20012,,756,9,0101025,Ă,5,JRٖ{(M`)^w k10 (796m),False
100000306036,xX1wpja2Unk,H ߂,43.81911848,142.35904079,kCst34-3-9,,,,,0106001,[,3,JRٖ{(M`)^ߕw k63 (5004m),False
100001471481,ab5zpJcnxy6, l,43.80772805037194,142.39195008650813,kCsL16-1-28,20266,V,4017,50,0101,aH,2,JR@J{^Vw k40 (3203m),False
100001444084,nhgRJcZKWPw,Ώ Ԃ̉,43.7639638,142.35741729999995,kCs{7-25,20012,,90,1,0101017,,2,JRٖ{(M`)^w k3 (171m),False
100000902718,Emd_8GKWTh6,eBt@j[,43.7665495,142.35750621165676,kCs16ڍ10 X}Cze1F,20012,,452,5,0115001,JtF,1,JRٖ{(M`)^w k6 (413m),False
100000696738,yYF0M52WA9M,Љَq,43.75992292794077,142.4102511704499,kCsL46-6-9,20555,iR,2704,33,0118,XC[c,8,JRΖk{^iRw k29 (2298m),False
100001250728,JDzXBo2PV7Y,C,43.766846,142.40593089999993,kCsL95-3-18,20555,iR,2028,25,0101017,,5,JRΖk{^iRw k20 (1548m),False
100000117656,RWw4LFy3srY,`,43.75000999394055,142.34204571534428,kCs_218,20114,_y,2026,25,0101,aH,5,JRxǖ^_yw k24 (1882m),False
100000902744,-nUSnmbp2WE,,43.768412655038,142.35811393004,kCs366,20012,,660,8,0101,aH,3,JRٖ{(M`)^w k7 (547m),True
