id,gid,name,latitude,longitude,address,satation_id,station_name,station_distance,station_time,genre_code,genre_name,review_count,access,paypay_flg
100001316683,B13NuIYd4kk,レストラン 丹頂 ホテルグリーンパークつるい,43.2406466539432,144.3247126,北海道阿寒郡鶴居村鶴居北1-5 ホテル グリーンパークつるい,,,,,0304001,ホテル,11,,True
100001226088,crwNalPQMK6,地場産十割蕎麦 杜のそば処 雪裡,43.20003580496462,144.353981122751,北海道阿寒郡鶴居村中雪裡南,,,,,0101017,そば,3,,False
100001458054,7MMDGQYMuwU,村の小さなそば屋 たまゆら,43.23499549280129,144.32591060004802,北海道阿寒郡鶴居村鶴居東3-64-3,,,,,0101017,そば,,,True
100000911675,bBsyp0sCVb-,活魚料理 オオツ,43.239730813089,144.32023001826,北海道阿寒郡鶴居村鶴居北1-20,,,,,0108001,焼肉,,,False
100000900593,5feIPgs1x1E,支雪裡,43.338565327276,144.25274970152,北海道阿寒郡鶴居村支雪裡,,,,,0115001,カフェ,,,False
247940705323237377,XIuyOoRzEvs,オオツ,43.238506,144.320251,北海道阿寒郡鶴居村鶴居北 1丁目20番地,,,,,0101034,海鮮料理,,,True
108430,H9gvrcjF1Wo,ふく亭 釧路カントリークラブ店,43.146167549647146,144.31338155273443,北海道阿寒郡鶴居村下幌呂 釧路カントリークラブ内,,,,,0101017,そば,,,False
YP0729090583ED,3lUtyi_Y4g-,釧路カントリークラブ内 ふく亭,43.14093072,144.32180044,北海道阿寒郡鶴居村下幌呂内,,,,,0101034,海鮮料理,,,False
