id,gid,name,latitude,longitude,address,satation_id,station_name,station_distance,station_time,genre_code,genre_name,review_count,access,paypay_flg
100000903239,ENJbXi3jeCw,ӂ̉,43.054464937921,141.35085163249,kCDys܏5 55r 5F,20299,ُwZO,256,3,0101034,CN,1,DysdR@^ُwZOw k2 (154m),False
ha25700,BtVjZ5wEfD2,ԂԂ̂Ƃ,43.05482106,141.35450147,kCDys53-8 NOfr5F,20288,,178,2,0101022,Ԃ,1,DyscnSk^̉w k2 (121m),True
100001396430,OIseZ6h9xy2,n싏 { ЂƗt,43.05206368428378,141.3546295889549,kCDys73-7-29 A|r1F,20513,L,344,4,0110,ArAz[,,DyscnSL^L̉w k4 (315m),False
100000899953,VDMxYabU0AE, DywOX,43.066875933201,141.35317319811,kCDyskl2DyTRr 2F,20210,ۂ,83,1,0101025,Ă,5,DyscnSk^ۂw k4 (324m),False
h044705,jCOyL4vrExE,Jz 74X,43.052104601516,141.35191295639,kCDys75 T}[NVeBzeDyB1,20474,{莛O,292,3,0101034,CN,,,True
100000802608,bfNfPQq-HoM,~RꔄX,43.05261391071297,141.30588979731442,kCDys{Pu3,20540,~R,1170,14,0101017,,21,DyscnS^QWډw k16 (1286m),False
100000069225,TNSlKEzJJDk,lG ,43.0564706,141.3232183,kCDysʐ22-1-12Έr 1F,20540,~R,344,4,0101011,{,4,DyscnS^~Rw k7 (493m),False
100000790670,PbeatGJoqoY,ؘO k2X,43.06345479718266,141.3524121330497,kCDysk3LEEk2rB1,20210,ۂ,297,3,0104001,ؗ,5,DyscnSk^ۂw k4 (263m),True
100000902618,a7vR2-B3sf-,,43.071503619931,141.31897563455004,kCDysk\236 ۂʊ,20418,\l,513,6,0101031,́AAeq,6,DyscnS^\lw k7 (560m),False
100000747904,T6nrvS5zDlk,Y~,43.051898599860515,141.3545209533729,kCDys쎵3,20513,L,372,4,0101034,CN,3,DyscnSk^w k5 (337m),False
100000526702,nZ4eZwqLwdE,,43.057838,141.34976000000006,kCDys5-31-2,20073,,268,3,0101031,́AAeq,4,DysdR@^Sډw k4 (254m),False
100001352574,y91dmsVUJoY,z[ ۂ듌}X,43.06648965185845,141.35320107593543,kCDyskl2-1 ۂ듌}SݓX10F,20210,ۂ,61,0,0101,aH,4,DyscnSk^ۂw k1 (54m),False
100000927099,jrNzIn6kq2w,{ ق,43.06678930313899,141.36769486403156,kCDyskO8-351-2,20456,oXZ^[O,731,9,0110,ArAz[,4,DyscnS^oXZ^[Ow k8 (613m),False
100001360596,Cm9LkHLv0eo,o ~[g{[Cj[[N DyX,43.0667978,141.35322229999997,kCDyskl2-1-25DyTRr6F,20210,ۂ,90,1,0101042,,4,DyscnSk^ۂw k1 (31m),False
100000068911,0pkqUiYWuac,Ƃ̂  19X,43.0344407,141.35140320000005,kCDys\7-3-20,20588,R@PX,80,1,0101017,,5,DysdR@^R@PXw k1 (32m),False
100001304976,9sDS2o_J6KY,ڈΑO 攪c,43.05563826997579,141.35067302685025,kCDysl5 F45r 10F,20299,ُwZO,202,2,0101034,CN,4,DysdR@^ُwZOw k3 (182m),False
h091308,UAGlmrDJKaM,,43.05720409,141.35366529,kCDys33-14-2 FA-S3r1F,20288,,211,2,0110,ArAz[,1,DysdR@^KHw k2 (97m),False
100000068973,kR5feyAmc8Y,ΏY,43.0654417,141.32203460000005,kCDysk22-1-1 }V 1F,20412,QW,861,10,0101017,,3,DyscnS^QWډw k13 (1008m),False
100000847274,LaXxhcNEn2k, Dy̓X,43.05606861464954,141.35177755585073,kCDysO4-11-3,20288,,148,1,0101031,́AAeq,3,DyscnSk^̉w k2 (167m),False
100000908835,bkw8Wy4TVBo,ł@Ώ@,43.062425796563,141.35728651819,kCDysʓ1-3 oX^[~iB1F,20456,oXZ^[O,192,2,0101017,,3,DyscnS^ʉw k5 (375m),False
100000772889,EZFZ4IgvbT-,X^~i~[ oo`,43.06155049937425,141.34146044829708,kCDysk10-1-25,20400,PP,381,4,0104001,ؗ,2,DyscnS^PPډw k5 (336m),False
100000068592,b86-cYv-b1g,Ԃ,43.0647584,141.3230095,kCDyskZ21-39,20412,QW,912,11,0101,aH,3,DyscnS^QWډw k14 (1062m),False
h646300,_rZKcCiedeQ,Robata dining ]Yu],43.055670847638,141.35132946063,kCDys45-6 GrB1,20288,,154,1,0119004,_CjOo[,1,DyscnSk^̉w k3 (176m),False
100001516695,07lxviRROwU,{,43.05581702850804,141.35259489879456,kCDysl4ڏr1F,20288,,41,0,0101025,Ă,11,DyscnSk^̉w k1 (38m),False
100000760428,UCjzkAqa4W-, [,43.056586,141.354484,kCDysO3 vC^E 4F,20288,,170,2,0110,ArAz[,9,DyscnSk^̉w k2 (163m),False
h865000,FrYAuctYhvM,ĂՂV,43.055187674886,141.35432090612,kCDys43-2-3 32jar4F,20288,,150,1,0101014,VՂAg,,DyscnSk^̉w k1 (16m),True
100001520255,sQFslhObm6E,ꂻ΃~NJa,43.06106344884852,141.34123009999996,kCDysk10-1-13 _CApXk11 F,20400,PP,332,4,0101020,ꂻ,2,DyscnS^PPډw k4 (255m),False
100001241841,eroaIi3jeCw,NN,43.0537867,141.35076989999993,kCDys܏5 Wphr2F,20299,ُwZO,304,3,0110,ArAz[,2,DysdR@^ُwZOw k3 (199m),False
100001358335,qhKpPXGX606,l̕ DywOX,43.06504396048941,141.35298849908247,kCDyskO2ڃJ~}rB1F,20210,ۂ,129,1,0101032,ꗿ,2,DyscnS^PWډw k5 (369m),True
100001455541,QETxNn1JaQM,₫Ƃ Ƃ,43.06696206074368,141.34679251318596,kCDysk܏62kCʐMr B1F,20210,ۂ,365,4,0110,ArAz[,3,JRٖ{(M`)^Dyw k5 (380m),True
100001503577,vAaAvFIeF_o,܂ƒY΂̍ ď,43.054496408812994,141.35646544141036,kCDys܏2 \VAr2F,20513,L,109,1,0110,ArAz[,2,DyscnSL^L̉w k1 (83m),True
100001340229,kZ2r14PB-XQ,Ȃ ʓ@ Ă񉮂,43.05607049889484,141.35197142331356,kCDysO4-9J~r4F,20288,,149,1,0101034,CN,1,DyscnSk^̉w k2 (112m),False
100001323013,elLz3ty8_6U,̑,43.0536125,141.32080210000004,kCDysO25-1-3,20540,~R,345,4,0101025,Ă,2,DyscnS^~Rw k4 (301m),False
h246301,XenxVFcZjfQ,߂̑,43.06572793,141.34815689,kCDysk45-1-3 {kكr1F,20210,ۂ,279,3,0110,ArAz[,10,,True
100000757680,TkvXO5s88HI,k̖EkCԂԏĂ,43.0531607,141.3533992,kCDysZ4 r3K,20513,L,317,3,0101022,Ԃ,2,DyscnSk^̉w k4 (291m),False
t000006123,SE6f0Xbj5i2,齂̂K,43.054262997915,141.35280664397,kCDys54 j[r1K,20288,,219,2,0101012,i,10,,False
YP0080174252BC,ACXpZX2T_Ao,̉ Ă {CN ̉wOX,43.05564583,141.35070451,kCDys45-8 F45r4F,20299,ُwZO,205,2,0101026,Ă,,,False
100001414195,QGXnNDSUa16,matcha green tea green cafe,43.06314608288024,141.35712147865866,kCDysk1-2-5 JXTb|B1,20456,oXZ^[O,279,3,0115001,JtF,1,DyscnS^oXZ^[Ow k3 (229m),False
J001245863,ZCYBDsb9Jjw,rX Q,43.05555291,141.31612959,kCDysʐ27-1-12,20540,~R,100,1,0101053,aHȋj,1,DyscnSu~Rvw3ԏok2B,True
100000880059,k-XSwKQ0NjA,nY ,43.05469499679915,141.35415284932753,kCDys܏3ڃj[XXLmr 2K,20288,,157,1,0101011,{,1,DyscnSk^̉w k2 (97m),False
h047804,oXQHGzK-YEU,Ԃ Dy3X,43.056640281118,141.35406250929,kCDys33 G DININGDy3F,20288,,155,1,0110,ArAz[,9,,True
ha0w700,0Htnk0EkORs,S uWWv,43.05564304715,141.35060452274,kCDys45 F45rB1,20299,ُwZO,220,2,0110,ArAz[,,,False
100001396381,uV_RowK3Gj2, SAWA,43.05361512038111,141.35458932698361,kCDysZ3Hr1F,20513,L,258,3,0101,aH,1,DyscnSk^̉w k3 (226m),True
100001169699,j5q-mc2uQo6,{N,43.055666573560245,141.35065639019024,kCDysl5 F-45r4F,20299,ُwZO,223,2,0110,ArAz[,1,DysdR@^ُwZOw k2 (118m),False
100001489490,KGDyZwbqWGo, k2𓌓X,43.06540425062187,141.36683447614178,kCDysk7-9,20456,oXZ^[O,530,6,0101025,Ă,1,DyscnS^oXZ^[Ow k6 (428m),False
100001472984,3-bQ9EqAiDE,Əċ nĂ SJ[jo,43.057012100444425,141.34789560000002,kCDys7-1-5 2.7r 1F2F,20413,W,244,3,0110,ArAz[,1,DysdR@^Wډw k3 (202m),True
100001518337,sPCp3wuqn5A,Y΂ƒ ݂,43.05266742444758,141.35265146152972,kCDysZ4-4-6 Kr 1F,20474,{莛O,354,4,0101025,Ă,1,DyscnSk^̉w k4 (308m),False
h047808,qqkuNoWvfAE,Ԃ Dy̓X,43.054001665935,141.35346271427,kCDys54 NX^[r3F,20288,,209,2,0109001,痿,5,,False
100000900431,XO3AvJ4x3CE,Ē,43.055687164545,141.35031877144,kCDysl𐼑4r 5Fܒ,20299,ُwZO,189,2,0101025,Ă,1,DysdR@^ُwZOw k1 (87m),False
100000016761,8C7Ye3jLq2M,Spanish@restaurant@CHAVDA,43.054432,141.351249,kCDys܏5-13-1 AVDyr 1F,20288,,236,2,0110,ArAz[,5,DysdR@^ُwZOw k3 (194m),False
100001534716,-vOeTY0LpqQ,ƒ뗿,43.0537559,141.3534759,kCDysZ4-5-8R`2F,20288,,244,3,0101003,ۂ,1,DyscnSk^̉w k3 (189m),False
100000826744,ULCSwPLDV--,ɂJtF&o[@Cl^,43.0579459,141.3416138,kCDys10-4-1,20316,O,66,0,0101,aH,,DysdR@^Ow k1 (71m),False
h957401,yFMqB-6fSfE,B V_ iR{X Dy̓X,43.05629593,141.35552630,kCDysl2-11-7 7F,20513,L,89,1,0101033,y,1,DyscnSL^L̉w k1 (83m),False
h308023,ITIj_CBr-y2,IƉyƓ{ ,43.05773889,141.32029021,kCDysk124-2-8 MYvU~R1F,20540,~R,314,3,0110,ArAz[,3,,True
100001534120,_7u2w0zALFM,؎,43.05784524930686,141.35156302146112,kCDysj4-12-5 r 2F,20416,S,216,2,0110,ArAz[,,DysdR@^Sډw k2 (98m),True
100000069030,xlwSz4ydafI,Ƃ񂩂Ek̐El,43.07032206945786,141.3323414325714,kCDysk\14-1-2,20298,K,52,0,0101015,Ƃ񂩂,7,JRٖ{(M`)^Kw k1 (58m),False
h638400,RlIJ9UxrUds,ϒOӂ ̓X,43.05490704,141.35109064,kCDys45-1 Dy}vUB1,20288,,201,2,0101012,i,,DyscnSk̉wk1,False
100000808437,VQciHOjnMjs,齂̕,43.055455809465606,141.3497995383018,kCDysl6-7-9,20299,ُwZO,122,1,0101,aH,5,DysdR@^ُwZOw k1 (29m),True
100000903308,jwxFfmMcdGk,ƂQ,43.053732378998,141.35477136907,kCDysZ3,20513,L,232,2,0101025,Ă,5,DyscnSL^L̉w k4 (270m),False
ID0200114,HMnqGyAfvKw,ȂK DywnXX,43.066915349787,141.3496575275,kCDysk54 DywLnXW-21,20210,ۂ,81,1,0101031,́AAeq,5,DyscnSk^ۂw k1 (69m),True
ha2n100,4jbj_A-9r1-,ȂR,43.055412633538,141.35386537544,kCDys43 2Gr7F,20288,,42,0,0101023,Ȃ,,,True
h045700,QmX1QICOAkk,YΏĂ̓X ԂЂ,43.05601965,141.32017090,kCDysʐ25-1-1 [hrB1,20540,~R,88,1,0110,ArAz[,2,,True
100000068663,TnvCy7PDvm-,齘a,43.0548679,141.32169079999994,kCDys24-1-1 񂩂R[|Q 1F,20540,~R,295,3,0101,aH,4,DyscnS^~Rw k4 (324m),False
100000843177,eLJ2CcNiPks,ǎ  Dy̓X,43.05569414101263,141.35146839129914,kCDysl5-5-4 Dy45Lr 5F,20288,,136,1,0110,ArAz[,4,DyscnSk^̉w k3 (199m),False
100000068906,KxZNvBzEiGU, ̂Ɩ{X,43.0565674164188,141.35665735085695,kCDysl1-6-1,20513,L,30,0,0101017,,5,DyscnSL^L̉w k3 (174m),False
100000906616,_8zNANFiNY2, a,43.054298685203,141.35185593378003,kCDys܏5 r 1F,20288,,207,2,0101017,,4,DyscnSk^̉w k3 (226m),False
100000909107,emJGnp2heFw,䂽,43.055490454204,141.3510648909,kCDysl5 sur5F,20288,,175,2,0102,mH,4,DysdR@^ُwZOw k2 (156m),True
h804600,9sfKXaV07iM,VĂ DyAsAX,43.067144503885,141.34992332329,kCDysk܏3 DywLnXAsA,20210,ۂ,130,1,0123002,t@Xgt[h,10,,False
100000904345,5eBu5TWwrkY,,43.066446909759,141.34504094323,kCDysk܏7-2-1 vUzeDy B1F,20210,ۂ,504,6,0101011,{,3,DyscnSk^ۂw k8 (584m),False
3010578,2jRWZ3LheAM,͂,43.07071805,141.32475559,kCDysk111936Ԓn,20298,K,621,7,0101012,i,33,,False
100001219487,tIMUU0qjt9o,lG DywOX,43.0638344,141.3522792,kCDysk3 25jar 4F,20210,ۂ,239,2,0101022,Ԃ,3,DyscnSk^ۂw k5 (357m),True
100000843159,E8aQguQOOm6,₭ݒ,43.05444219492037,141.35224775893084,kCDys܏4 rB1F,20288,,190,2,0101,aH,3,DyscnSk^̉w k3 (186m),True
100001345905,Qa46tmMcdGk,SĂƂ K,43.05392230100167,141.354633489226,kCDysZ3 ӂ1F,20513,L,256,3,0101045,SĂ,2,DyscnSk^̉w k3 (198m),False
ha0r500,lA1X32qGwdQ,V s,43.052207408541,141.35307396322,kCDys74 LCԊ1F,20474,{莛O,381,4,0101034,CN,0,DyscnSk^̉w k5 (399m),True
100000069767,YrCRSZwH-3s,΃o[@CO,43.0668201,141.34986809999998,kCDysk܏4 AsAt[hEH[N,20210,ۂ,57,0,0101017,,2,DyscnSk^ۂw k1 (69m),False
100000912231,zAT9CuHYHbo,₷܂,43.054468011187,141.35644477432,kCDys܏2-1-5 r 1F,20513,L,108,1,0101031,́AAeq,2,DyscnSL^L̉w k1 (74m),False
100000808960,mWRlutqXjjU,{ a,43.056433102363314,141.3543107529589,kCDysO3-3 G_CjOr4F,20288,,119,1,0101011,{,2,DyscnSk^̉w k2 (138m),True
100001455589,pKulmDy5XN2,ƑN BƋ ߂ɂ ̓X,43.0554855,141.35430810000003,kCDysl3ڑ3O[rB1F,20288,,85,1,0110,ArAz[,2,DyscnSk^̉w k1 (68m),True
gb5m001,anfrUdGnitk,(a ŋ),43.05563370,141.32349010,kCDys22-2-15 V[Yr1F,20540,~R,398,4,0102005,tXit`j,,,False
100000909822,-Q4oQV0U3Us,]ɉ,43.06675410000001,141.34654845767213,kCDys܏6 56r,20210,ۂ,370,4,0110,ArAz[,2,DysdR@^ُwZOw k2 (116m),False
100000069720,ZEcezlSJNco,DyB{ DyOzX,43.059357102529475,141.35374576441802,kCDys3-8 ~X^[~jbgDyOz,20073,,117,1,0101,aH,1,DyscnS^ʉw k2 (152m),False
100000866677,g5Ex1wMK0b2,,43.05745930289053,141.33035051992147,kCDysʐ17-2-31,20402,PW,84,1,0107001,J[,1,DyscnS^PWډw k1 (36m),False
100000068936,gjdITc7VnOY,,43.0229831,141.34222969999996,kCDys\14-1-8,20339,dԎƏO,996,12,0101017,,7,DysdR@^}ّOw k11 (845m),False
100001472047,-FokidHJzms,KuLaBel,43.05422265946992,141.35069349814762,kCDys܏5-21-1 2όr5F,20299,ُwZO,258,3,0101034,CN,1,DysdR@^ُwZOw k3 (192m),False
100000069038,EnGbCVeXv-s,R,43.0547189,141.3556711,kCDys܏2 I[Nr 2F,20513,L,139,1,0101034,CN,1,DyscnSL^L̉w k2 (133m),False
100000798083,afNWFueyDe-,~R@,43.05771469021089,141.31667528922537,kCDysk27-3-20 ANr3F,20540,~R,243,3,0101001,Η,7,DyscnS^~Rw k5 (339m),False
100001260859,GYf4ObyJ7JI,YΏĂƊCNAÂ蓤x ܂! DywOʂX,43.0639703,141.35159620000002,kCDysk3-1-18 25jar2F,20210,ۂ,162,2,0110,ArAz[,1,DyscnSk^ۂw k4 (303m),True
100000901182,pGAKfad5MuM,yH_CjOڔ ~RX,43.060098655141,141.31431520132,kCDyskO28-2-1,20412,QW,84,1,0110,ArAz[,1,DyscnS^QWډw k1 (36m),False
100001344181,wU_RVn2T_Ao,Japanese Food+Drink BAR,43.05569,141.35091899999998,kCDysl5-8-9 ACr45,20288,,207,2,0119004,_CjOo[,1,DysdR@^ُwZOw k3 (209m),False
100000831737,Eg5x5Sql4ZQ,Goving,43.0567378588914,141.343526,kCDys9-1-13 P^N29r1F,20316,O,240,3,0101025,Ă,1,DysdR@^Ow k3 (187m),False
100001285546,nKVexIVnrug,Japanese restaurant ܉,43.0539634,141.35248869999998,kCDys܏4-5 ̎r,20288,,268,3,0101,aH,1,DyscnSk^̉w k3 (169m),False
100001521426,m1GixXAGu0g,kC炠̑O OؒJX,43.0574431,141.35145239999997,kCDys4-10-4,20416,S,230,2,0101028,ł,,DysdR@^KHw k2 (159m),False
100000901628,czNTUlqNKq-,YΑn ,43.056076072337,141.35186374049,kCDysO4J~r 4F,20288,,155,1,0110,ArAz[,1,DyscnSk^̉w k2 (158m),False
100001466726,ex1bk33zpB-,DݏĂDining ᏸ,43.05478348208784,141.35447353680536,kCDys܏𐼎O8 NOfr2F,20288,,179,2,0101029,DݏĂAĂ,1,DyscnSk^̉w k2 (113m),True
100000905917,D4K7N1sigVY,Ƃ񂩂 ێDyX,43.067530782782,141.34932032694,kCDysk܏4,20210,ۂ,200,2,0101015,Ƃ񂩂,7,DyscnSk^ۂw k3 (169m),False
0010000471,IOujv0dooKw,23X,43.032347336638,141.35183074113,kCDys\O7-1-7 ANXvU22,20191,y쏬wZO,47,0,0101029,DݏĂAĂ,,Dysduy쏬wZOv k4,True
100001495138,Tpqqat5yIBc,Ȃ I,43.07025918321695,141.32064077218718,kCDysk\22-1-1 kvU,20418,\l,523,6,0101023,Ȃ,,DyscnS^\lw k7 (548m),True
h231200,h9wPzMNEn2k,AƉꗿ 󗿗X,43.056795756228,141.35230153511,kCDys34 JcLXNGAr10F,20288,,180,2,0101032,ꗿ,5,DyscnSk^̉w k2 (159m),True
100000903389,fUf_ELF3UVo,وٍ,43.054414697597,141.3547785961,kCDys܏𐼑11O[r 4F3,20513,L,239,2,0110,ArAz[,7,DyscnSk^̉w k3 (227m),False
100000902559,LKi5qqNwIVQ, X,43.056828974129,141.35495483856,kCDysO2,20513,L,179,2,0101025,Ă,5,DyscnSk^̉w k3 (222m),False
