id,gid,name,latitude,longitude,address,satation_id,station_name,station_distance,station_time,genre_code,genre_name,review_count,access,paypay_flg
100001417685,Ac31NtIxYJc,{Ansima,43.05410704498943,141.354392746627,kCDys܏3 OԊكr2F,20513,L,276,3,0110,ArAz[,6,DyscnSk^̉w k2 (167m),True
100000782661,N666bqIsYOM,炤,43.056726,141.350742,kCDysO5-14,20288,,293,3,0101032,ꗿ,6,DysdR@^ُwZOw k3 (204m),True
ha12200,RN_O-1lN7Fg, ڋ&,43.05683172,141.34831853,kCDys26-7-1,20299,ُwZO,240,3,0110,ArAz[,15,,True
100000069967,JOM2CXbPwik,V@ς񕲁@@,43.0540236,141.32242129999997,kCDysO23-2-23 GNZnC~R1F,20540,~R,406,5,0110,ArAz[,6,DyscnS^~Rw k6 (431m),False
J000026779,NRfrOXbj5i2,ӂ ނ炩,43.054519085499,141.35282523728,kCDys54 obJXr1F ,20288,,230,2,0101053,aHȋj,8,k̉w̃tB̏owOʂցJIPق̌_E܁30mƁuӂv̊Ŕ܂,True
100001184312,4XMU5zMgtwg,qo[ێDyX,43.06760732705747,141.34962876350392,kCDysk܏4-7ێDyX B1F,20210,ۂ,172,2,0118,XC[c,5,DyscnSk^ۂw k2 (156m),False
100001447964,V4-GkMNiPks,Ƙa݂ƓƖ  Dy̓X,43.0556992,141.35148149999998,kCDysl5-5-4 Dy45Lr6F,20288,,134,1,0110,ArAz[,5,DyscnSk^̉w k2 (157m),False
100000901619,BeklCoJNC7o,̂񂿂,43.05841253383,141.35140605804,kCDys4ډ 2F4-7-2,20416,S,155,1,0101025,Ă,4,DysdR@^Sډw k1 (67m),False
t000002799,nnGy2KQcmCs,齏܂,43.061806053614,141.32459067217,kCDysk320-2-16 ,20402,PW,789,9,0101012,i,,18ډwk11łBwoč܂AẐ_E܁B˂܂Ak320(_)E܁B,False
ID0101177,LNwfKKXrOvQ, DyR@X,43.041542727972,141.33604469159,kCDys13153-6,20406,PS,160,2,0101031,́AAeq,4,DysdR@^PSw k2 (110m),True
100000068951,0IbBBaDB4wY,V@{X,43.04114908142328,141.34992865245545,kCDys\l7-3-36,20174,s[,122,1,0101017,,3,DysdR@^s[ʉw k2 (100m),False
s000261090,w5okzjmlbtI,ƂԂԐHו@ԁ@Dy̓X,43.05441738,141.35129343,kCDys܏5-13-1 ASILSAPPORO2Ki206j,20288,,235,2,0101022,Ԃ,2,,False
100000912131,-aYEfF-IGxc,Ȃ,43.058925577804,141.35022512387,kCDys5-13 ̓rB1F,20073,,159,1,0110,ArAz[,4,DysdR@^Sډw k3 (177m),True
h002000,KcgXq0McdGk,,43.05352676,141.35464875,kCDys63-6-33 AGS63r1F,20513,L,224,2,0101012,i,3,DyscnSk^̉w k3 (233m),True
100001501194,yWi7OGJq1Ws,Ɏs,43.05793191958597,141.3584479352761,kCDys1 ۂsꏤXX,20513,L,342,4,0101036,ɗ,3,DyscnSL^L̉w k4 (270m),True
100001187113,tw_9dJ7gDOU,₫Ƃ苏@,43.057721518374244,141.33090661959181,kCDysʐ17-2-18 BERKLEY 1F,20402,PW,152,1,0101025,Ă,4,DyscnS^PWډw k2 (99m),False
h288601,RE8zFKf0rJw,kC lq ǔkCrX,43.066414008067,141.34931508352,kCDysk44 ǔkCrB1,20210,ۂ,141,1,0110,ArAz[,,,True
100000790041,YoT9_MwiE3k,ޓs,43.057338,141.35638,kCDysO1-2-1 `gZr1F,20513,L,111,1,0101031,́AAeq,3,DyscnSL^L̉w k4 (264m),True
100001396336,tuLzwgjZ_X-,Ĉ̎R̖̂kɂ́Bkfޗ,43.06508,141.353098,kCDyskO2J~}rB1,20210,ۂ,117,1,0101034,CN,3,DyscnSk^ۂw k1 (87m),True
100000903850,m5H611bj5i2,@ؒ,43.054366851368,141.35303887852,kCDys܏4 obJXr6F,20288,,197,2,0110,ArAz[,3,DyscnSk^̉w k2 (159m),False
100001480885,C6qIjSApEwk,ттѐH,43.07014364390734,141.32202724387446,kCDysk\21-1-1,20418,\l,702,8,0101034,CN,3,DyscnS^\lw k9 (698m),False
100000900333,iT_f-Y0hYhE,齏@,43.0521876616646,141.3528276062558,kCDys쎵4 XXLm1K,20474,{莛O,362,4,0101,aH,2,DysdR@^{莛Ow k5 (384m),False
100000877796,g2xSlOjnMjs,ѐ,43.055402040967486,141.34935235550074,kCDysl6,20299,ُwZO,86,1,0101017,,3,DysdR@^ُwZOw k1 (43m),False
100000906199,7GiPHeQD05k,Ē@킾,43.065078600439,141.33655376687,kCDysk܏12-2-23 ASIA512r 1F,20298,K,800,10,0110,ArAz[,3,JRٖ{(M`)^Kw k10 (804m),True
100001227947,ZQv3gEkwP6w,U,43.05962016494921,141.35872162070115,kCDys2ڑsrB1,20456,oXZ^[O,214,2,0101017,,2,DyscnS^oXZ^[Ow k4 (267m),True
100000908461,zSvkQoNFwRw,,43.06393288917,141.34527186673995,kCDyskO71-1 ΉrB1,20210,ۂ,561,7,0101031,́AAeq,2,DyscnSk^ۂw k8 (620m),False
100001354810,IzRdFJiGshQ,Dyɉ OzDyX,43.0598114,141.35278689999996,kCDys3ڎOzDyXB1,20073,,63,0,0101036,ɗ,2,DyscnS^ʉw k1 (35m),False
100000736835,Ry_-IuhofNk,Y,43.05539616042423,141.34545630912316,kCDysO8,20299,ُwZO,375,4,0106001,[,2,DysdR@^Wډw k4 (293m),False
100000861245,xfkl6hUK1xQ,Japanese Dining Daigo {@,43.05662733064076,141.3516842082081,kCDysO4ڌܔԊXr2F,20288,,212,2,0119004,_CjOo[,2,DyscnSk^̉w k3 (198m),False
100001285745,27Uh-b_wF9c,Yakitori ꂠ,43.0535274,141.354649,kCDysZ3-6-10 ꂷ̃r B1F,20513,L,224,2,0110,ArAz[,2,DyscnSk^̉w k3 (237m),False
100000903561,xLsxKXbj5i2,ƈt,43.053981265123774,141.3529292204821,kCDys܏𐼎lڑ2r 2K,20288,,296,3,0101025,Ă,2,DyscnSk^̉w k3 (203m),True
ha30700,sHK9Ta2GC8s,a ݂Ȃ,43.053629461913,141.35279890316,kCDys64 zCgr3F,20288,,304,3,0110,ArAz[,,DyscnSk^̉w k3 (200m),True
100001380163,XR-thMBXDNU,5 ~RX,43.0564137,141.32154179999998,kCDysʐ24-1-30 5r 2F,20540,~R,249,3,0101034,CN,2,DyscnS^~Rw k4 (257m),True
100000902278,-i-lqgqa4W-,ܓc,43.056323532271,141.35403060334,kCDysO3-5-2sr4F,20288,,87,1,0101011,{,2,DyscnSk^̉w k2 (105m),False
100000901987,a1_MHGMcdGk, Ȃ݁B,43.053645754779,141.35468082753,kCDysZ𐼏Hr 1F3,20513,L,231,2,0101011,{,2,DyscnSL^L̉w k4 (283m),False
100001297964,qCn8DQUJ6yA,cS₫Ƃ 悵 ̓dOX,43.05565025717217,141.351177987758,kCDysl5-7-1 Gr 1F,20288,,166,2,0101025,Ă,2,DyscnSk^̉w k3 (189m),False
h672700,5ylRznRDclU,ł ͂,43.06916530,141.32117539,kCDysk1021-1-2,20418,\l,571,7,0101017,,5,,False
100000901119,seB6WGMcdGk,Ƃ蒷,43.05377884882,141.35448146368,kCDysZ31 j[y1F,20513,L,273,3,0101025,Ă,8,DyscnSk^̉w k4 (260m),False
100001504964,EnroqK3EU1I,SȌ CNƒYĂF[ CC ̖{X,43.0554333,141.35443839999994,kCDysl3-1-1 3O[r3F,20288,,102,1,01,O,1,DyscnSk^̉w k1 (83m),False
100000863353,0pHcn6vOw1Q, erOX,43.0602627,141.35640680000006,kCDysʐ1KHrB1,20073,,117,1,0101025,Ă,2,DyscnS^ʉw k3 (210m),False
100001457641,UBEsy78ktvU,Armor,43.059386247151366,141.31365078711985,kCDyskO28-3-10,20412,QW,231,2,0102005,tXit`j,1,DyscnS^QWډw k2 (146m),False
100001411383,7eD6ri8gZ0Y,낤ǂ ˏ  ̓X,43.054085076204835,141.35423037949113,kCDys܏3-3-4 er1F,20288,,268,3,0101018,ǂ,1,DyscnSk^̉w k2 (162m),False
100001425677,KNrFs_GnYjY,CN ͂ ʓ@ ,43.05210127939667,141.35492086502973,kCDys쎵3-7-9,20513,L,319,3,0101034,CN,1,DyscnSL^L̉w k4 (287m),True
100001263714,X4x1KcrulmE, 쑽,43.05654778017561,141.35522764536893,kCDysO2-6 KTOr B1F,20513,L,117,1,0110,ArAz[,1,DyscnSk^̉w k3 (235m),False
100000845168,shFmJmMcdGk,̓X@,43.053915821080956,141.35482431465664,kCDysZ3 lr1K,20513,L,259,3,0101011,{,1,DyscnSL^L̉w k4 (254m),False
100000777133,fBymmOJ1geU,イ܂kC,43.055646,141.350705,kCDysl5-8-1,20299,ُwZO,206,2,0101032,ꗿ,1,DysdR@^ُwZOw k2 (122m),False
100001476445,wFlMKOCyhX-,ĂƂ΂񂴂̓X Ȃ,43.0537718,141.35505179999996,kCDysZ3-6-31 WCt揬H 3F,20513,L,209,2,0101,aH,1,DyscnSL^L̉w k3 (203m),False
100001455506,pfl5UA9sn66,300~WMXJ Ԃ Ђ,43.05317749575702,141.35045569602403,kCDysZ6-7-2 CIrz1F,20474,{莛O,316,3,0108002,WMXJ,1,DysdR@^{莛Ow k3 (199m),True
100000901644,Hwn_A9MRIrA,i@,43.056194133797,141.35500542397,kCDysl2 ZgS4rB1,20513,L,151,1,0101011,{,1,DyscnSk^̉w k3 (199m),False
100001464452,YKUcOWG1bKg,f̃C^A {U܂,43.05585792113627,141.34972419017834,kCDysO6-1-232r 2F,20299,ُwZO,195,2,0102006,C^AiC^Aj,1,DysdR@^ُwZOw k2 (110m),False
100001361806,22-EDQQeNjs,Џ,43.054755602265,141.35563123567,kCDysl5ڃV[[r2F,20513,L,137,1,0110,ArAz[,1,DyscnSL^L̉w k2 (147m),False
100001447997,8e2KyYPkwcY,~naH kʒ DywOX,43.0639656,141.3515046,kCDysk3-1-18 25jar,20210,ۂ,158,1,0110,ArAz[,,DyscnSk^ۂw k3 (171m),True
100001432804,o6cLAPAXimc,ECN  {X,43.0582825,141.358479,kCDysO1-7,20456,oXZ^[O,315,3,0101042,,1,DyscnS^oXZ^[Ow k4 (290m),True
100001516235,Jv_NcG7_MRM,΂񂴂 JG,43.055613,141.350371,kCDysl5-10 4rF1F,20299,ُwZO,179,2,0101010,΂񂴂,1,DysdR@^ُwZOw k2 (150m),False
100000910768,JiP9fKCshYg,ɂ̂ 4vX,43.058830600002,141.35133474601,kCDys44-2 B2F,20416,S,53,0,0101,aH,,DysdR@^Sډw k1 (53m),False
EAK0000005377,qaGUhxcS-J-,âĂȂ ЂƂĂ,43.0589914,141.3547386,kCDys12-5 1Kr B1F,20073,,123,1,0101034,CN,1,,True
J001194241,Ha1TTnM0ewM,OB ɂv DyX,43.054181357489,141.35316356212,kCDys54 j[r4K,20288,,202,2,0101053,aHȋj,1,k̉w@k3@LL̉w@k4,False
J001245104,ZQW6fIAjCJs,傤,43.054046596823,141.35164980837,kCDys55ڂ̃Cvʂr6K,20288,,253,3,0101053,aHȋj,1,nSyk̉wz4ԏok4Cvʂr6K,False
ID0200193,ecGuS1QlQrk,ȂK ̐X,43.049909775381,141.34995407953,kCDys86-7-11 AZWFԊ,20319,R@X,163,2,0101031,́AAeq,5,DysdR@^{莛Ow k3 (181m),True
J001223336,p-_hwu2XXFw,HƎ 䂸܂B,43.05480744335,141.35442647508,kCDys53NOfr4F,20288,,172,2,0101053,aHȋj,,DyscnSkủwv3ԏok3BEh߂́wmOfrx4K,True
J001100045,703RdW2d3Ig,̉,43.05560971,141.35037121,kCDys4510Ԓn 4r2F,20299,ُwZO,179,2,0101029,DݏĂAĂ,,̉wkR,True
J001226771,wZQgM43EU1I,kCԂԃ|bP 3O[rX,43.05542099,141.35444310,kCDys431-1 3O[r5K,20288,,103,1,0101053,aHȋj,,nS̉wk2,False
100000910634,wskGvgqa4W-,i {X,43.056853814561,141.35398048613,kCDysO3sr 2F,20288,,158,1,0101,aH,4,DyscnSk^̉w k2 (144m),True
100000860277,BzfQeNyf_8w,P@Q,43.067640808835975,141.3495982705523,kCDysk܏4-7 ێDyX B1F,20210,ۂ,176,2,0101,aH,5,JRٖ{(M`)^Dyw k1 (60m),False
100000903394,404GOscTYag,Όa,43.057445516876,141.34329743041,kCDys9-10-1,20316,O,154,1,0101017,,3,DysdR@^Ow k2 (125m),False
100000068749,6lpRYUbZbts,C,43.0640428,141.35382349999998,kCDysk2-9 lXgzeDywO,20210,ۂ,214,2,0110,ArAz[,5,DyscnS^ʉw k5 (403m),False
100000816859,mTVCHrOgZeI,̏,43.057477338788274,141.3211172270676,kCDysk24-1-25 OEhx[X~R 1F,20540,~R,336,4,01,O,4,DyscnS^~Rw k4 (327m),False
100000059974,TfSniVfFpfY,SQ̎O,43.056690009523706,141.35428927838677,kCDysO3,20288,,172,2,0110,ArAz[,4,DyscnSk^̉w k2 (153m),False
100000059174,pStylOGqpQs,H Ȃ`,43.0668381628193,141.350027918811,kCDysk܏4AsA B1F,20210,ۂ,45,0,0101032,ꗿ,4,DyscnSk^ۂw k1 (60m),False
100000901040,HxjcC1bj5i2,炤,43.053944906518,141.35290481298,kCDys܏𐼑2r1,20288,,295,3,0101034,CN,3,DyscnSk^̉w k3 (207m),False
100000863825,aqyGEy3jeCw,݂̂,43.0544597,141.35082420000003,kCDys܏5 XXLm55r1F,20299,ُwZO,254,3,0110,ArAz[,3,DysdR@^ُwZOw k2 (151m),False
100000083498,-nUSnnbj5i2,,43.05477385742585,141.35331581845458,kCDys܏4 eǃrB1,20288,,126,1,0101,aH,3,DyscnSk^̉w k2 (112m),False
100001322538,96_QWtbaGGw,Eq,43.0564137,141.32154179999998,kCDysʐ241-30 5r 2F,20540,~R,249,3,0101042,,3,DyscnS^~Rw k4 (257m),False
100001384259,izKlThMEAgw,ĂƓSĂ RR,43.0544069449882,141.35485303527616,kCDys܏3-1-4 11O[r 1F,20513,L,235,2,0101029,DݏĂAĂ,3,DyscnSk^̉w k3 (172m),False
100000878816,eWpNZ02d3Ig,Ӎ؂V,43.05566216259328,141.3503891981003,kCDysl5-10-3,20299,ُwZO,198,2,0101034,CN,3,DysdR@^ُwZOw k2 (92m),False
100001389136,TiV3aNJRI-M,₫Ƃ ꉋ,43.05638995217564,141.35401639999998,kCDysO3ړsr3F,20288,,94,1,0101025,Ă,3,DyscnSk^̉w k1 (83m),True
ha2r600,aEzimxZ_Xkc,ː Dy,43.054640424355,141.35179892722,kCDys55 \VAjar8F,20288,,173,2,0119007,Co[,1,,True
100000700970,FhZE8OSmaAY,R{X,43.0549070496896,141.35576229510707,kCDys܏2-9,20513,L,137,1,0101017,,3,DyscnSL^L̉w k2 (120m),False
100001361742,cNgVJfk3WWw,׏ ͂܂Ȃ,43.06193773421234,141.31916192293113,kCDyskl24ق 2F,20412,QW,431,5,0110,ArAz[,3,DyscnS^QWډw k7 (500m),False
100001440316,Qs1NxmyK_Fs,kCF[,43.06553364269427,141.34689951257428,kCDyskl6-1-1 G^[ipZ,20210,ۂ,382,4,0110,ArAz[,2,DyscnSk^ۂw k5 (392m),True
100001314312,vutLHiHzFNY,a[ A,43.0372063,141.3250971,kCDys敚2-2-2,20611,[vEFC,1188,14,0104001,ؗ,2,DysdR@^PSw k17 (1305m),True
100000912022,xkbS8Blpui6,ӁX,43.052771055138,141.35262488070998,kCDysZ4LCԊ 2F,20474,{莛O,366,4,0101,aH,2,DyscnSk^̉w k5 (341m),False
100000904963,Y9EqwxcaASM,{Y 18ړX,43.057076615478,141.33065114517,kCDysʐ171-20CIY}V8B1F,20402,PW,60,0,0101025,Ă,2,DyscnS^PWډw k1 (51m),False
100000013510,eiFwWCqUgP-, ,43.05635632180945,141.33883838086444,kCDys12 pVtBbNOa 1F,20316,O,337,4,0101,aH,2,DysdR@^Ow k4 (261m),False
100001388237,p0RM-Rd524g,ł,43.0528719,141.35231870000007,kCDysZ5-1,20288,,364,4,0101029,DݏĂAĂ,3,DyscnSk^̉w k4 (291m),True
h859700,qvL1e1bNbNI, ψ,43.05450727,141.35646243,kCDys52-1 r4F,20513,L,110,1,0101011,{,,,False
100001412198,mEFsqgf9GSM,y߂ ЂȂ,43.06281815600793,141.3044693962952,kCDys{̐XO6-5-10,20412,QW,875,10,0101,aH,2,DyscnS^QWډw k14 (1077m),True
100000875476,YUvGRnnYjI2,ق肩,43.063665872248556,141.35187595634466,kCDysk3-1 ~r B1F,20210,ۂ,250,3,0101017,,1,DyscnSk^ۂw k5 (347m),False
100001352813,U6GIETRk6Aw,CNEnEkO,43.0648113,141.35232610000003,kCDyskO3-1-5 Dyk3rB1F,20210,ۂ,174,2,0101,aH,1,DyscnSk^ۂw k2 (127m),False
100001380389,ug6eLrd03sc, 7X,43.05155212687401,141.35412044193575,kCDys쎵4 2kCrAoeB1F,20373,,351,4,0101025,Ă,2,DyscnSk^w k4 (296m),False
100000798853,6KKZwo8ctOE,Ԃj{@,43.05838440139522,141.3514055440952,kCDys4 lډ1F,20416,S,151,1,0101025,Ă,2,DysdR@^Sډw k1 (69m),False
100000804306,Lr_hwHbj5i2,Tb|r[y,43.05447651372919,141.3530129327992,kCDys܏4 xmكr,20288,,209,2,0108002,WMXJ,2,DyscnSk^̉w k2 (147m),False
100000905453,I4gUa0R_-Ek,Ă,43.05386522084,141.35449231488,kCDysZ3 ނ݉1F,20288,,284,3,0110,ArAz[,2,DyscnSk^̉w k4 (253m),False
100001401253,KYEE2ogn9-I,ɂ艮 ʓX,43.05982502483277,141.3510496883432,kCDysʐ4VʂrB2,20073,,20,0,0101,aH,1,DyscnS^ʉw k1 (28m),False
J001234026,pwPeyoAD6LA,DݏĂ {X,43.054669673364,141.35421288993,kCDys53ڃj[̃r2F,20288,,165,2,0101029,DݏĂAĂ,,kCDysT𐼂Rڃj[̃r2e   nSk̉wA3ԏok3,False
100001226281,kf_cjv_8JVE,S₫Ƃ ,43.05815628,141.34073018,kCDysʐ11-4 ʓr B1F,20400,PP,36,0,0101025,Ă,2,DyscnS^PPډw k1 (67m),False
100001466192,tziPjQptA_g,JtF&Xg h}[N DyOz,43.0593514,141.35286970000004,kCDys3-8 DyOz {9F,20073,,43,0,0104001,ؗ,1,DyscnS^ʉw k1 (29m),False
100001344828,eKUfimRmzMU,B߂ ǂ񂱂 8ړX,43.05812978453381,141.34488510126707,kCDys8ڏZr1F,20413,W,174,2,0101022,Ԃ,1,DysdR@^Wډw k3 (180m),False
100001394271,ckPox0xDRs-,WMXJ  ̓X,43.05376592003698,141.35451851196262,kCDysZ3-6-16 j[y1F,20513,L,274,3,0109001,痿,1,DyscnSk^̉w k3 (207m),True
100001538989,UWai7hB1xTw,Ƃ񂩂,43.05412514989328,141.32880897055227,kCDys19-261-97 T[hAxj[WfX 1F,20402,PW,433,5,0101015,Ƃ񂩂,1,DyscnS^PWډw k4 (327m),False
