id,gid,name,latitude,longitude,address,satation_id,station_name,station_distance,station_time,genre_code,genre_name,review_count,access,paypay_flg
100000829568,PITcyoT9nco,H cJ񂾂,43.21938753403139,141.51398923527609,kCΎSʒ퐶1091c1K,20037,Ύ듖,401,5,0101,aH,11,JRD^Ύ듖ʉw k4 (315m),True
100000020667,CUbr-fNgcnA,ʂǂ ΂Ɛˏ,43.21706995233275,141.5317512994751,kCΎSʒ˒355,20037,Ύ듖,2012,25,0101018,ǂ,11,JRD^Ύ듖ʉw k26 (2073m),True
100000899807,eU5bbiQ3Y4Y,kCӂƂݖ t̓ e,43.18908634,141.44564918,kCΎSʒ1695 ӂƂݖ t̓2F,20039,Ύ둾,317,3,0104001,ؗ,9,JRD^Ύ둾w k5 (407m),False
100000814789,UkjgxUVvpqs,{ƂȂނ,43.190382958776574,141.44799157563602,kCΎSʒ1499-47,20039,Ύ둾,135,1,0106001,[,10,JRD^Ύ둾w k2 (136m),False
100000909048,61dlwypxZjY,_@X}C|[N,43.195626478836395,141.52385604601534,kCΎSʒΊ10,20037,Ύ듖,3120,39,0118,XC[c,10,JRD^Ύ듖ʉw k39 (3120m),True
100000771027,8rGbNbNR7cw,ΐ؂荂w,43.221525,141.513642,kCΎSʒђ294,20037,Ύ듖,153,1,0101017,,5,JRD^Ύ듖ʉw k1 (63m),True
100001259900,mRpElkm2cqc,ɓWMXJ,43.21999639,141.51568051,kCΎSʒ퐶52-53,20037,Ύ듖,322,4,0108002,WMXJ,13,JRD^Ύ듖ʉw k4 (295m),False
100001504758,Hto6yQWqvDc,X}CLb` ̉wƂׂ,43.177217867129684,141.4487497158982,kCΎSʒʑ774-11 ̉wƂׂ,20039,Ύ둾,1815,22,0101031,́AAeq,2,JRD^Ύ둾w k18 (1394m),True
100001345729,2nskuqSEwx6,WrGH[ ,43.3034664,141.5503377,kCΎSʒR77̓,,,,,0118,XC[c,1,JRD^{w k67 (5319m),False
100001313592,NxQXI__sXFI,ڔ ʓX,43.22182413297963,141.5175687055746,kCΎSʒ55 tbOVeB 1F,20037,Ύ듖,280,3,0110,ArAz[,1,JRD^Ύ듖ʉw k5 (331m),False
100000316637,Y6PqwUm2cqc,,43.21963306095358,141.51594380435122,kCΎSʒ퐶52,20037,Ύ듖,353,4,0101,aH,6,JRD^Ύ듖ʉw k4 (318m),True
100000907556,29tqhVUJvZE,܁[,43.22176937996352,141.5380394877269,kCΎSʒ332-3,20312,kCÑw,1583,19,0101015,Ƃ񂩂,7,JRD^kCÑww k21 (1667m),True
100001184289,N8Hk6-m2cqc,ʂ₫Ƃ,43.21999700000001,141.51568069999996,kCΎSʒ퐶52,20037,Ύ듖,322,4,0101025,Ă,1,JRD^Ύ듖ʉw k4 (314m),False
t000068899,c4ZsbhRONhY,@Z,43.2207251,141.536514,kCΎSʒ˒101,20312,kCÑw,1761,22,0101017,,2,JRD^kCÑww k24 (1872m),True
5118654,u-k4Zf6YYuY,яꉮ,43.19184999,141.44801271,kCΎSʒ 1495-10,20039,Ύ둾,300,3,0101,aH,6,,True
100000316632,snJ_HNLc6N6,齋,43.1833787,141.44688274,kCΎSʒʑ1078-8,20039,Ύ둾,1100,13,0101,aH,1,JRD^Ύ둾w k10 (753m),False
6423641,SEz7oCa5rfg,Ă ٓ y؂  ܂ߋg,43.19107785,141.44786555,kCΎSʒ 1497-8,20039,Ύ둾,194,2,0114001,AAٓ,,,False
100000316665,C28MLzT3gHg,,43.21907154,141.51687488,kCΎSʒ퐶51,20037,Ύ듖,470,5,0101025,Ă,,JRD^Ύ듖ʉw k6 (480m),False
100000912141,P9JLl3mDyyo, 2X,43.218905354946,141.51610486053005,kCΎSʒ퐶51-57 J&Cr,20037,Ύ듖,425,5,0106001,[,,JRD^Ύ듖ʉw k5 (399m),False
100000900660,fHDvPOprQfc,ӂƂݎ,43.192968527037,141.44762972773,kCΎSʒ,20039,Ύ둾,409,5,0101,aH,,JRD^Ύ둾w k5 (386m),False
100000903377,3NbMqqMXKkU,₫Ƃ k X,43.1897136001616,141.44663462944777,kCΎSʒ1695-95,20039,Ύ둾,224,2,0101025,Ă,,JRD^Ύ둾w k6 (428m),False
100000903735,9ANsZKwIF_Y,@܂,43.219817634268,141.51630265181,kCΎSʒ퐶52,20037,Ύ듖,350,4,0101025,Ă,,JRD^Ύ듖ʉw k5 (377m),False
20130326346,2Qnmab1RBkU,M,43.221354444444,141.515447222222,kCΎSʒQXS,20037,Ύ듖,203,2,0101025,Ă,6,,False
