id,gid,name,latitude,longitude,address,satation_id,station_name,station_distance,station_time,genre_code,genre_name,review_count,access,paypay_flg
100000697531,BfIsDzCagCE,Jl_C쏤X,42.5763452940725,141.926556306746,kCESނ풬K2-42,20564,,438,5,0101,aH,11,JR{^w k6 (414m),True
100000743668,qm1YJoPKzLk,Li,42.5791529289355,141.916920116394,kCESނ풬1-8,20564,,695,8,0101,aH,9,JR{^w k10 (774m),False
100001379736,b-S1xO40qh6, ,42.5753201,141.9184427,kCESނ풬3-75-2,20564,,744,9,0101017,,6,JR{^w k9 (698m),True
100001168100,IHEI21y1rXg,[,42.57866,141.92125,kCESނ풬L1-70,20564,,342,4,0111,HAH,8,JR{^w k4 (295m),False
100000905378,b676P05p4fY,H ۂ,42.57397030542294,141.92547064980954,kCESނ풬K3-3-1 ̉w ނlG̊ٓ,20564,,692,8,0101034,CN,1,JR{^w k8 (580m),False
100000905284,_-PmGpY0HK6,ۂۂ񂽎s,42.57475620,141.92805858,kCESނ풬3-1,20564,,665,8,0101031,́AAeq,13,JR{^w k11 (869m),False
100000816208,tT1qIZkAe0c,݂,42.575362385428,141.91837782901996,kCESނ풬3-75-2,20564,,749,9,0101017,,3,JR{^w k10 (730m),False
100000319034,CrhiKTedpdw,i,42.57805848,141.92586418,kCESނ풬L2-80,20564,,284,3,0101,aH,1,JR{^w k3 (240m),False
100000906669,GOOAnO8Lz8w, rbNXMSty,42.60990912,141.99415890,kCESނ풬t308-1 rbNXMSty,,,,,0101017,,,JR{^w k108 (8574m),False
100000908794,pZXyOZyk3Uo,HƂ,42.575463653831,141.92819352602,kCESނ풬3,20564,,623,7,0107001,J[,,JR{^w k8 (615m),False
100000319039,plMgVF5aRVo,Vi,42.57756411,141.92601697,kCESނ풬L2-128,20564,,336,4,0101,aH,,JR{^w k4 (282m),False
100000319044,gBol0_zhHsI,,42.57455601,141.92124258,kCESނ풬K4-79-3,20564,,570,7,0101025,Ă,,JR{^w k8 (570m),False
100000901279,KbXvHiRUtH-,,42.577844371002,141.92550894993,kCESނ풬L2-68,20564,,335,4,0101025,Ă,,JR{^w k3 (218m),False
100000319033,-rj1uLE6kh-,̎,42.76252211,142.13770896,kCESނ풬46,,,,,0101,aH,,,False
100000899986,eeyi6uho3xo,悵,42.575623537702,141.929363318,kCESނ풬1-35,20564,,657,8,0101025,Ă,,JR{^w k9 (711m),False
100000319035,RY56apyl8cQ,齂̑,42.76231094,142.1355981,kCESނ풬24-58,,,,,0101,aH,,,False
20130393600,Z6gMq5ybD1A,؂,42.576325555556,141.928083611111,kCESނ풬ԉRڂST,20564,,522,6,0108001,ē,1,,False
20130393713,Ja2LlnddDtE,,42.575156111111,141.928958611111,kCESނ풬PڂSU,20564,,728,9,0101012,i,,,False
20130870461,aA9ndpdzgCo,LЂƂX,42.579938888889,141.926641666667,kCESނ풬ZQڂXS,20564,,534,6,0101025,Ă,,,False
20130393707,7TnaLXsdBXI,ނ,42.575164444444,141.929450000000,kCESނ풬PڂRS,20564,,720,9,0101011,{,,,False
