id,gid,name,latitude,longitude,address,satation_id,station_name,station_distance,station_time,genre_code,genre_name,review_count,access,paypay_flg
100000698428,VME1qORduF-,܂ǉ,43.0119545,144.39336990000004,kCHs2-2-2,20461,H,2778,34,0101015,Ƃ񂩂,4,JR{(V`H)^Hw k34 (2688m),False
100000699272,a076ps_z8MA,,42.9847572,144.38824669999997,kCHsh5-2,20177,H,965,12,0110,ArAz[,4,JR{(V`H)^Hw k12 (950m),False
100000307748,tWyVfM7Isrw,i,43.01347526,144.34722982,kCHs5-1-15,20279,Vxm(kC),1724,21,0101,aH,3,JR{(V`H)^Vxmw k18 (1375m),False
100000060602,ReRJv_txT5Q,VyX,43.014342,144.392723,kCHs5-9-4,20461,H,3150,39,0101,aH,3,JR{(V`H)^Hw k37 (2894m),False
100000308003,qbyPrd2pgqg,]򂤂ǂᑐ,42.96346717,144.42836498,kCHsP4-8-1,20565,(kC),4425,55,0101018,ǂ,2,JR{(ԍ)(H`)^ikCjw k39 (3102m),False
100000307750,ixaVr_qlAoE,`,42.98537341,144.38768745,kCHsh6-2,20177,H,814,10,0101033,y,2,JR{(V`H)^Hw k11 (858m),True
100000308068,YJbtVrKVjfY,Ƃ茠q,42.98355699,144.38851522,kCHsh3-2 Tj[Z^[1F,20177,H,1043,13,0110,ArAz[,2,JR{(V`H)^Hw k14 (1065m),False
100000841075,iPDvGTuPF-k,̂܁@H{X,43.004045671960405,144.37306921011577,kCHsV쒬13-8,20177,H,2149,26,0101047,,3,JR{(V`H)^Hw k23 (1792m),True
100000308069,E_YAELKVjfY,,42.98355699,144.38851522,kCHsh3-2,20177,H,1043,13,0101034,CN,3,JR{(V`H)^Hw k14 (1065m),False
100000307992,d41b0fHQbKQ,ƎO\ԒʓX,42.99891642,144.3831291,kCHsVh12-11,20177,H,1343,16,0101017,,3,JR{(V`H)^Hw k12 (934m),False
100000307852,4Kb5LgVWPBw,ē_CjOߐHyѓX,43.00932726830061,144.27265368545102,kCHsy51 JRyщw,20097,y,75,0,0108001,ē,1,JR{(V`H)^yщw k2 (139m),False
100000308052,tX_eO3nV-4k,ySuper,42.98310148,144.38799031,kCHsh2-13,20177,H,1060,13,0110,ArAz[,1,JR{(V`H)^Hw k14 (1065m),False
100000308103,GyBLFFA3vWU,H,42.98176268,144.38338815,kCHsђ24 MOO2K `̉,20177,H,1006,12,0101031,́AAeq,2,JR{(V`H)^Hw k13 (992m),False
100000307894,M1o8zJNCrUE,݂Ȃ,42.979498,144.41738186,kCHst7-6-2,20565,(kC),2044,25,0101025,Ă,2,JR{(ԍ)(H`)^ikCjw k21 (1673m),False
100000307964,KhinGJIuDzo,,42.98423468,144.3885013,kCHsh4-2,20177,H,987,12,0110,ArAz[,2,JR{(V`H)^Hw k13 (1010m),False
100000308314,IeWrBHKawRM, L˃R[vX,42.99620944,144.41022353,kCHsL3-2-28,20461,H,429,5,0101029,DݏĂAĂ,1,JR{(ԍ)(H`)^Hw k2 (164m),True
100000307745,eAuOaeY0thA,Ti,42.98267652,144.38700156,kCHsL2-28,20177,H,1019,12,0101,aH,1,JR{(V`H)^Hw k13 (1040m),True
100001263802,gPD2VO7z5OA,L,42.98303651777888,144.3872561877315,kCHsL2-26,20177,H,1015,12,0101021,Ă,1,JR{(V`H)^Hw k13 (1022m),False
100000308141,7SayspWqWaU,VՂE{ ,42.98355118789282,144.3876222530671,kCHsh31 hʂ,20177,H,994,12,0101014,VՂAg,1,JR{(V`H)^Hw k12 (951m),False
6194786,g_gIa5jiz4E,Rԉ򃊃t Xg͂Ȃ̂,43.078921724279,144.23050638488,kCHs R14-131,,,,,0101033,y,,,False
100000723721,V22FVq32uJE,,42.983961,144.387431,kCHsh4-1,20177,H,951,11,0101050,F[Ă,2,JR{(V`H)^Hw k12 (952m),False
100000060593,fpgHEbANUXA,,42.9832462,144.3885217,kCHsh2-6-7,20177,H,1070,13,0101,aH,1,JR{(V`H)^Hw k14 (1091m),False
100000033585,gMMVECLazq-,an ,42.98364560144954,144.38790444106985,kCHsh3-10,20177,H,1004,12,0110,ArAz[,1,JR{(V`H)^Hw k13 (1011m),False
220239428983554050,xaTAmTPGrp-,݂̂,43.012199,144.294128,kCHsy1-10-29,20267,Vy,372,4,0101029,DݏĂAĂ,2,,True
100000308408,_pGIfJjWdEg,݂Ȃ,42.9758072,144.42462299,kCHs1-2-15,20565,(kC),2456,30,0101025,Ă,1,JR{(ԍ)(H`)^ikCjw k22 (1742m),False
100000308049,stX5ABETMxk,߂̈Ώ,43.01458348,144.34767972,kCHs5-3-8,20279,Vxm(kC),1841,23,0101017,,1,JR{(V`H)^Vxmw k19 (1481m),False
100000308010,A2Vkdan52EM,ΔTR,43.0488586,144.30592720000004,kCHsߖ277-3,,,,,0101017,,1,JR{(V`H)^Vyщw k57 (4526m),False
100000904319,F0GWDpWqWaU,Ɏ Ɓ[肠,42.98349921625436,144.38797001578405,kCHsh3-12 Z{؃Z^[ 2F,20177,H,1020,12,0102006,C^AiC^Aj,1,JR{(V`H)^Hw k13 (980m),False
100000308024,c4Zsbjvpax6,ZYX,43.0128788,144.30448160000003,kCHsY5-4-38,20267,Vy,1069,13,0101017,,1,JR{(V`H)^Vyщw k14 (1062m),False
100000906635,_yDsVoS8yEQ,ǂ,42.985029163961,144.38875804464,kCHs㒬51 ЂܔԊX1K,20177,H,945,11,0101018,ǂ,1,JR{(V`H)^Hw k13 (972m),False
100000307766,OoCJsmy6iaU,齐,42.98424854,144.38717924,kCHsh49 AJlr1F,20177,H,887,11,0101,aH,1,JR{(V`H)^Hw k12 (910m),False
100000307930,aIQRW30f_fI,F΂˂,42.98466783,144.37963845,kCHsK7-2,20177,H,851,10,0110,ArAz[,1,JR{(V`H)^Hw k9 (706m),False
100000905414,3rgihXKawRM,Ώ@ˏ@,42.996223937535,144.41018647825,kCHsL3-2-28 R[vۂL˓X,20461,H,430,5,0101017,,1,JR{(ԍ)(H`)^Hw k3 (168m),False
100000019264,k8CmUfx4k2E,ؑY ΓX,43.433811,144.0903641,kCHsΉ4-7-5,,,,,0107002,X[vJ[,,,False
100000699124,02H_IpLg20-,,43.432685398071,144.09763677601427,kCHsΉ2-3-1,,,,,0101,aH,,,False
100000912284,onZ-_MRBFFk,ĂȂƒ뗿 ,42.99324082939,144.41149219525,kCHsL1-10-19,20461,H,939,11,0118001,mَqAP[L,,JR{(ԍ)(H`)^Hw k3 (219m),False
100000309101,t7QTkevAQB-,{Embg,43.02116231,144.32322657,kCHsߖ쓌3-2-1,20267,Vy,3133,39,0101,aH,,JR{(V`H)^Vyщw k42 (3336m),False
100000908889,6O3jSPm8vug,RNX,42.989294376814,144.37993586869,kCHs13-25-2 as,20177,H,247,3,0101034,CN,,JR{(V`H)^Hw k4 (269m),True
100000307788,BZcR9tbDsrs,܂,43.00049394,144.37754358,kCHs|11-17,20177,H,1532,19,0101,aH,,JR{(V`H)^Hw k15 (1205m),False
100000308056,aEGU-X2ytr-,,43.02136237,144.4070591,kCHs4-1-25,20461,H,4009,50,0101022,Ԃ,,JR{(ԍ)(H`)^Hw k37 (2941m),False
100000814745,43Orw52pNhI,ꖡ ӂ炢,42.987214809569835,144.37727361917496,kCHsQԒ12-1-16xm}VQ1F,20177,H,651,8,0101,aH,,JR{(V`H)^Hw k8 (643m),False
100000308036,II_jnE7NafE,ƎX,43.0073295,144.37021979999997,kCHs8-21,20279,Vxm(kC),2308,28,0101017,,,JR{(V`H)^Vxmw k29 (2252m),False
100000307782,WMXqRUXGPZ6,̏oi,42.98387409492627,144.38935806864777,kCHs㒬3-3-3,20177,H,1100,13,0101,aH,,JR{(V`H)^Hw k14 (1107m),False
100000902341,um5tTtDvEBI,Ώg,42.980567805081,144.41394061356,kCHs΃P5-19-14,20565,(kC),2058,25,0101018,ǂ,,JR{(ԍ)(H`)^Hw k21 (1651m),False
100001519118,6cJUQJrMzFY,F΂ ,42.984146991046366,144.38864741689076,kCHsh4-2,20177,H,1023,12,0101050,F[Ă,,JR{(V`H)^Hw k13 (980m),False
100001538251,J8ddbpWqWaU, ܂,42.9835536,144.3876032,kCHsh3-1,20177,H,995,12,0101034,CN,,JR{(V`H)^Hw k12 (950m),False
100000309059,KPBDuTZYgDE,CK,42.9835573,144.38851610000006,kCHsh3-2-12,20177,H,1043,13,0101050,F[Ă,,JR{(V`H)^Hw k14 (1065m),False
100000901260,N5UT_e_VaN-,@~,42.98365154284,144.38861129413,kCHsh3-2,20177,H,1045,13,0101025,Ă,,JR{(V`H)^Hw k14 (1065m),False
100000307931,rQpdcsbKIzE,F΂ӂ,42.97685241,144.39174578,kCHsxm3-1-10,20177,H,2080,26,0110,ArAz[,,JR{(V`H)^Hw k24 (1870m),False
100000308045,WuHsjE0rz5I,ΑYYX,43.01851556,144.32659576,kCHsYk1-2-2,20279,Vxm(kC),3092,38,0101017,,,JR{(V`H)^Vxmw k41 (3274m),False
100000905887,iJFqqRIoQx2,PA,43.434811570126,144.09069731788,kCHsΉ46-10 Vv̗߉,,,,,0101011,{,,,False
66483087282151425,uyL5OdHu93E,LqɊ,43.007042,144.389877,kCHs 2-5-15,20461,H,2509,31,0104008,Lq,1,,True
100000308882,EuW1ppWYNBM,FF,43.00711881,144.39581907,kCHs1-36-3,20461,H,2185,27,0101025,Ă,,JR{(ԍ)(H`)^Hw k28 (2169m),False
100000307952,nNsqaHE9WCc,R,42.9908589,144.38419596,kCHsᏼ2-10,20177,H,346,4,0101025,Ă,,JR{(V`H)^Hw k4 (248m),False
100000039419,rK_-hxgvG52,Ȃɂ,42.9635717,144.4053203,kCHst4-3023,20177,H,4179,52,0101029,DݏĂAĂ,,JR{(ԍ)(H`)^Hw k45 (3574m),False
100000307970,LNgWkqAMxL-,Ă_CjO@,42.9699272,144.41514389999998,kCHst6-8-25,20565,(kC),3796,47,0101025,Ă,,JR{(ԍ)(H`)^ikCjw k34 (2702m),False
100000307941,MSIcaDMnmGU,F΂Ђ傤,43.00693266,144.39410538,kCHs2-15-16,20461,H,2315,28,0101050,F[Ă,,JR{(V`H)^Hw k29 (2259m),False
100000912238,5efAIHHgrpY,,42.984218862833,144.3892612821,kCHs㒬Ԃ傤񉡒4-1,20177,H,1085,13,0110,ArAz[,,JR{(V`H)^Hw k14 (1073m),False
100000307948,tk5RMIaeyy6,F΂͓,43.0141769,144.40015229999997,kCHs12512,20461,H,3052,38,0101050,F[Ă,,JR{(ԍ)(H`)^Hw k31 (2443m),False
100000908662,x9gtbm2Aiuc,UM,42.989533424883,144.37968550739,kCHsasॐʓE13-25,20177,H,233,2,0101031,́AAeq,,JR{(V`H)^Hw k4 (280m),False
100000902629,W7eZTQsmIig,@R`,43.014489171493,144.39874476237,kCHs2-21-14,20461,H,3048,38,0101,aH,,JR{(ԍ)(H`)^Hw k32 (2554m),False
100001399630,ynmoBUirhN-,m[UXg |[J[,42.98339242078245,144.38828467175824,kCHsh3-2,20177,H,1035,12,0102,mH,,JR{(V`H)^Hw k13 (1006m),False
100001260963,rMwKWV5RJr6,̂,43.0130826,144.2629081,kCHsyѐ2-3-11,20097,y,997,12,0101029,DݏĂAĂ,,JR{(V`H)^yщw k17 (1296m),False
ID0102023,U3AEHCQ9hgw, HX,42.967451603863,144.42345052047,kCHs1921,20565,(kC),3706,46,0101031,́AAeq,,JR{(ԍ)(H`)^ikCjw k34 (2719m),True
100000307997,0pkqUUVtfKs,,42.98539002,144.3830269,kCHs7-2,20177,H,550,6,0101017,,,JR{(V`H)^Hw k8 (588m),False
100000307960,_9EDCQma8EI,YΏċ,42.98353475,144.38762367,kCHsh3-1,20177,H,996,12,0101025,Ă,,JR{(V`H)^Hw k13 (1002m),False
100000308012,YXRq8Cxy5kM,łΏ󔪈,42.9596344,144.43045660000007,kCHsP5-21-52,20565,(kC),4802,60,0101017,,,JR{(ԍ)(H`)^ikCjw k45 (3547m),False
100000307860,bd_crcfSgzg,y,42.98620103,144.38234083,kCHs9-1,20177,H,521,6,0101050,F[Ă,,JR{(V`H)^Hw k7 (488m),False
100000307942,iJpfLrmUVwA,F΂,42.96978213,144.40948876,kCHst3-9-21 ]mЂԂȃZ^[1F,20565,(kC),3938,49,0101050,F[Ă,,JR{(ԍ)(H`)^Hw k36 (2829m),False
100000911712,asLbWyNvlVg,͂ǂ HX,43.015472028353,144.32118637128,kCHsY2-8-5,20267,Vy,2462,30,0101031,́AAeq,,JR{(V`H)^Vyщw k37 (2923m),False
100000307765,wfh2nDZveyw,齂̋,43.00735764,144.39460531,kCHs2-16-18,20461,H,2289,28,0101,aH,,JR{(ԍ)(H`)^Hw k29 (2293m),False
100000904266,pIHHNve2rTk,킵Ƒ,42.982293384259,144.38648479997,kCHsL2-8-3,20177,H,1000,12,0101,aH,,JR{(V`H)^Hw k13 (1047m),False
100000905218,jNs3gZHymTI,HUMX 傿{,42.990828527949,144.38337389261,kCHsᏼԒn,20177,H,255,3,0101031,́AAeq,,JR{(V`H)^Hw k2 (157m),False
100000307968,bx3ddYcKU_I,悵,42.98445965,144.38888735,kCHs㒬4-1,20177,H,1026,12,0110,ArAz[,,JR{(V`H)^Hw k13 (1024m),False
100001523615,ibyidZb6BPc, ,42.983001601477966,144.38709389203072,kCHsL2-25,20177,H,1002,12,0110,ArAz[,,JR{(V`H)^Hw k12 (965m),True
100000307991,0pkqUVS3Ppw,ƑyѕX,43.01024998,144.27748454,kCHsy4-2-20,20097,y,463,5,0101017,,,JR{(V`H)^yщw k6 (421m),False
100001430948,V4ZNlYjNXSQ,ǁ[ǁ[ cł,42.9835184,144.38761899999997,kCHsh3-1,20177,H,999,12,0110,ArAz[,,JR{(V`H)^Hw k12 (954m),True
100000307918,2yWh_pFVu8s,F΂݂,42.99491949,144.37794375,kCHs25-15,20177,H,988,12,0101050,F[Ă,,JR{(V`H)^Hw k9 (658m),False
100000308144,9uzjUVbFGz2,萭E,43.00640982,144.36795277,kCHsV9-2-18,20279,Vxm(kC),2094,26,0111,HAH,,JR{(V`H)^Vxmw k25 (1982m),False
100000899856,zoqAjtfcgCQ,݂,43.011206312641,144.38250211129,kCHs1-11-6,20177,H,2896,36,0101018,ǂ,,JR{(V`H)^Hw k29 (2290m),False
100000308030,0pkqUdYDji6,ƒ8ڕX,43.0157357,144.3323702,kCHs8-8-6,20279,Vxm(kC),2545,31,0101017,,,JR{(V`H)^Vxmw k33 (2574m),False
100000912098,LNgWkrX_Nsk,,43.000397511186,144.37919894182,kCHsh8-3,20177,H,1400,17,0101025,Ă,,JR{(V`H)^Hw k15 (1132m),False
100001444242,-Z3tfoZzLhw,H kX,43.015883322147346,144.34881558497898,kCHsk5-1-1,20279,Vxm(kC),1920,24,01,O,,JR{(V`H)^Vxmw k20 (1567m),False
100000308334,NLHaUf3Aw62,،{,42.98050234,144.40111122,kCHsR22 vWfgR1K,20177,H,2190,27,0101025,Ă,,JR{(ԍ)(H`)^Hw k25 (1986m),False
100000906118,NLHaUYBmpSE,،{ HX,43.014994884307,144.34803906883,kCHs5-4-7,20279,Vxm(kC),1843,23,0101031,́AAeq,,JR{(V`H)^Vxmw k19 (1517m),False
100000900979,c4ZsbZYiHls,ΏZ,42.962294533475,144.44732356454,kCHs3-4-7,20565,(kC),4468,55,0101018,ǂ,,JR{(ԍ)(H`)^ikCjw k50 (3958m),False
100000307751,geRuEgma8EI,ݏ݂,42.98353475,144.38762367,kCHsh3-1,20177,H,996,12,0101,aH,,JR{(V`H)^Hw k13 (1002m),False
100000307740,o7rckMHbxRw,傤,42.99947193,144.38366235,kCHsԉ1-1,20177,H,1410,17,0101,aH,,JR{(V`H)^Hw k13 (1004m),False
100000307764,wy2zbDvm73g,i̐,43.012896059715445,144.3668159532541,kCHsa1-4-12,20279,Vxm(kC),2399,29,0101,aH,,JR{(V`H)^Vxmw k28 (2179m),False
100000307763,52J1FZWqWaU,齏O,42.98353475,144.38762367,kCHsh3-1,20177,H,996,12,0101,aH,,JR{(V`H)^Hw k13 (1002m),False
100000900584,iLWTbVA3vWU,H@,42.981800870101,144.38341559681,kCHsђ2-4 HtBbV[}Y[tMOO 1F,20177,H,1000,12,0101031,́AAeq,,JR{(V`H)^Hw k13 (988m),True
100000901590,R6XnjTLlQPs,H_齖{,42.981776768726,144.38341502887,kCHsђ2-4 HtBbV[}Y[tMOO1K,20177,H,1002,12,0101,aH,,JR{(V`H)^Hw k13 (990m),False
100000308009,zsIm95yvHpI,Ώ|T,43.0043606,144.39140670000006,kCHsz23-25,20177,H,2308,28,0101017,,,JR{(V`H)^Hw k24 (1853m),False
100000307959,UKlDqmpyGOs,nēX,43.0211874,144.40731463,kCHs4-1-27,20461,H,3950,49,0101026,Ă,,JR{(ԍ)(H`)^Hw k37 (2918m),False
100000308016,SC-FImgXgMY,c,43.0111536,144.29694930000005,kCHsy1-8-19,20267,Vy,412,5,0101017,,,JR{(V`H)^Vyщw k3 (246m),False
100000899907,9a0M6UDO0ME,Ώ,42.96565313,144.43152564,kCHsP6-1-7,20565,(kC),4220,52,0101018,ǂ,,JR{(ԍ)(H`)^ikCjw k37 (2923m),False
100000911991,pFBA4m2yhSk,SĂ ǂ,42.99014544181,144.37448126846,kCHs2-5-26,20177,H,692,8,0101029,DݏĂAĂ,,JR{(V`H)^Hw k11 (834m),False
100000307784,RhXbUY0Q-Wc,t,43.0133283,144.35723982,kCHs3-12-21,20279,Vxm(kC),1614,20,0101,aH,,JR{(V`H)^Vxmw k19 (1487m),False
100000308929,ZlEfmPahjy-,F΂̂,42.97036028,144.41590752,kCHst5-11-31,20565,(kC),3727,46,0101025,Ă,,JR{(ԍ)(H`)^ikCjw k33 (2620m),False
100000308072,X0JtewY3ZOw,Ƃ,42.98332921,144.38675156,kCHsL3-5,20177,H,942,11,0101015,Ƃ񂩂,,JR{(V`H)^Hw k12 (964m),True
