id,gid,name,latitude,longitude,address,satation_id,station_name,station_distance,station_time,genre_code,genre_name,review_count,access,paypay_flg
100000697513,BsZCHJA3qqw,VՂƂĂĂ,42.98618282001276,141.44541111045078,kCDysc^hl4-13-2,,,,,0101014,VՂAg,23,DyscnS^Jnw k59 (4718m),False
100000779896,eKSMiLpEYU6,̋ ق̂,43.001143,141.43577800000003,kCDysc搴c3-2-26,20501,Z,3446,43,0112001,n엿,22,DyscnS^싽PWډw k41 (3229m),True
100000853242,dFfwBD0JpaA,] gg cX,42.9838741,141.46256029999995,kCDysc既ˈ4,20134,y,4817,60,0101013,]i,19,JRΐ^yw k57 (4518m),False
100000734007,z15xgazc45s,]iȂ₩kX,43.01299172639321,141.44965383505723,kCDysck܏5-20,20079,Jn,2014,25,0101013,]i,19,DyscnS^Jnw k22 (1707m),True
100000450407,XjC-uo4GFv2, ]˔,42.987391393965,141.44469380378996,kCDyscuO1-7-20,,,,,0101042,,19,DyscnS^Jnw k58 (4601m),True
100000017872,7mrWX79TOow,ł  {X,43.01227808788898,141.4683057137803,kCDysc敽1-12-5,20134,y,2186,27,0101017,,18,JRΐ^yw k28 (2172m),True
100001216140,CeTQA6Z0TOw,I򂢏 IHD,42.99879151375968,141.44164791107175,kCDysc搴c4-5-4,20079,Jn,3744,46,0101036,ɗ,14,DyscnS^Jnw k44 (3478m),False
100000064138,W6cdTzNlBuw,ˏ ԏ,42.9876677,141.44795569999997,kCDyscu2-9-1 TCvu 1F,,,,,0106001,[,13,DyscnS^Jnw k57 (4512m),False
100000095683,24vhrbchU3M,h,42.9858065,141.4387011,kCDysc^hl2-19-3,,,,,0101017,,11,DyscnS^Jnw k62 (4945m),True
100000302180,ybcb0xxp_n-,B̖m,42.99756042,141.43933053,kCDysc^h1-4-25,20079,Jn,3986,49,0101003,ۂ,9,DyscnS^싽PWډw k46 (3655m),False
100001268978,d79xr8Y-lro,ЂܓؐHEX Boo deli,42.98695162195029,141.44539227485654,kCDyscuO1-7-12,,,,,0101015,Ƃ񂩂,10,DyscnS^Jnw k58 (4634m),True
100000053447,ZCVyEal0JzM,Ώ a,43.02071512020214,141.43362248852895,kCDysck܏2-2-16攪Ml 1F,20386,싽PW,1113,13,0101017,,10,DyscnS^싽PWډw k14 (1070m),True
100000734667,MzjuD27kqWk,cɂ΁E΂,42.98472,141.43607,kCDysc^h܏1-3-1,,,,,0101017,,10,DyscnS^싽PWډw k64 (5052m),False
100000705856,8pXuEVgGzog,BABY FACE PLANET&#39;S  DyX,43.0122512,141.450654,kCDysc敽1-1-10,20079,Jn,1997,24,0115001,JtF,10,DyscnS^Jnw k23 (1768m),False
100000751601,OQpaKYvzwyw,j敨 ^hX,42.9866316,141.44486440000003,kCDysc^hl3-2-5,,,,,0106001,[,10,DyscnS^Jnw k59 (4680m),False
100000906819,EIzcqMnAxG-,Ȃ₩ h20ړX,43.02411698960647,141.43826012026398,kCDysck쎵2-9-8,20386,싽PW,919,11,0101,aH,10,DyscnS^싽PWډw k10 (739m),True
100000711086,X5amGLLkh9-,܂M,42.9827579,141.4715569,kCDysc既ˎO6-5-15,20134,y,4332,54,0101017,,10,JRΐ^yw k52 (4101m),False
100001348097,9U7d3UUMJHw,ԗt DyX,42.99489995,141.45510973,kCDysc敽5-2-70,20079,Jn,4271,53,0101022,Ԃ,4,DyscnS^Jnw k45 (3596m),True
100000064407,niklCqSoACo,Ώ {΂,43.01707936092743,141.43581480642183,kCDysck܏3-2-21,20386,싽PW,1568,19,0101017,,8,DyscnS^싽PWډw k19 (1461m),False
100000814902,Urr0S6CVF7A,JtF [m,43.01472343888715,141.4511528944597,kCDysck܏5-12-22,20079,Jn,1774,22,0115001,JtF,10,DyscnS^Jnw k19 (1488m),True
100000825676,ulHCxKzc45s,\ؘ ҂ DyX,43.012586746896,141.44961297511998,kCDysck܏5-20,20079,Jn,1984,24,0101,aH,15,DyscnS^Jnw k22 (1752m),True
100000923605,xFR22XhpDEk,]iׂ cX,43.003634987976,141.43361091613997,kCDysc搴c2-15-2,20501,Z,3041,38,0101013,]i,9,DyscnS^싽PWډw k37 (2957m),False
100001433051,OfvEXif_3No,C,43.02561419307329,141.43452955614293,kCDysck쎵1-7-10,20386,싽PW,570,7,0110,ArAz[,1,DyscnS^싽PWډw k7 (503m),False
100000407016,jFat5GC9qcs,ۋTˎDyuX,42.978494,141.45742199999995,kCDyscul6-1-15,,,,,0101018,ǂ,11,JRΐ^yw k67 (5339m),False
100000019233,cf2NOOuUfmU,ۂS Dy{X,43.00775219488265,141.44664957738496,kCDysckO5-18-11 tFjbNXkr 1F,20079,Jn,2558,31,0106001,[,12,DyscnS^Jnw k30 (2355m),True
100001264946,Nn-fPmrIHUE,^V t ruʓX,42.98682655426833,141.4444450781373,kCDysc^hl3-21,,,,,0101017,,10,DyscnS^Jnw k59 (4668m),True
100001154426,BJMuPQSSNvg,₫Ƃ苏 H`,42.99667170,141.44207754,kCDysc^h2-1-6A[oVeBq,20079,Jn,3879,48,0101025,Ă,1,DyscnS^Jnw k46 (3620m),False
100000088088,EtGAyp5_Ros,_̎lG,42.945325945442946,141.44543423313394,kCDyscL216,,,,,0101017,,10,JRΐ^yw k115 (9136m),False
100001184557,vhWJ0RO7306,{ kX,43.00825372134426,141.43372296983648,kCDysck3-2,20386,싽PW,2560,32,0110,ArAz[,8,DyscnS^싽PWډw k31 (2445m),True
100000902990,jH7rKAGe6EQ,΂̘a,42.982248723937,141.43218700548,kCDysc搴c3-5-18,,,,,0101017,,6,DyscnS^싽PWډw k67 (5336m),False
100000908892,uejR8lWGXpo,̈S ^hX,42.987460993279,141.44093688911,kCDysc^hXgA^hX1F42,,,,,0101,aH,6,DyscnS^Jnw k59 (4695m),False
100000788779,Cszjg60NvIY,R,42.995484,141.441422,kCDysc^h1-5-35,20079,Jn,3990,49,0108001,ē,13,DyscnS^Jnw k48 (3831m),True
100000302234,IzXQwalBqc-,Ώ_H,42.97702991,141.46170717,kCDyscuO7-1-20,,,,,0101017,,9,JRΐ^yw k65 (5193m),False
100001178860,LiEjA7d82Ec,Ƃ񂩂ʓ@cX,43.00277062786013,141.43484306131893,kCDysc搴c2-16-8,20501,Z,3187,39,0101031,́AAeq,5,DyscnS^싽PWډw k39 (3048m),False
100001304307,TtnbpMggO3M,XV[ DycX,42.99462184391555,141.4375156200643,kCDysc搴c236-1,20501,Z,4259,53,0101013,]i,4,DyscnS^싽PWډw k50 (3944m),False
100000733596,ayMOzArMEu2,c,43.0198673,141.4554364,kCDysc敽\1-8-1,20079,Jn,1074,13,0101,aH,8,DyscnS^Jnw k12 (944m),False
h922905,7zd9awmalxM,ˉ ͂ DycX,43.00583692,141.42970876,kCDysc搴c1-3-8,20501,Z,2647,33,0111001,HAH,4,,False
100000757328,cP9KQMviRqA,Ȃ,42.9849265,141.4532082,kCDyscu4-5-1,,,,,0101017,,4,DyscnS^Jnw k60 (4782m),False
h969703,fFhbt2BR_qE,YΏē R c{X,43.00377341,141.43331687,kCDysc搴c22-14-50,20501,Z,3028,37,0108001,ē,6,,True
100001387775,PKkWFOmkC4A,悢 ruʂX,42.99547990461195,141.4369331786885,kCDysc搴c236-5,20501,Z,4130,51,0101,aH,5,DyscnS^싽PWډw k48 (3845m),False
100000302256,1d61hZx8vSY,aHXgƂł@cX,42.99794097,141.44071927,kCDysc^h1-1-28,20079,Jn,3804,47,0101,aH,3,DyscnS^Jnw k45 (3604m),False
100001192906,hHvZ13qAca6,F΂Ă@lq,43.00969100187545,141.4555107337809,kCDysc敽Z2-4-8 ,20079,Jn,2366,29,0101050,F[Ă,3,DyscnS^Jnw k26 (2053m),False
100001414291,pUvnv_dw_z-,ł ,43.0029384,141.45954259999996,kCDysc敽܏4-8-38,20134,y,3409,42,0101017,,2,DyscnS^Jnw k36 (2832m),True
100001182382,vuQPoXb7yn-, CI[DyX,42.99700536,141.45841211,kCDysc敽O5-3-1 CI[Dy 2F,20134,y,4272,53,0101029,DݏĂAĂ,2,DyscnS^Jnw k44 (3468m),False
100000815623,_mO76u1O3Ww,`LnEX515,43.02332690224664,141.44029381349185,kCDysck쎵3-5-15,20386,싽PW,1106,13,0111,HAH,6,DyscnS^싽PWډw k12 (952m),False
100001485247,Pmj75Wahmn-, CI^EX,42.99477821058347,141.453857850193,kCDysc敽5-2-65 CI^EDy,20079,Jn,4270,53,0101017,,3,DyscnS^Jnw k46 (3629m),False
0006104595,54LCzhyv9s2,GR,43.00026038,141.44881838,kCDysc敽22-4-10,20079,Jn,3529,44,0101053,aHȋj,,kʂ艈ɂ܂B3-3_t߁B,True
100000909853,bi63N2y9RBQ,[,43.019845821624,141.45567927705,kCDysc敽\1-8-32,20079,Jn,1099,13,0101017,,4,DyscnS^Jnw k12 (955m),False
100001444269,3jxfNrzjr7M,zn₾ X[p[A[NXkX,43.01320910536276,141.43224055678934,kCDysckO2-13-88,20386,싽PW,2201,27,0101029,DݏĂAĂ,2,DyscnS^싽PWډw k24 (1904m),True
100000302269,YsMyogF-bBY,̑叟,43.01730893,141.45363094,kCDysc敽1-8-15,20079,Jn,1357,16,0106001,[,7,DyscnS^Jnw k15 (1190m),False
100000803404,f2eXZ1nrOD-,g rPuʐcX,43.00080412878666,141.43346655889553,kCDysc搴c3-3-53,20501,Z,3455,43,0101031,́AAeq,3,DyscnS^싽PWډw k41 (3256m),True
h221401,Qq2MMbu1gQE,ڔ uX,42.986864706179,141.45361022472,kCDyscu14,,,,,0112002,З,1,,False
100000051630,jVOvC8z1OkU,܂ΗV ˓X,42.984204948685,141.45851790905,kCDysc既ˈ3-48717,,,,,0101017,,4,JRΐ^yw k60 (4776m),False
100000302184,_Jgp-ykx2-c,Di,43.01021716,141.43436085,kCDysck3-3-1,20386,싽PW,2341,29,0101,aH,2,DyscnS^싽PWډw k28 (2223m),False
YP0150729702EF,_rmgOR39Wuk,߂Z@kCDycX,43.00184036,141.43522791,kCDysc搴c23[1[48,20501,Z,3331,41,0101018,ǂ,,,False
100000019282,1xhtSooBBG6,齏,42.995282,141.441959,kCDysc^h2-2-22,20079,Jn,4020,50,0101,aH,6,DyscnS^Jnw k48 (3833m),False
100000302311,Cr-mvfWvrmI,P^bL[tCh`L CI[DyX,42.99689703,141.45822602,kCDysc敽O5-3-1,20134,y,4295,53,0101027,,2,DyscnS^Jnw k44 (3502m),False
1002297,_KF1U-rx9ZU,̂@ruX,43.00540089,141.43050871,kCDysc搴c1-3-16,20501,Z,2726,34,0101012,i,5,DyscnS^싽PWډw k35 (2805m),False
100000302182,tvM0H-lYKfE,쑽Ti,43.02130215,141.43692108000005,kCDysck쎵2-12-25,20386,싽PW,1164,14,0101,aH,4,DyscnS^싽PWډw k13 (1009m),False
1003795,ZL-8S-rx9ZU,Ё@ruX,43.00540089,141.43050871,kCDysc搴c1-3-16,20501,Z,2726,34,0101048,,3,DyscnS^싽PWډw k35 (2793m),False
100000302272,nNNLrRpmfNw,[ς X,42.99439166,141.45455981,kCDysc敽25265 CI^E,20079,Jn,4432,55,0106001,[,3,DyscnS^Jnw k46 (3652m),False
100000302189,ng03N36DgpY,i,42.98762282,141.4469442,kCDyscuO1-8-5,,,,,0101,aH,3,DyscnS^Jnw k57 (4532m),False
100000910566,ZKpKPUc_IdE,ċv,42.996873614503,141.45824051559,kCDysc敽O5-3-1CI[Dy,20134,y,4294,53,0101017,,2,DyscnS^Jnw k44 (3505m),True
3023650,Y2tJBlY_fsU,ONE@cX,42.99246657,141.44030572,kCDysc^h2113-25,20079,Jn,4354,54,0101012,i,1,,False
3001178,s1wHStLzdUc,DyCNہ@cX,42.99246657,141.44030572,kCDysc^h2113-25,20079,Jn,4354,54,0101012,i,0,,False
3038219,n_F-RVY_fsU,LJckC@cX,42.99246657,141.44030572,kCDysc^h2113-25,20079,Jn,4354,54,0101015,Ƃ񂩂,0,,False
100001174749,XjY1recjTVM,aH݂,43.0120266,141.46871350000004,kCDysc敽1-12-6,20134,y,2151,26,0101,aH,2,JRΐ^yw k27 (2116m),False
100000907700,JH4c3VzV-Co, ,42.991857669253,141.43144244672,kCDysc搴cZ3-7-23,20501,Z,4485,56,0101011,{,1,DyscnS^싽PWډw k54 (4280m),False
ID0101409,02pBw7HKfLI, DykX,43.023745577705,141.43935322306,kCDysck73-5-5,20386,싽PW,1013,12,0101031,́AAeq,0,DyscnS^싽PWډw k11 (834m),True
h286910,xn-dH-D54gg, ˓X,42.98136002,141.46464011,kCDysc既ˈ4-15-40,20134,y,4922,61,0111001,HAH,0,JRΐ^yw k58 (4616m),False
ID0100641,j3dleYqZ-aI, 36c˓X,42.983956534653,141.45897062127,kCDysc既ˈ3-2-10,,,,,0101031,́AAeq,1,JRΐ^yw k60 (4796m),True
100000302226,xLNl3LfsrRE,₫Ƃۓl,42.98666515,141.47373918,kCDysc既˗΃Pu11-17-12,20134,y,3859,48,0101025,Ă,4,JRΐ^yw k45 (3606m),False
100000302190,7LQJgyvgbtE,Ȃ,42.98322624,141.45389925,kCDyscu5-11-31,,,,,0101011,{,3,DyscnS^Jnw k63 (4972m),False
173700902821650434,OU0-kPsw3Xg,iY S ^hX,42.987968,141.441162,kCDysc^h421-48 XgA^hX,20079,Jn,4873,60,0101013,]i,4,,True
108284,pjm1MNvwxY-,܂ǂɐH DyːH,42.97864100,141.46883171,kCDysc既˓71-10,20134,y,4844,60,0101017,,4,,False
100000900546,WpsRhpV-Jz-,H@Ƃ,42.994594718033,141.45597918776,kCDysc敽5-3-2,20079,Jn,4346,54,0101034,CN,1,DyscnS^Jnw k47 (3724m),False
100000302223,kZJVuIc6TqY,₫ƂgcX,43.00141845,141.44325773,kCDysc搴c3-7-55,20079,Jn,3326,41,0101025,Ă,1,DyscnS^Jnw k40 (3142m),False
100000302191,LvLdhqm5JuY,݂,43.0079627,141.46139745,kCDysc敽4-10-24,20079,Jn,2781,34,0101,aH,,DyscnS^Jnw k31 (2414m),False
106706,OXN7F_PHk3k,܂ΗV ˓X,42.98418241227128,141.45847287088623,kCDysc既13487-17,,,,,0101017,,2,,False
163385533836722177,el_2H96OOEo, DyCI[,42.99722920127,141.4585065,kCDysc敽O 5-3-1 CI[DyX1F,20134,y,4258,53,0105001,؍AN,2,,True
100000903654,Sfyhp0y5H3c,,43.019078613186,141.43551131755,kCDysck܏3-4-14,20386,싽PW,1395,17,0106001,[,,DyscnS^싽PWډw k16 (1238m),False
100000905522,CIJEJtXJheE,ΏR uX,42.980849136184,141.46336511518,kCDyscu7-6-10 fKm|Xu1F,,,,,0101018,ǂ,,JRΐ^yw k60 (4738m),False
100000302233,_gC80o6Nwc2,ΏEΐS,42.99225853,141.45248232,kCDysc敽5-2-20,20079,Jn,4578,57,0101017,,,DyscnS^Jnw k50 (3969m),False
100001231593,f_SEEf6OOEo,͂Ȃ܂邤ǂ@CI[DyX,42.99700536,141.45841211,kCDysc敽O5-3-1,20134,y,4272,53,0101018,ǂ,,DyscnS^Jnw k44 (3519m),True
100000058696,tR0XTux4fa2,V DyX,43.0091958,141.4475628,kCDysckl5-8-18,20079,Jn,2381,29,0101031,́AAeq,,DyscnS^Jnw k28 (2173m),False
100000912085,1NHUJ9ZPpbw,łΓ߂,43.003677977593,141.47216455508,kCDysʋJn3,20134,y,2337,29,0101017,,,JRΐ^yw k28 (2180m),False
100000903198,nWI76HZ7CiA,t,43.016812816322,141.45142582755,kCDysckZ5-5-4,20079,Jn,1562,19,0101051,ؗ,,DyscnS^Jnw k16 (1254m),False
100000910453,eD3-ob50bEg,͂ǂ uX,42.983553106874,141.45830612267,kCDyscu5-2-25,,,,,0101017,,,JRΐ^yw k61 (4846m),False
100000909364,Pp5doAmgZKk,イ,42.985772523793,141.45366924519,kCDyscu4-4-3,,,,,0101025,Ă,,DyscnS^Jnw k59 (4689m),False
100000909775,e2zOhDAiNX-,cLTbvStNu,42.931116062815,141.3955724209,kCDyscL412-5,,,,,0106001,[,,DyscnSk^^w k98 (7830m),True
100000302342,sS2VvSf_3No,,43.02557101,141.43449604,kCDysck쎵1-7-10,20386,싽PW,575,7,0101025,Ă,,DyscnS^싽PWډw k7 (523m),False
100000302237,8KvA9IuF7Yc,ĂĂ񐴓cX,42.9980774,141.44293330000005,kCDysc敽11-1-3 FcX,20079,Jn,3716,46,0101017,,,DyscnS^Jnw k44 (3504m),True
100000911405,GI3yqXu4Q2M,,42.981263710563,141.46546070741,kCDysc既˗˃m[XBbW26-1-3,20134,y,4956,61,0101017,,,JRΐ^yw k58 (4572m),False
100000302186,5rJ7400DF6k,iq,42.9966717,141.44207754,kCDysc^h12-1-16 A[oVeB1K,20079,Jn,3879,48,0101,aH,,DyscnS^Jnw k46 (3683m),False
100000302224,4VzBlJUsD4E,₫ƂE[Ђ̖,42.98925065,141.45898737,kCDysc既ˈ2-16-18,20134,y,4544,56,0101025,Ă,,JRΐ^yw k55 (4338m),False
100000904671,T0E5jf3vzvY, cFX,42.998008222994,141.44284208637,kCDysc敽11-1-13 FcX1F,20079,Jn,3731,46,0118,XC[c,,DyscnS^Jnw k44 (3515m),True
100000697409,s7kNvZS-PWQ,i_,42.945431,141.44530899999995,kCDyscL216,,,,,0101017,,,JRΐ^yw k115 (9133m),False
100000908319,KI1tNL0XzO6,lG,43.024360241905,141.43786690186,kCDysck쎵2-5-10,20386,싽PW,869,10,0101,aH,,DyscnS^싽PWډw k9 (716m),False
100000302179,RncnFnzy2qA,@y,42.98693398,141.44533329,kCDyscuO1-7-12,,,,,0110,ArAz[,,DyscnS^Jnw k58 (4637m),False
100000302246,F3QVQQFnl-E,g,42.99533294,141.44140823,kCDysc^h1-5-37,20079,Jn,4011,50,0101003,ۂ,,DyscnS^Jnw k48 (3847m),False
