id,gid,name,latitude,longitude,address,satation_id,station_name,station_distance,station_time,genre_code,genre_name,review_count,access,paypay_flg
100001419543,ZNhbMvBmpBY,SĂtobachigo`,43.2165276,143.37225079999996,kC͓Smyӓ15229-1,,,,,0101045,SĂ,3,,False
100000902189,q6GryJH4S4U,O  JtF,43.57909948074927,143.12945821795734,kC͓SmyOҔԊOn,,,,,0101017,,3,,False
100000902378,NjuxTXgt_Ks,Xg jt,43.364763419248,143.19013336443,kC͓Smymyf27 yVX̂ӂ낤 1F,,,,,0101017,,1,,False
h877900,snY9T6dCDYk,݂ǂ,43.23119215,143.29396961,kC͓Smymy3235,,,,,0101012,i,3,,False
100001160575,r-dwkiP51fA,T,43.22951986,143.28750649,kC͓Smymy2234Ԓn,,,,,0111,HAH,2,,False
100000319633,SRehacdCDYk,̂̂,43.23032002,143.29423078,kC͓Smymy3235,,,,,0111,HAH,1,,False
6132529,t5sT1wJFy7c,XgiEVJ,43.364773392967,143.18844531683,kC͓Smy ʂт猹򋽓35-1 fze~n,,,,,0102,mH,,,False
100000319616,qJY7SNWElx2,,43.23247255,143.29313624,kC͓Smymy3237,,,,,0101,aH,,,False
100000319617,FPPzVcdCDYk,u̓c,43.23119215,143.29396961,kC͓Smymy3235,,,,,0101031,́AAeq,,,False
100001262426,h8-7PAUo0m6,tH[V[Y,43.23382391792961,143.29343415641404,kC͓Smymy3239,,,,,0102,mH,,,False
100000319620,Hp-rKdWElx2,H݂,43.23247255,143.29313624,kC͓Smymy3237,,,,,0101031,́AAeq,,,False
100001523124,HXoeEAY6X5U,ܕ,43.23190177543347,143.29246150154654,kC͓Smymy3235-32,,,,,0101017,,,,True
100000319621,Bfq_M4tipWc,t@[}[YLb`Ƃ,43.2826255,143.38851469999997,kC͓Smy552,,,,,0106001,[,,,False
100000319623,jI9y4V8wIxg,aHXgP,43.228645,143.27771329999996,kC͓Smymy138-4,,,,,0101031,́AAeq,,,False
100000319632,d02wFeprhrc,x,43.22596761,143.2923841,kC͓Smymy3229,,,,,0102,mH,,,True
100000909765,0_AcGEwEhyc,XgEzCg^E,43.36505454295662,143.18872360964008,kC͓Smyʂт猹򋽖k48-1 fڊόze1F,,,,,0101031,́AAeq,,,False
100000901854,ut8LF9BqesM,H[,43.21419806443,143.27986782802,kC͓Smymy1214,,,,,0101008,,,,False
100000906952,97B8Xa5Q-b2,Ē@F,43.229307454566,143.29244799953,kC͓Smymy233-1-4,,,,,0101025,Ă,,,False
20130616564,UsSTLcdCDYk,c,43.230320000000,143.294230833333,kC͓SmymyRQRT,,,,,0101012,i,,,False
