id,gid,name,latitude,longitude,address,satation_id,station_name,station_distance,station_time,genre_code,genre_name,review_count,access,paypay_flg
100001494072,TZT5-bipOeM,zej[I[^jC Xg tH[V[Y,43.06439043060718,141.35477401957394,kCDysk1-1,20210,ۂ,135,1,0102,mH,,DyscnSk^ۂw k2 (105m),False
100000900582,WfPuhIV-mYc,݂̂,43.058728245374,141.35168639355,kCDys4DyGXr 9F,20416,S,27,0,0101017,,,DysdR@^Sډw k1 (20m),False
100001455524,ZA2eQ8ue8t-,Â,43.05398005871552,141.35250509126286,kCDys܏4r4F,20288,,268,3,0101034,CN,,DyscnSk^̉w k2 (167m),False
100000912233,MS2LLzE9fD6,O,43.05747944845243,141.35059486877913,kCDys5HUGC[g,20416,S,256,3,0101034,CN,,DysdR@^Sډw k3 (204m),False
100001500616,dBQgP0M7nQA,{@-Isaridori-,43.0564305,141.35453989999996,kCDysO3 TX[r2K,20288,,134,1,0101034,CN,,DyscnSk^̉w k2 (136m),True
100000899712,cYV9iUt4RY2,΂ǂ܂,43.047102345551,141.34614814229,kCDys\9-1-8,20374,,484,6,0101018,ǂ,,DysdR@^R@Xw k6 (426m),True
100000909603,xVd9NXZ5QJI,sO,43.05380610278838,141.35082101429873,kCDys܏5 Wphr2F,20299,ُwZO,307,3,0101003,ۂ,,DysdR@^ُwZOw k3 (201m),False
100001436701,9S_ZL2YWjE6,̂Ԃԉʓ@ ̂͂,43.05436574032626,141.35557704785037,kCDys܏2 I[Nr2F,20513,L,191,2,0101022,Ԃ,,DyscnSL^L̉w k2 (159m),False
100001484215,GB468WEpdoc,Ԃ \ ~RX,43.0495018,141.31957190000003,kCDysZ26-3-20 K[fnEX[h~RAv[YXNGAB1F,20540,~R,842,10,0101022,Ԃ,,DyscnS^~Rw k9 (672m),False
100000068829,zsUVpbB_f16,k̎,43.05363108509314,141.35245506242677,kCDysZ4 Vhʂ蒆H 1F,20288,,298,3,0101034,CN,1,DyscnSk^̉w k4 (255m),False
100001263694,Qody6-GG-6M,aY,43.060311629005064,141.36535971950457,kCDys6 vUr 1F,20456,oXZ^[O,258,3,0110,ArAz[,,DyscnS^oXZ^[Ow k7 (553m),True
100001482587,dtViiFzFtKc,a ꉋ DywOX,43.06675752914404,141.3465276705523,kCDysk܏6 kCʐMrB1F,20210,ۂ,372,4,0110,ArAz[,,JRٖ{(M`)^Dyw k6 (413m),False
100000910152,tHOOEEfgyTM,Β,43.06385941718,141.35224284172,kCDysk3-1-11 vUk2rB1,20210,ۂ,233,2,0110,ArAz[,,DyscnSk^ۂw k5 (352m),False
100000900249,22jyIftTxMs,v {X,43.042857823164,141.34743299462,kCDys\O8-1-20,20174,s[,437,5,0101011,{,,DysdR@^s[ʉw k5 (393m),True
100001293604,tnaekwX0VDU,ē[ m,43.0543088,141.35167049999995,kCDys܏5 ^[r1F,20288,,218,2,0108001,ē,,DyscnSk^̉w k3 (183m),False
100000900434,RC1OZA1xpy2,,43.053256825548,141.34607739604,kCDys܏8-6,20299,ُwZO,424,5,0101,aH,,DysdR@^{莛Ow k5 (402m),False
100000901061,N-s91vICR4M,kuu102 {X,43.022747730878,141.34363365439,kCDys\12-2-1,20317,}ّO,1056,13,0101008,,,DysdR@^ΎRʉw k12 (895m),False
100001473323,bNvzTzpTEqI,ق,43.05801312167945,141.3351488186911,kCDysʐ14-3-28 SSTr,20401,PT,238,2,0101,aH,,DysdR@^PTډw k3 (182m),True
100000910394,SxVb4szJZbU,KIN no HASHI {,43.055611917456,141.35072662996,kCDysl5-8 F-45 9F,20299,ُwZO,203,2,0101011,{,,DysdR@^ُwZOw k2 (123m),False
100000900151,YfJXvOXSNoY,Y Ȃ wOX,43.064070614306,141.35226172056,kCDysk3-1-11 T&SrII B1F,20210,ۂ,216,2,0101025,Ă,,DyscnSk^ۂw k5 (336m),False
100000910220,hbj_MU1PnLk,_䂤,43.055718728742,141.35540150218,kCDysl2 zVr8K,20513,L,108,1,0101,aH,,DyscnSL^L̉w k3 (178m),False
100001440724,CMwIbkq54j2,k̂΂񂴂 Â,43.053565050593186,141.3529112352761,kCDysZ4-5 ^JZr6F,20288,,305,3,0101010,΂񂴂,,DyscnSk^̉w k3 (208m),True
100000901337,k9C04udU31Y,m,43.05684076878,141.33965378787,kCDys5zeI[NDyB1F,20316,O,244,3,0101011,{,,DyscnS^PPډw k3 (245m),False
100000909495,bWd4h1EPTME,؁EȂًy DyGX^X,43.067591085225,141.35266102677,kCDysk܏21,20220,Dy,118,1,0101,aH,,JRٖ{(M`)^Dyw k3 (239m),False
100001472153,SudEMEEmHrs,h̐H 8X,43.04862735986469,141.34002119447746,kCDys씪12-3-25,20404,XR,457,5,0111,HAH,,DysdR@^XRʉw k7 (510m),True
100000904586,1aazK3B3Z86,̂,43.058376091396,141.35654692712,kCDys1,20073,,156,1,0101025,Ă,,DyscnS^ʉw k4 (324m),False
100001503224,xo11Kf0UOdA,SȌ VaHDining BV ̓X,43.055652364714916,141.35099871165676,kCDysl5-8 ACr45 5F,20288,,184,2,0110,ArAz[,,DyscnSk^̉w k3 (209m),False
100001350953,xv_T6xmbFt2,XRb` Anbar,43.0557465,141.35125470000003,kCDysl5-6-1,20288,,177,2,0119001,o[,,DyscnSk^̉w k3 (182m),False
100000902369,v-nwLD7Il5w,肵 Z,43.058111323848,141.35344623892,kCDys3-13 J^IJrB1,20416,S,240,3,0101021,Ă,,DysdR@^Sډw k3 (199m),False
100001480215,CBDozaOgf3Q,~CN肠 nagomi,43.054851347705835,141.35050211901432,kCDysl5-3-3 2ό2F,20299,ُwZO,188,2,0110,ArAz[,,DysdR@^ُwZOw k2 (151m),True
100001250762,XQPi4DbEXWg,΁Eǂ S,43.0546328588629,141.35328521728513,kCDys܏4 싻r1F,20288,,146,1,0101017,,,DyscnSk^̉w k2 (127m),False
100001455604,jMP-bUo47QM,k̘F[ Ⴑ,43.06569882568785,141.3529227435513,kCDyskO2-1 NCkk3rB1,20210,ۂ,48,0,0110,ArAz[,,DyscnSk^ۂw k1 (56m),True
100001455619,DLGmGj_qz4E,؋쏊 KURURI,43.053814919098485,141.35505834171613,kCDysZ3-6-31 WCt揬H4F,20513,L,212,2,0101026,Ă,,DyscnSL^L̉w k3 (203m),False
100001467196,5c7rfNIfNSY,Lq_CjOp,43.0548218,141.35443669999995,kCDys܏3-8 NOfr4F,20288,,172,2,0104008,Lq,,DyscnSk^̉w k2 (107m),True
100000910518,qMBT3jMgtwg,Ȕ DyfJX,43.067688372275,141.34944086478,kCDysk܏4-7 ێDyX B1F,20210,ۂ,216,2,0101014,VՂAg,,DyscnSk^ۂw k3 (175m),False
100001262519,SrR02eHX3dg,Ȃ{ DyGX^X,43.067934,141.35261500000001,kCDysk܏2 DyESTA GX^HiX B1F,20220,Dy,133,1,0101023,Ȃ,,JRٖ{(M`)^Dyw k3 (218m),False
100000911279,Qpae4IARGo-,̕l ۂ듌}X,43.066473729045,141.35306616263,kCDyskl2ۂ듌}SݓX,20210,ۂ,125,1,0101023,Ȃ,,DyscnSk^ۂw k4 (307m),False
100001405625,2dub_395VII,F[ ,43.05963498708374,141.3586921392174,kCDys2-9,20456,oXZ^[O,211,2,0101033,y,,DyscnS^oXZ^[Ow k2 (138m),True
80868848314089473,HP-RHL17NzE,Hʐ~[ ₭,43.061531,141.360046,kCDysʓ 23-1 36jar B2f,20456,oXZ^[O,33,0,0110,ArAz[,1,,True
100000908425,h5b_1kH2o-Y,{̍ 䂽,43.053975154982,141.35250554175,kCDys܏4-5 r3F,20288,,268,3,0101011,{,,DyscnSk^̉w k3 (217m),False
100000910103,_3Isilb6rTI,͂ǂ cX,43.066669082515,141.38008063256,kCDysk14-10 }ncX 2F,20368,c,349,4,0111,HAH,,JRٖ{(M`)^cw k5 (342m),False
100000903460,49M6OYuEr5I,SYNC.,43.055591525928,141.32414553178,kCDys22-2-23 PCL~R1F,20402,PW,446,5,0101031,́AAeq,,DyscnS^~Rw k8 (586m),True
100000912227,tj7tTmMcdGk,낸,43.053910879613,141.35475295197,kCDysZ3 r 2F,20513,L,254,3,0101022,Ԃ,,DyscnSL^L̉w k4 (262m),False
100000910545,eKVOZJb7Yfw,܂,43.055377489815,141.35447609702,kCDysl3-1-1 3O[rB1F,20288,,110,1,0101,aH,,DyscnSk^̉w k2 (143m),False
100000902109,OYMtEGMcdGl,쐌,43.053632135617,141.35519493793,kCDys܏5r6K,20513,L,183,2,0110,ArAz[,,DyscnSL^L̉w k3 (238m),False
100000909268,RQTvPTB-rjA,vCx[g K[f,43.053974939438,141.34926259827,kCDys܏6HBNr,20299,ُwZO,219,2,0110,ArAz[,,DysdR@^ُwZOw k2 (146m),False
100000900991,LsXw3cwr-xU,,43.057397239128,141.34291900373,kCDys10-3𓹋rB1F,20316,O,146,1,0101018,ǂ,,DysdR@^Ow k2 (89m),False
100000904784,PVmRuQqa4W-,ILi_Ci[@58,43.056627628831,141.35447463758,kCDysO3vC^Er5F,20288,,175,2,0119004,_CjOo[,,DyscnSk^̉w k2 (165m),False
100000901263,R2_UjzVU7Js,,43.048085303822,141.33952117359,kCDys12-1-35,20404,XR,390,4,0101025,Ă,,DysdR@^XRʉw k5 (363m),False
100001250386,D9YBO0mUyn-,kC R@X,43.0375903,141.35098360000006,kCDys\7-1-3-102,20292,ÏCwO,120,1,01,O,,DysdR@^ÏCwOw k1 (82m),True
100000907278,FenJ9iVJJ1s,Ԃ񂵂Ԃ,43.05328073155293,141.35209251747744,kCDysZ5 ACr4F,20288,,325,4,0101022,Ԃ,,DyscnSk^̉w k4 (306m),False
100001356275,CoyWWBnAzMk,pippin,43.05436894482217,141.31914132653344,kCDys25-1-21,20540,~R,186,2,01,O,,DysdR@^ُwZOw k4 (260m),False
100000903584,tw_9dNhvJTs,,43.052264643668,141.35320216427,kCDys쎵4,20474,{莛O,397,4,0101025,Ă,,DyscnSk^̉w k5 (390m),False
100001444385,pnZspMFROM6,O,43.05618648996219,141.3521456763806,kCDysO4r 3F,20288,,143,1,0110,ArAz[,,DyscnSk^̉w k2 (99m),False
ID0102051,ENp1jwHXZkg, DyΎRʓX,43.057190298497,141.34114132612,kCDys11132727,20316,O,76,0,0101031,́AAeq,,DysdR@^Ow k1 (52m),True
100000904460,hihe-4hYAM2,悵,43.054070161591,141.35125717383,kCDys܏5 Wphr 2F,20288,,275,3,0101025,Ă,,DysdR@^ُwZOw k3 (216m),False
100000910047,qAYoF3SiNVg,,43.061679311389,141.34614758785,kCDysk71-3 EXYr1F,20413,W,484,6,0102006,C^AiC^Aj,,DysdR@^Wډw k6 (414m),False
100000906498,6q8u3stTf1s,gWN,43.057547924806,141.35240641816,kCDys4COSMO B1F,20416,S,208,2,0101018,ǂ,,DysdR@^Sډw k2 (159m),False
100000908494,AHzMrN8B_jg,؁X܂ ۈ䍡DyX,43.05970664,141.35502058,kCDys2-11 ۈ䍡Dy{Xʊ B1,20073,,120,1,0101,aH,,DyscnS^ʉw k1 (56m),False
118776891098898433,PxxICG-4iZs, Ђ낵,43.056671,141.355392,kCDysO 2-6-1 KT3rBF1,20513,L,112,1,0108001,ē,1,,True
100000900017,g3bp8quS-wg,Ă񂿂,43.05519566366482,141.354401524207,kCDysl3 N1F,20288,,156,1,0110,ArAz[,,DyscnSk^̉w k2 (143m),False
100000900569,h8-7PAwXvoU,XgtH[V[Y,43.064267493776,141.35479855233,kCDysk1-1-1 zej[I[^jDyB1F,20210,ۂ,148,1,0102,mH,,DyscnS^ʉw k6 (422m),True
100000905644,WL_n0LF3UVo,ڈ΂Ƃ,43.054519451401,141.35453783707,kCDys܏3ڑ4O[r1F,20288,,219,2,0110,ArAz[,,DyscnSk^̉w k3 (199m),False
100000741022,FrYAuZExHoc,V,43.0575163377,141.327856079,kCDysʐ191K,20402,PW,75,0,0101017,,,DyscnS^PWډw k4 (263m),False
100001515367,dZD8vfpeLJM,Sena&#39;s Dining,43.0545865,141.35175419999996,kCDys܏5-1-2 \VAjar 2F,20288,,183,2,0101,aH,,DyscnSk^̉w k2 (155m),False
100000904629,LiYZG5qtMZI,傢ۂݏ,43.054129371392,141.35125782024,kCDys܏5 3όr4F,20288,,277,3,0101025,Ă,,DysdR@^ُwZOw k3 (212m),False
100000901274,8xJb0plYI4E,,43.05764795,141.33927478,kCDys12-4,20400,PP,218,2,0118,XC[c,,DyscnS^PPډw k3 (186m),False
100000902115,B6YnITEkjI2,a ݂,43.055808634122,141.35228978472,kCDysl𐼂rʊ3F4,20288,,69,0,0101031,́AAeq,,DyscnSk^̉w k2 (107m),False
100000899660,NGFpEbOYaVU,ɂĉ,43.058309321756,141.33949000838,kCDysʐ12r1F,20400,PP,128,1,0101,aH,,DyscnS^PPډw k3 (174m),False
100000902938,fvdAb4uS-wg,z,43.05782765081362,141.34970711120855,kCDys531-2 2K,20073,,264,3,0101034,CN,,DysdR@^Sډw k4 (260m),False
100000904283,tMeC3qIsYOM,˒J,43.056766646084,141.35069672187,kCDysO5,20288,,345,4,0101025,Ă,,DysdR@^ُwZOw k3 (205m),False
100001520630,ItPI0Qw-QIw,,43.0539601,141.35253160000002,kCDys܏4-5 ̎r,20288,,272,3,0101028,ł,,DyscnSk^̉w k3 (168m),False
100000907510,diNTe2_JCIo,kC Dyۈ䍡X,43.060979947578,141.35441415258,kCDysʐ2ۈ䍡Dy{X ʊB1F,20073,,114,1,0101,aH,,DyscnS^ʉw k1 (57m),False
100001499017,6WjT7GJlmEc,PsJ,43.062796522817294,141.3522800163139,kCDysk3 ËvrB1F,20073,,229,2,0101033,y,,DyscnS^ʉw k3 (194m),False
100001501727,cNLJzWjjV8A,k̂䂤_CjO,43.065391500000004,141.35190761748515,kCDyskO3-1-5 DykOrB1F,20210,ۂ,54,0,0110,ArAz[,,DyscnSk^ۂw k1 (83m),False
100000905616,YrnDxQJe9PQ,,43.064078464924,141.32350988191,kCDysk܏21-4-8,20412,QW,858,10,0101017,,,DyscnS^PWډw k14 (1068m),False
100000906042,GcMVtJgtlLQ,JtF daen,43.060229814538,141.3442236977,kCDysʐ8-2-39 kʃr B1F,20400,PP,372,4,0101031,́AAeq,,DysdR@^Wډw k4 (274m),False
100000906232,eSs0oRxKOzA,ƂӍH[ rIErbW X,43.035917192767,141.33329327155,kCDys\17-2-8,20407,PU,407,5,0101008,,,DysdR@^PUw k6 (415m),False
t000322908,rDC9snbj5i2,CNF΂ B 싻rX,43.0546059,141.353267,kCDys54 싻r6F,20288,,151,1,0101050,F[Ă,2,,False
100000910451,AUBd4C3jeCw,OD,43.054402710706,141.35062102111,kCDys܏5 3όr,20299,ُwZO,234,2,0101,aH,,DysdR@^ُwZOw k2 (137m),False
100000903631,7qCXt1lN7Fg,,43.055978850124,141.34981508141,kCDysO6CtBjja22 5F,20299,ُwZO,203,2,0101025,Ă,,DysdR@^ُwZOw k1 (86m),False
100000901213,iWqxyzT4ugA,N 7X,43.052620676906,141.353553449,kCDys쎵𐼃vX 3F4,20513,L,343,4,0110,ArAz[,,DyscnSk^̉w k5 (352m),False
100001478512,vMQF5HHyxOo,Ă ꉋ ʓ@,43.05380799999999,141.3499654184027,kCDys܏6 cr1F,20299,ُwZO,268,3,0110,ArAz[,,DysdR@^ُwZOw k2 (162m),False
100000905637,fpH-OQMWkyo,ICHI,43.027389329227,141.34512334154,kCDys\l11-2-1,20042,ΎR,457,5,0101025,Ă,,DysdR@^ΎRʉw k5 (377m),True
100001543981,pKxMiHVasSY,Dy\,43.058297,141.335089,kCDys,20401,PT,269,3,0101017,,,DysdR@^PTډw k3 (213m),False
100000901726,9e7pDnR6SoI,Ȃ ,43.060330296212,141.34428789438,kCDysʐ82-39 ʐkʃrB1,20400,PP,389,4,0101031,́AAeq,,DysdR@^Wډw k4 (281m),False
100000907268,8Fvee5F3UVo,H T,43.054570118196,141.35454836904,kCDys܏3 4O[rB1,20288,,203,2,0101,aH,,DyscnSk^̉w k3 (196m),False
100001245665,yKg8Nq0LTHg,͂񏈁@炵,43.04101397321167,141.3479100704193,kCDys\l8-5-40 NIs[ʎQԊ1F,20174,s[,286,3,0101,aH,,DysdR@^s[ʉw k4 (317m),False
100000902065,f_uwJVbWQaU,ځ@,43.06379049167,141.35233266562,kCDysk325jar4F,20210,ۂ,248,3,0110,ArAz[,,DyscnSk^ۂw k5 (365m),False
100001526486,gU_8KmRFWE-,WrGƃ ԂԂӉ,43.0528729,141.35318440000003,kCDysZ4 r 5F,20513,L,368,4,0101022,Ԃ,,DyscnSk^̉w k4 (287m),True
100000905656,hOfA1GpGsjY,{≮ T[N ,43.071049856199,141.31877189371,kCDysk\23 sDZ^[,20418,\l,441,5,0101031,́AAeq,,DyscnS^\lw k7 (527m),False
100001212454,z5NLMOCv_HM,JL˂ނ@XXLmX,43.054231753640714,141.35460653988113,kCDys53 kvUr1F,20288,,239,2,0102021,V[t[hAICX^[o[,,DyscnSk^̉w k3 (175m),False
100000910534,Xa3B5exosAM,ԔT,43.066418037455,141.34940192881,kCDyskl4 ǔkCrn1K,20210,ۂ,101,1,0101003,ۂ,,DyscnSk^ۂw k2 (100m),False
100000903609,JJ3dnRYo5bo,,43.06474770586,141.3302572975,kCDysk܏16,20402,PW,873,10,0101,aH,,JRٖ{(M`)^Kw k9 (694m),False
100001457197,w4emoJ1xFDM,VE{Jc BILLY 11ړX,43.05787959897371,141.3416186116567,kCDys10-4-1 Xr1F,20316,O,57,0,0101026,Ă,,DyscnS^PPډw k1 (79m),True
100000902171,C28MLvW7MvE,,43.053392943761,141.35968934528,kCDys쎵𓌎DyCze 1F 1,20513,L,288,3,0101031,́AAeq,,DyscnSL^L̉w k5 (364m),False
100000713787,4UQ_3z7doso,Ђ,43.0540939,141.35124099999996,kCDys܏5 \VAjar3F,20288,,275,3,0101011,{,,DysdR@^ُwZOw k3 (213m),False
100000015498,djuUAnwq5OU,F΂_CjO YY,43.0540939,141.35124099999996,kCDys܏5 ^[r2F,20288,,275,3,0101034,CN,,DysdR@^ُwZOw k3 (213m),False
100000910612,hXgmfxKYloQ,YĂE񂬂,43.051334211284,141.33357500856,kCDysZ15-1-25,20408,U,164,2,0101025,Ă,,DysdR@^Uw k3 (168m),True
100000902251,b_2D9Xuivdc,@Ƃ 18ړX,43.056566183743,141.32910803716,kCDysʐ181-43JbWnC1F,20402,PW,130,1,0101025,Ă,,DyscnS^PWډw k2 (139m),False
