id,gid,name,latitude,longitude,address,satation_id,station_name,station_distance,station_time,genre_code,genre_name,review_count,access,paypay_flg
20130116090,CfU1e1GfEHs,•ó—ˆŒ¬H“°,43.103457500000,141.292823055556,–kŠC“¹D–ys¼‹æ”­Š¦‚P‚Sğ‚T’š–Ú‚Q|‚R‚Q,20435,”­Š¦’†‰›,1639,20,0101017,‚»‚Î,1,,False
YP0813650349BE,0MW9EzMrL4Q,ƒt[ƒhƒR[ƒgD–y”­Š¦i•Ÿ‚ë‚¤»–Ëj,43.0961941,141.27696935,–kŠC“¹D–ys¼‹æ”­Š¦‚Wğ‚P‚Q|‚P[‚P ƒCƒIƒ“ƒ‚[ƒ‹D–y”­Š¦@‚R‚e,20434,”­Š¦,668,8,0101018,‚¤‚Ç‚ñ,0,,False
20130857255,pI3loQsrk7s,R‚Ìè‰®,43.072858611111,141.299305000000,–kŠC“¹D–ys¼‹æR‚Ìè‚Rğ‚P’š–Ú‚R|‚P,20196,‹Õ—(D–ys‰c),532,6,0101011,“ú–{—¿—,1,,False
20130052915,0cP0N-H23ss,õi‹à,43.065090000000,141.300738611111,–kŠC“¹D–ys¼‹æR‚Ìè‚Pğ‚U’š–Ú‚Q,20412,¼‚Q‚W’š–Ú,1297,16,0101012,ˆ¬‚èõi,1,,False
20130117465,jRpixKAahx6,‚É‚µ‚©‚í,43.068073055556,141.295644444444,–kŠC“¹D–ys¼‹æR‚Ìè‚Rğ‚U’š–Ú‚P|‚R,20196,‹Õ—(D–ys‰c),1227,14,0101005,¬—¿—,,,False
20130867230,jiAb_s8G6Z-,R\Ä’¹“X,43.075357777778,141.283792222222,–kŠC“¹D–ys¼‹æ¼–ì‚Qğ‚Q’š–Ú‚V|‚P‚U,29255,”­Š¦“ì,870,10,0101025,Ä‚«’¹,,,False
20130117254,ZvjeCwsrk7s,Š”®‰ïĞR‚ÌèÂ‰Ê,43.072858611111,141.299305000000,–kŠC“¹D–ys¼‹æR‚Ìè‚Rğ‚P’š–Ú‚R|‚P,20196,‹Õ—(D–ys‰c),581,6,0101011,“ú–{—¿—,,,False
20130763754,hVywEjhZQlM,‰ñ“]õi‰Ô‚Ü‚é¼–ì“X,43.074127500000,141.284467222222,–kŠC“¹D–ys¼‹æ¼–ì‚Qğ‚Q’š–Ú‚S,29255,”­Š¦“ì,1108,13,0101013,‰ñ“]õi,,,False
20130609800,8D-l8eWv35M,“ú–{ˆê@ƒCƒIƒ“”­Š¦“X,43.096374722222,141.276530555556,–kŠC“¹D–ys¼‹æ”­Š¦‚Wğ‚P‚Q’š–Ú‚P|‚P,20434,”­Š¦,666,7,0101025,Ä‚«’¹,,,False
