id,gid,name,latitude,longitude,address,satation_id,station_name,station_distance,station_time,genre_code,genre_name,review_count,access,paypay_flg
100000811169,FXt5pPaVIL6,ココ・カピウ,44.3157556356,141.663105513,北海道苫前郡苫前町栄浜55-3 とままえ夕陽ヶ丘ホワイトビーチ,,,,,0101034,海鮮料理,3,,False
100000741838,LeGa5eWSd3U,レストラン風夢,44.3132837,141.6564383,北海道苫前郡苫前町苫前-1191,,,,,0101034,海鮮料理,4,,False
100000318437,yXYN2enJ6lQ,三平・手打ちそば,44.26284119,141.71382459000006,北海道苫前郡苫前町苫前町字古丹別173-4,,,,,0101017,そば,4,,False
100001305412,x4h33fkZcOw,お食事処 山海幸,44.261686433499065,141.71387785410877,北海道苫前郡苫前町古丹別194-7,,,,,0111,定食、食堂,5,,False
100001388162,jW9gPb0pLw-,Caf&Restaurant 志,44.311531,141.6527916,北海道苫前郡苫前町苫前154-2,,,,,0112001,創作料理,2,,False
100001439645,WbyVssqHZY-,寿司居酒屋 風蓮,44.2619366,141.71432789999994,北海道苫前郡苫前町古丹別196-26,,,,,0101,和食,,,False
100000318436,5pfGWtClzBY,庄村うどん苫前店,44.31158012,141.65680699,北海道苫前郡苫前町苫前251,,,,,0101018,うどん,,,False
100000902592,flSiwNMECls,食事処まさ亭,44.2635282,141.71736369999996,北海道苫前郡苫前町古丹別249,,,,,0101031,丼もの、牛丼、親子丼,,,False
100000318440,rPKuHoGU5rI,こたん,44.26229242622839,141.71402393189447,北海道苫前郡苫前町古丹別193,,,,,0108001,焼肉,,,False
