id,gid,name,latitude,longitude,address,satation_id,station_name,station_distance,station_time,genre_code,genre_name,review_count,access,paypay_flg
s000230790,XshbEFKkAHU,Ԃԉ ΓX,43.04577338,141.39841472,kCDys΋싽1ږk5-1 Cmr1K,20265,(Dysc),146,1,0101022,Ԃ,7,,True
100001344008,sq5hfGxeEgg,S ݂̂,43.04198609044339,141.41365449737555,kCDys΋{8ړ2-1 Zb\{1F,20387,싽V,301,3,0101029,DݏĂAĂ,2,DyscnS^싽Vډw k4 (290m),False
ha00600,d5fUTxqoRMk,齁E揠 ,43.04223251101,141.41442735971,kCDys΋{8-k1-22 2F,20387,싽V,413,5,0101012,i,4,,False
100000902497,ySRxcFzaZLE,Y₫ƂF,43.049222334537,141.38811733695,kCDys΋擌Dy4-2-1,20464,Dy,435,5,0110,ArAz[,1,DyscnS^Dyw k6 (466m),False
100001264166,c-AzrYSkZVs,ȂV,43.0363181,141.42070379999996,kCDys΋싽126-20 TPr 1F,20385,싽PR,210,2,0110,ArAz[,,DyscnS^싽PRډw k1 (65m),False
100000900463,zF9qznJRBTA,Ώ ,43.05272453369731,141.3849096965663,kCDys΋擌DyO2-1 CIDy 2F,20464,Dy,225,2,0101017,,3,DyscnS^Dyw k1 (85m),False
100000821057,yXYN2bcLxXs,H O,43.06419534354761,141.38172152891468,kCDys΋e㒬1-40-56,20368,c,667,8,0106001,[,3,JRٖ{(M`)^cw k9 (662m),False
100000698745,9kaICo6Y2PY,,43.047451,141.39758499999994,kCDys΋擌Dy܏6-6-40,20265,(Dysc),214,2,0101047,,1,DyscnS^΁ikCjw k2 (163m),True
100000073604,ZVc5NQxarh2,P^bL[tCh`L@ΓX,43.0454206,141.39759860000004,kCDys΋싽1ړ10-7 r,20265,(Dysc),101,1,0102003,no[K[,6,DyscnS^΁ikCjw k2 (103m),True
ID0200096,HMnqGzbspRk,ȂK Dy싽ʓX,43.031220894661,141.43313776715,kCDys΋싽18ږk1-3,20386,싽PW,148,1,0101031,́AAeq,6,DyscnS^싽PWډw k3 (241m),True
100000073351,OIypyBbqOl2,,43.0364195,141.42369110000004,kCDys΋싽14ږk3-1,20385,싽PR,136,1,0101025,Ă,,DyscnS^싽PRډw k1 (85m),False
100000073364,_6OpnGW2N2w,O p@@,43.0662969,141.4112712,kCDys΋eZ4-1-24,20264,(ٖ{),1880,23,0101025,Ă,4,JRٖ{(M`)^΁ikCjw k16 (1256m),True
100000906104,TGhxXlFkJwI,kCႤǂ \DyX,43.055270008278,141.38423290781,kCDys΋擌DyO1-1-1 \DyB^E1F,20464,Dy,540,6,0101018,ǂ,5,DyscnS^Dyw k5 (371m),False
100000073255,yUHEDAEWQek,T,43.0579939,141.37355849999994,kCDys΋eO2-3-5,20150,e,155,1,0101,aH,3,DyscnS^ew k2 (132m),False
100000705739,nOsM4TZ-UqE,Ă,43.0569845,141.42907820000005,kCDys΋k܏9-1-51,20508,a,1602,20,0101029,DݏĂAĂ,3,JRΐ^aw k19 (1480m),True
100000073684,mKPVBleRD2w,̂ DyΓX,43.0523292,141.42419010000003,kCDys΋k8-1-6 Z^[r1F,20264,(ٖ{),1116,13,0101,aH,7,JRٖ{(M`)^΁ikCjw k15 (1157m),False
100001347097,VlxCA_Q54x6,̉ DyΓX,43.0456774,141.39704759999995,kCDys΋싽1ړ8-10΃K[fvCXB1F,20265,(Dysc),41,0,0110,ArAz[,2,DyscnS^΁ikCjw k1 (46m),True
100001539641,XY7Gm8ApHus,Lb`nEX HIRO,43.05330250493351,141.41120642669512,kCDys΋敽a2k9-15,20264,(ٖ{),339,4,0102,mH,1,JRٖ{(M`)^΁ikCjw k4 (275m),True
100000073624,mklySz8phOU,ނ̗eX,43.0685494,141.4090102,kCDys΋eZ3-6-1,20264,(ٖ{),2075,25,0101018,ǂ,7,JRٖ{(M`)^΁ikCjw k20 (1571m),False
100000908101,NdhmKLcDZTs,₫Ƃ@Kushi,43.05774676400879,141.41588470822762,kCDys΋k4-6-9,20264,(ٖ{),607,7,0101025,Ă,1,JRٖ{(M`)^΁ikCjw k5 (334m),False
100000073256,CPevl-51sPE,܂Ƃi,43.04203283519215,141.41411162883605,kCDys΋{()8ړ2-8,20387,싽V,395,4,0101,aH,1,DyscnS^싽Vډw k5 (330m),True
100000073321,pmzXTfQgd0o,₫Ƃ,43.050892,141.38507189999996,kCDys΋擌Dy2-3-15,20464,Dy,172,2,0101025,Ă,4,DyscnS^Dyw k2 (97m),False
h286903,ScF4lYczqhU, 싽ʓX,43.038724538104,141.41427201179,kCDys΋싽9-5-10,20387,싽V,251,3,0111001,HAH,26,,False
100001352986,jYGz57c3Uso,AX SĒEy  }bNXo[eX,43.05768535502491,141.37181499999997,kCDys΋e2-1-11 }bNXo[eX1F,20150,e,34,0,01,O,2,DyscnS^ew k1 (44m),False
100000905744,0uGa7D5f_is,K,43.060952753415,141.4111624362,kCDys΋kO3-1-30,20264,(ٖ{),1139,14,0106001,[,2,JRٖ{(M`)^΁ikCjw k9 (703m),False
100000907872,c1VgQ2BZC8g,傤q,43.083271752222,141.42494232541,kCDys΋ėl1-6-1,20264,(ٖ{),3973,49,0101017,,1,JRٖ{(M`)^΁ikCjw k42 (3327m),False
100001541646,OzuujhlZdyo,YΏĂƂ͂,43.03098432301771,141.43371374970283,kCDys΋싽18k1-29,20386,싽PW,105,1,0101025,Ă,1,DyscnS^싽PWډw k1 (55m),True
100000073814,oK_SxjB3bFo,CNDy,43.0637359,141.40641630000005,kCDys΋kO1-6-1,20264,(ٖ{),1566,19,0110,ArAz[,4,JRٖ{(M`)^΁ikCjw k16 (1263m),False
100000074143,tMw8F6Lj8bw,Yă_CjO@{@ΓX,43.04705992467688,141.39422532853024,kCDys΋擌DyO5-3-15,20265,(Dysc),180,2,0110,ArAz[,3,DyscnS^΁ikCjw k3 (194m),True
100001425993,ucSEF8Rdi8-,Ȃ傢 ΓX,43.054330944758746,141.41269332914192,kCDys΋敽aʎOږk5-2,20264,(ٖ{),181,2,0101025,Ă,1,JRٖ{(M`)^΁ikCjw k1 (79m),False
100001497690,7OAmAg6v04I,ĂbL[,43.053645522035616,141.42257807668648,kCDys΋k7-5-1,20264,(ٖ{),1002,12,0101025,Ă,1,JRٖ{(M`)^΁ikCjw k12 (950m),False
100000026528,qT5c99K95Hc,oO DyCN ΓX,43.05055522005744,141.4151243,kCDys΋敽a5ږk11-15,20264,(ٖ{),606,7,0101,aH,,JRٖ{(M`)^΁ikCjw k6 (474m),False
3036044,BDmlmXtGZ82,LJckC@ΓX,43.05055110,141.41512408,kCDys΋敽a5ږk11-15,20264,(ٖ{),606,7,0101015,Ƃ񂩂,11,,False
100000784276,Ac31NtIxYJc,Bꂭ,43.046184367434186,141.3933282365565,kCDys΋擌Dy6-2-20,20265,(Dysc),288,3,0110,ArAz[,6,DyscnS^΁ikCjw k4 (253m),False
3001177,s1wHSqdUMTE,DyCNہ@ΓX,43.05055110,141.41512408,kCDys΋敽a5ږk11-15,20264,(ٖ{),606,7,0101012,i,7,,False
100000074098,PHaa14tOGis,,43.0481731,141.39662079999994,kCDys΋擌Dy܏6-1-3,20265,(Dysc),280,3,0101025,Ă,2,DyscnS^΁ikCjw k3 (211m),False
100000710680,ejW4mdcEcis,{ ƂƂ DyX,43.05236283404878,141.38420384152528,kCDys΋擌DyO2-1-3 ze AZgCDy 1F,20464,Dy,105,1,0101025,Ă,7,DyscnS^Dyw k1 (75m),True
100000073395,yJi_LmA8iTg,Ώ,43.05163779999999,141.42872579999994,kCDys΋kO9-1-30,20508,a,1084,13,0101017,,1,JRΐ^aw k15 (1141m),False
100001347300,OsKmm6gxcQM,,43.04185126800627,141.41498816340857,kCDys΋{ʖk8ږk7-1,20387,싽V,424,5,0101028,ł,1,DyscnS^싽Vډw k5 (403m),False
100001258667,qOSNawX3p6Y,SĂ_CjO ͂݉,43.0416585,141.41536799999994,kCDys΋{8ږk7-8eT}V{1F,20387,싽V,464,5,0102001,Xe[LAno[O,,DyscnS^싽Vډw k6 (432m),False
3018264,eHnQR8lZP0c,㓙I@DyΓX,43.05232893,141.42418991,kCDys΋k281-6 Z^[r1F,20264,(ٖ{),1116,13,0101012,i,4,JRٖ{(M`)^΁ikCjw k15 (1157m),False
3022994,O8OYWntGZ82,ONE@ΓX,43.05055110,141.41512408,kCDys΋敽a5ږk11-15,20264,(ٖ{),606,7,0101012,i,4,,False
100000073376,Tu5VnbygbpY,eȂ,43.05850770000001,141.3727725,kCDys΋eO2-1-7,20150,e,147,1,0101017,,2,DyscnS^ew k2 (149m),False
3045663,sYWLzqlMoos,قƂƁ@kX,43.05480082,141.42151227,kCDys΋kR6-8-21,20264,(ٖ{),950,11,0114001,AAٓ,2,,False
100000073451,RAsyp6Wjanc,KX,43.0435769,141.41457479999997,kCDys΋{ʖk7-20,20387,싽V,489,6,0111,HAH,2,DyscnS^싽Vډw k7 (490m),False
100000073378,HdcptzSuSpo,Η,43.0504773,141.43936659999997,kCDys΋kO13-2-3,20508,a,408,5,0101017,,2,JRΐ^aw k6 (421m),False
3039500,bqG5j_9_OKw,̊ۘہ@DyX,43.04935608,141.38957647,kCDys΋擌Dy345-34,20464,Dy,496,6,0101031,́AAeq,1,DyscnS^Dyw k8 (598m),True
100001353580,i9BsZ3A2f62,,43.03592323950384,141.4091396380287,kCDys΋h8-1-1Αr1F,20387,싽V,522,6,0101029,DݏĂAĂ,1,DyscnS^싽Vډw k7 (520m),True
100000902219,Fi9X6eYP8Lk,y{ OD[,43.027338664921,141.431122106,kCDys΋h18-11-39 p[NTChq 1F,20386,싽PW,699,8,0102,mH,1,DyscnS^싽PWډw k7 (554m),False
3039683,9niASevhnUM,قƂƁ@{ʓX,43.04351293,141.41438285,kCDys΋{7ږk7-22,20387,싽V,482,6,0114001,AAٓ,0,,False
3039551,sYWLzsiQJaw,قƂƁ@e1X,43.05365236,141.37368602,kCDys΋e141-1,20150,e,265,3,0101,aH,0,,False
3039492,YQPd3CGOs4-,CNg@DyX,43.05182513,141.38525175,kCDys΋擌Dy321-57 DynCc1K,20464,Dy,40,0,0101012,i,0,,True
3045664,Qrcpx0Q7LwU,قƂƁ@e㒬X,43.06348510,141.39032849,kCDys΋e㒬O352-115,20368,c,1404,17,0114001,AAٓ,0,,False
3040842,rX_TRQ0woVs,قƂƁ@ʖkX,43.06400501,141.40756578,kCDys΋k31-5-22,20264,(ٖ{),1569,19,0114001,AAٓ,0,,False
3054884,N9jowZFhVCE,fJ hELO,43.07013214,141.40830430,kCDys΋e523-35,20264,(ٖ{),2264,28,0101031,́AAeq,0,,False
100000073355,6qJuH2NUTDA,,43.0494512,141.40877509999996,kCDys΋{3ړ2-19,20264,(ٖ{),789,9,0101025,Ă,2,JRٖ{(M`)^΁ikCjw k10 (756m),False
100000073299,N0uk4lHvOBA,zHDyX,43.0486896,141.39082699999994,kCDys΋擌DyO4-6-1 A[XDy1F,20265,(Dysc),514,6,0108003,z,9,DyscnS^΁ikCjw k8 (606m),True
100000074272,VAvO71YkPLs,,43.0429463,141.41325000000006,kCDys΋{(k)7ږk1-23,20387,싽V,385,4,0110,ArAz[,2,DyscnS^싽Vډw k5 (349m),False
100000824510,iVMw_29QQrw,]ː؂肻 őY 쉺3X,43.048172965521,141.44832015038003,kCDys΋쉺O6-1-11,20508,a,1011,12,0101017,,1,JRΐ^aw k15 (1157m),False
100000905758,nddaEHvOKdM,n싏 Dining Kitchen Q,43.029525711535,141.43527527128,kCDys΋싽19ړ2-8NX^85r 2F,20386,싽PW,120,1,0110,ArAz[,1,DyscnS^싽PWډw k1 (79m),False
100000073247,L73_rij7u8g,Ă,43.028618,141.43096590000005,kCDys΋h18-4-1,20386,싽PW,436,5,0101,aH,1,DyscnS^싽PWډw k7 (502m),False
108275,rDkBKdojlg6,܂ǂɐH DyΐH,43.04522946,141.41604095,kCDys΋{7ړ6-12,20387,싽V,722,9,0101017,,12,,False
21021481,kQD0zYxrfKs,񂬃oHANA㐼,43.056710099999997,141.41832269999901,kCDys΋k35-13-30,20264,(ٖ{),717,8,0101027,,4,,True
100001293022,INP7b9BL-_w,߂,43.06782662734359,141.407458238623,kCDys΋e܏3-18,20264,(ٖ{),2095,26,0106001,[,,JRٖ{(M`)^΁ikCjw k20 (1570m),False
100000073394,Pmj75fAkPzs,ƖkX,43.05341604006279,141.42383336502974,kCDys΋kO7-10-25,20264,(ٖ{),1137,14,0101017,,6,JRٖ{(M`)^΁ikCjw k14 (1094m),False
100000901149,ZRZ2D8nncfk,҂ ΓX,43.045237163345,141.39506651271,kCDys΋擌Dy6-8-16 3g[z[r1K,20265,(Dysc),113,1,0110,ArAz[,5,DyscnS^΁ikCjw k2 (107m),False
6317484,YovwYjD1yhE,Yċ R̉ ΓX,43.04420140,141.40122565,kCDys΋ 싽211-15,20265,(Dysc),428,5,0110,ArAz[,4,,True
43904873700057089,ujQ1ooUfYLo,čH[߂ DykX,43.050053,141.438812,kCDys΋k312720,20508,a,371,4,01,O,6,,True
128775171238002689,X1FZ3HpJHeU,F΂ Ђ,43.05444,141.439224,kCDys΋k 31-1,20508,a,919,11,0110001,a,4,,True
100000073346,kZJVuKP2qDQ,₫Ƃg@kX,43.056529,141.42808390000005,kCDys΋k܏9-1-60,20508,a,1554,19,0101025,Ă,3,JRΐ^aw k19 (1520m),False
100000904929,mybPlfztsfE,,43.024830172693,141.43741658819,kCDys΋h20-12-1AuXgh1F,20386,싽PW,816,10,0110,ArAz[,3,DyscnS^싽PWډw k9 (648m),False
100000073401,fwf084bgD8-,,43.0239079,141.43979590000004,kCDys΋h21-1-23,20386,싽PW,1036,12,0101017,,1,DyscnS^싽PWډw k11 (868m),False
100000832715,mPbzx3k6tiw,̓,43.0552719150329,141.381600063311,kCDys΋e4-4-2,20150,e,531,6,0106001,[,1,DyscnS^Dyw k7 (506m),False
100000073352,FQMfvnJqxsc,܂,43.0391799,141.41103369999996,kCDys΋싽7ړ6-25,20387,싽V,150,1,0101025,Ă,1,DyscnS^싽Vډw k2 (114m),False
100000073331,Lku24u7-Jwk,,43.0585478,141.41662380000002,kCDys΋kO4-10-9,20264,(ٖ{),718,8,0101025,Ă,1,JRٖ{(M`)^΁ikCjw k6 (454m),False
3019598,hVywEh0MdKA,YčH[ Ԃ܂,43.06417483,141.42147580,kCDys΋ k74-8-3,20264,(ٖ{),1543,19,0101044,YΏĂ,,,True
100000073239,0B17PfCAmcI,,43.0383964,141.40258730000005,kCDys΋h5-7-1,20387,싽V,855,10,0101,aH,1,DyscnS^싽Vډw k11 (859m),False
100000018305,lIWJRZjBg0I,팬łǂZt̓X,43.068122,141.409071,kCDys΋eZ3-6-46,20264,(ٖ{),2036,25,0101018,ǂ,1,JRٖ{(M`)^΁ikCjw k19 (1525m),False
100001445645,7uyXQx6hl5g,務 싽18ړX,43.02725075290012,141.43479619999994,kCDys΋h19-4-3,20386,싽PW,374,4,0101,aH,1,DyscnS^싽PWډw k4 (319m),False
100000907109,KI1tNJrs76-, lG,43.042101279681,141.41463087332,kCDys΋{ʖk8-8-1 NI{ʈԊ1F,20387,싽V,425,5,0101034,CN,1,DyscnS^싽Vډw k5 (383m),False
100000924281,WDtiTKN_EnE,,43.0477482320241,141.4117335861264,kCDys΋{ʓ5-4-28,20264,(ٖ{),991,12,0101017,,,JRٖ{(M`)^΁ikCjw k10 (767m),False
100000741009,FFXUd-iJnFc,ľܓ,43.03084476208747,141.43058304617156,kCDys΋싽ʓ17-7-10,20386,싽PW,345,4,0101017,,,DyscnS^싽PWډw k5 (368m),False
100000073383,0IbBBay1QFY,V ΎxX,43.06096346283575,141.41950816717062,kCDys΋kl4-11-8,20264,(ٖ{),1036,12,0101017,,,JRٖ{(M`)^΁ikCjw k11 (867m),False
100000908257,sq5hfLJ-pKo,S ݂̂,43.037062637918,141.40949003102,kCDys΋h7-3-15,20387,싽V,397,4,0101029,DݏĂAĂ,,DyscnS^싽Vډw k5 (389m),False
100000903650,S0dYJ0AmCf6,aXg@,43.052594768502,141.38535750349,kCDys΋擌DyO2-1 _CG[Dy2F,20464,Dy,94,1,0101031,́AAeq,,DyscnS^Dyw k2 (96m),False
100000902040,HRb3vyC6_zI,,43.056877913512,141.37875569127,kCDys΋eZ3-3,20150,e,496,6,0101025,Ă,,DyscnS^ew k6 (413m),False
100000073348,Rd1rqkL8wB6,2X,43.0495525,141.4408221,kCDys΋kO13-1-31 AJVAԊ 1F,20508,a,475,5,0101025,Ă,,JRΐ^aw k6 (429m),False
100000906787,wg-RGVmxf26,Fm{ ƂT,43.038333172425,141.42247139291,kCDys΋{ʑtr 1F12ږk4-8,20385,싽PR,273,3,0101025,Ă,,DyscnS^싽PRډw k3 (239m),False
100000903175,rCcccC3Gp2-,ʍH[@IM,43.040831808336,141.41957165319,kCDys΋{105-1,20385,싽PR,701,8,0101031,́AAeq,,DyscnS^싽PRډw k7 (506m),False
100000068873,AdzXHYPf8LU,SĒEy  \DyX,43.05533306,141.38458775,kCDys΋擌Dyl1-1-1 \Dy B^E1F,20464,Dy,541,6,0101025,Ă,,DyscnS^Dyw k5 (347m),False
100000900835,bkj2ygy79UA,Ă,43.051415296908,141.39093567085,kCDys΋擌Dyl4-1-15,20464,Dy,670,8,0101025,Ă,,DyscnS^Dyw k9 (689m),False
100000073250,I2DeyZhUnvI,,43.0533759,141.41099970000005,kCDys΋敽a(k)2ږk9-13,20264,(ٖ{),374,4,0101,aH,,JRٖ{(M`)^΁ikCjw k4 (292m),True
100000073371,4yUfP5scULA,˂,43.0406133,141.41662759999997,kCDys΋{9ړ2-13,20387,싽V,535,6,0101017,,,DyscnS^싽Vډw k7 (533m),False
100000073377,b5fL0fy19Yk,a,43.0565817,141.42835609999997,kCDys΋k܏9-1-57 cCr1F,20508,a,1531,19,0101017,,,JRΐ^aw k19 (1502m),False
100000073342,kZJVuOmB8Bo,₫ƂgeX,43.0695908,141.4031887,kCDys΋eO1-5-16,20264,(ٖ{),2416,30,0101025,Ă,,JRٖ{(M`)^΁ikCjw k25 (1992m),False
100000907328,EaD-My1iUQc,,43.059091178042,141.42299682958,kCDys΋kl5-8-13,20264,(ٖ{),1309,16,0101,aH,,JRٖ{(M`)^΁ikCjw k14 (1073m),False
100000902207,4fmbNXdqP_I,}LH,43.050680754373,141.39887789276,kCDys΋撆6-91,20265,(Dysc),607,7,0106001,[,,DyscnS^΁ikCjw k7 (549m),False
100000073248,8MDFIlMih3M,齋g,43.0582939,141.37263359999997,kCDys΋eO2-1-6,20150,e,115,1,0101,aH,,DyscnS^ew k2 (125m),False
100000912129,NDLQbOGsgvc,ԊOn,43.084382931148,141.45546530017,kCDys΋擌ė2078-35,20070,喃,4076,50,0101025,Ă,,JRٖ{(M`)^XьikCjw k53 (4225m),False
100000073354,-NFFqXb_Svc,₫Ƃ蓹싽7,43.04032429999999,141.41155860000003,kCDys΋싽7ږk5-1 1F,20387,싽V,41,0,0101025,Ă,,DyscnS^싽Vډw k1 (28m),False
