id,gid,name,latitude,longitude,address,satation_id,station_name,station_distance,station_time,genre_code,genre_name,review_count,access,paypay_flg
100001247367,6safHZ9qBfE,Ƃ悵 CIDyX,43.10145876,141.36843309,kCDyskO\15-1-1 CIDyX,20277,V,602,7,0101015,Ƃ񂩂,,DyscnSL^Vw k5 (336m),False
100001527689,8dStbfiYO2E,\ ,43.115590705385586,141.35483747607478,kCDyskl\܏7-3-9 ݂r1F,20302,,1274,15,0101017,,,JRD^w k14 (1089m),False
100000908841,vD5V-CYh1pk,ƂӍH[ rIErbW cX,43.095865812251,141.41342358673,kCDys擌c䔪2-3-49,20277,V,4068,50,0101008,,,DyscnSL^ʓw k57 (4565m),False
100001250128,-YvKbvFvqPw,X,43.0775831,141.36383030000002,kCDysk\7 VbsOZ^[,20463,O,63,0,01,O,,DyscnSL^Ow k2 (124m),False
100001411246,L-9SF7dQey2,ĂƑʉَq̓X 񂽂,43.0989961,141.41829059999998,kCDys擌c\3-2-10,20277,V,4553,56,0101029,DݏĂAĂ,,JRٖ{(M`)^΁ikCjw k61 (4869m),True
100000072643,doX0fJG4RNI,tؗ,43.1122253,141.34479350000004,kCDyskl\O1-4-13,20016,,878,10,0104001,ؗ,,DyscnSk^w k10 (804m),False
100000911566,OYBDGIE43ns,ÂÂ,43.105843230641,141.36818303898,kCDyskO\܏15-2-21 thnC1F,20277,V,128,1,0101031,́AAeq,,DyscnSL^Vw k2 (165m),False
100001433049,Q1rYBiFM3RM,Ƒ AIDyX,43.071174363660575,141.3702546294478,kCDysk9-2-20,20368,c,952,11,0101,aH,,JRٖ{(M`)^cw k11 (868m),False
100000907701,RIJj-J3Jb1s,߂@aT,43.096095672938,141.38103066743,kCDysk\܏197,20576,(kC),802,10,0101017,,,DyscnSL^ikCjw k14 (1065m),False
100000909137,oQ4L1ajDGEI,z㉮,43.101204891019,141.37013858239,kCDyskO\16-1-5,20277,V,349,4,0101,aH,,DyscnSL^Vw k5 (401m),False
100000072263,sJi6DRjoUT2,,43.0927174,141.36309600000004,kCDysk\O9-2-8,20576,(kC),674,8,0101,aH,,DyscnSL^ikCjw k12 (961m),False
100000902770,LNLtyFUg-VQ,₫ƂV,43.10957481517,141.3451219998,kCDyskl\1-1-27,20016,,672,8,0101025,Ă,,DyscnSk^w k10 (764m),False
100000900347,UpwWCXpYY2g,͂@Lb`@ma-ma,43.104085025559,141.34681284075,kCDyskO\Z1-5-1 zr,20154,kRS,691,8,0111,HAH,,DyscnSk^kRSw k9 (707m),False
100000904786,XZphhSXGZGo,ƂÂ,43.105534412499,141.36289642976,kCDyskO\Z12-2-1,20277,V,610,7,0110,ArAz[,,DyscnSL^Vw k9 (694m),False
ID0102021,HiiEzazt9N2, CI[DycX,43.07990116653,141.40403568218,kCDys擌c231-1,20144,ʓ,2863,35,0101031,́AAeq,,JRٖ{(M`)^΁ikCjw k37 (2953m),True
100000903575,enSTS57iX7Y,齏 ق,43.098231254572,141.34824640117,kCDyskO\1-7-1,20154,kRS,555,6,0101,aH,,DyscnSk^kRSw k9 (714m),False
100000907836,ITP7qPM6Q2M,Ƃٌc,43.0758486102935,141.38469541282188,kCDysc䒬4-2-6,20368,c,1172,14,0101025,Ă,,JRٖ{(M`)^cw k15 (1153m),False
100000906906,1LCd_L_Ocw-,݂₫s}^,43.08920896,141.36189581,kCDysk\8-2-1,20576,(kC),1183,14,0101044,YΏĂ,,DyscnSL^ikCjw k8 (627m),False
100000073128,SKpRo3fGFQg,c,43.0773082,141.3646691,kCDysk\8-1-6,20463,O,42,0,0101034,CN,,DyscnSL^Ow k2 (99m),False
100000904154,Dpvv0_Ce0bk, khX,43.109663004037,141.35733410591,kCDyskl\𓌖sYkhr 1F8,20213,h(kC),992,12,0101025,Ă,,DyscnSL^hikCjw k15 (1150m),False
100000072277,KfKG7uwXOno,܎,43.0956866,141.3652317,kCDysk\Z12-1-26,20576,(kC),670,8,0101,aH,,DyscnSL^ikCjw k9 (722m),False
100000904756,-M_ZQ_lFJZI,BBQ Y Ŏs,43.075476611585,141.3641416205,kCDysk\7-1-10 쑺r1F,20463,O,236,2,0101044,YΏĂ,,DyscnSL^Ow k4 (310m),False
100000072376,CssjrPChGiM,{@CIDyX,43.10145876,141.36843309,kCDyskO\15-1-1 CIDyVbsOZ^[1F,20277,V,602,7,0101025,Ă,,DyscnSL^Vw k5 (337m),False
100000072417,_gWB-ebVZes,ΐM,43.1193551,141.3538535,kCDyskl\7-4-9,20302,,852,10,0101017,,,JRD^w k9 (705m),False
100001442346,X4r6r3TUA8c,˂ DyX,43.0938096,141.38554139999997,kCDysk\O22-6-8,20576,(kC),1204,15,0101015,Ƃ񂩂,,DyscnSL^ikCjw k19 (1504m),False
100000072738,OQ03kJ9qBfE,zn₾@CIDyVbsOZ^[X,43.10145876,141.36843309,kCDyskO\15-1-1,20277,V,602,7,0101011,{,,DyscnSL^Vw k5 (337m),True
100001491077,sKR6fsL-Vf2, Ε,43.0801221,141.38800319999996,kCDys{4-5-12,20144,ʓ,1226,15,0110,ArAz[,,DyscnSL^ʓw k19 (1458m),True
100000906119,JdbQOSMGW0w,䓤X,43.128341014935,141.41510608462,kCDys撆2-2-5,20005,̗,3994,49,0118,XC[c,,JRD^̗w k44 (3517m),False
100000908058,h7FcTZJPdhM,Ђ̂,43.102821433018,141.4194885423,kCDys擌c\3-14-1,20277,V,4851,60,0101025,Ă,,JRٖ{(M`)^΁ikCjw k67 (5305m),False
100000030523,WCnO4pNiLKo,یVCPX,43.0790975,141.3870869,kCDys{4-1-2,20144,ʓ,1284,16,0110,ArAz[,,DyscnSL^ʓw k18 (1423m),False
100001544348,3PRdRki9BG2, Dyk23X,43.092494827948286,141.36624942944775,kCDysk\O1-3-15,20576,(kC),503,6,0101015,Ƃ񂩂,,DyscnSL^ikCjw k7 (541m),False
100000902848,BO03pOc0eao,{X,43.084749768306,141.41582473809,kCDys擌嗈܏1-4-26,20368,c,3977,49,0118,XC[c,,JRٖ{(M`)^΁ikCjw k41 (3271m),False
100000899904,fqpl4y-S7Q2,Â,43.102466175466,141.35609164921,kCDyskO\O6-2-26 T^Er 1F,20277,V,1090,13,0110,ArAz[,,DyscnSL^Vw k19 (1463m),False
100001244177,h4Ko67qJIfI,Ƃ񂩂 Ƃ悵 CIX,43.1018276,141.36798939999994,kCDyskO\15-1-1 CIDy1K,20277,V,379,4,0101015,Ƃ񂩂,,DyscnSL^Vw k5 (337m),False
100000905247,2LBk1NVxEK2,a,43.069431028605,141.36012818755,kCDyskZ4NE64r1K,20210,ۂ,669,8,0101,aH,,DyscnS^oXZ^[Ow k12 (907m),False
100000072269,zPY2zJTq-q2,,43.0935595,141.38071109999998,kCDysk\O20-1-6,20576,(kC),892,11,0101,aH,,DyscnSL^ikCjw k13 (1015m),False
100000901211,3qny4eHop3A,₫Ƃ ,43.094181238377,141.36015687668,kCDysk\܏7-2-22,20576,(kC),1020,12,0101025,Ă,,DyscnSL^ikCjw k16 (1270m),True
100000072265,x-3EJcb9fIU,e,43.1165555,141.35459519999995,kCDyskl\Z7-2-12,20302,,1165,14,0101,aH,,JRD^w k13 (1001m),False
100000900226,YrCYq6Gemvs,ē}g,43.095738260278,141.40031599705,kCDys敚Ï\4-1-7,20576,(kC),2713,33,0108001,ē,,DyscnSL^ikCjw k40 (3191m),False
100000072382,ApYAJ2VrJEc,,43.0915901,141.37472290000005,kCDysk\17-1-26,20576,(kC),460,5,0101025,Ă,,DyscnSL^ikCjw k6 (463m),False
100000902839,sDipvpi85Ug,͂艮,43.087155367034,141.36198308479,kCDysk\7-1-22,20463,O,1024,12,0101025,Ă,,DyscnSL^Ow k13 (1041m),False
100000072362,wlK9cTzsnbk,H,43.107943,141.35715660000005,kCDyskO\8-2-5,20213,h(kC),1210,15,0101025,Ă,,DyscnSL^hikCjw k16 (1242m),False
100000072532,tBxid8bxCyY,E,43.086000477463166,141.3626140550865,kCDysk\8-4-1,20463,O,890,11,0101003,ۂ,,DyscnSL^Ow k12 (899m),False
100000073110,zeHCe1N8FqU,,43.11400630000001,141.3682136,kCDyskl\16-2-3,20213,h(kC),274,3,0101025,Ă,,DyscnSL^hikCjw k2 (164m),False
100000903003,YQJxiPnTT2-,Ƃ,43.074107854374,141.36411054373,kCDysk7,20463,O,407,5,0101025,Ă,,DyscnSL^Ow k6 (460m),False
100000072907,8USD7A-9lfw,ǑV,43.1082818,141.35660940000002,kCDyskO\7-2-18,20213,h(kC),1227,15,0101,aH,,DyscnSL^hikCjw k16 (1281m),False
100000072390,ywyER6b9fIU,₫Ƃg khX,43.1165555,141.3545952,kCDyskl\Z7-2-12,20302,,1165,14,0101025,Ă,,JRD^w k13 (1001m),True
100000072360,OyjHrjBive6,c,43.0773008,141.39467509999997,kCDys{7-5-19,20144,ʓ,1898,23,0101025,Ă,,JRٖ{(M`)^cw k27 (2136m),False
100000072895,yle02of8M2A,cɂ΂,43.08923712657717,141.40314638614657,kCDys擌cl1-10-10,20576,(kC),2843,35,0101025,Ă,,DyscnSL^ʓw k41 (3260m),False
100000072280,ajYYCPbIjLA,biX,43.0842354,141.3737708,kCDysk\15-4-30,20144,ʓ,208,2,0101,aH,,DyscnSL^ʓw k4 (249m),False
100000072465,laib8u2AkNM,Ƃ񂩂Ƃy,43.0959058,141.35936830000003,kCDysk\Z7-3-14,20576,(kC),1247,15,0101015,Ƃ񂩂,,DyscnSL^ikCjw k18 (1368m),False
100000072914,0HebIZAfY8E,΂񂴂̂؁@,43.0768668,141.37131320000003,kCDysk\12-1-6,20463,O,611,7,0101011,{,,DyscnSL^ʓw k9 (695m),False
100000072841,g-pkDY1IqmU,DyCNۖ{,43.0918018,141.396521,kCDys敚Ô3-6-23,20576,(kC),2291,28,0101,aH,,DyscnSL^ʓw k34 (2654m),False
100000072397,0Y2S2qB2AYY,悵,43.1103174,141.34743509999998,kCDyskl\2-2-32,20016,,835,10,0101025,Ă,,DyscnSk^w k13 (1028m),False
100001468988,GbM7W7-mgNM,SĂƂł̂X ł,43.0928011,141.37558660000002,kCDysk\17-3-17,20576,(kC),435,5,0101026,Ă,,DyscnSL^ikCjw k6 (408m),True
100000072765,9OuwcX2xyWs,Ԃ܂,43.0980017,141.41482429999996,kCDys擌c2-17-37,20277,V,4141,51,0101,aH,,DyscnSL^ʓw k60 (4794m),True
100000072395,I4gUa4mwYKc,Ă,43.0835404,141.35141420000002,kCDysk\1-3-21,20157,kPW,577,7,0101025,Ă,,DyscnSk^kPWw k8 (569m),True
100000072278,ixYDyJJ4EFM,,43.1106312,141.3483433,kCDyskl\2-3-30,20016,,996,12,0101,aH,,DyscnSk^w k15 (1133m),False
100000072369,FjfOXw9ror6,Ƃ,43.0987916,141.35899310000002,kCDyskO\7-2-18,20277,V,1350,16,0101025,Ă,,DyscnSL^Vw k17 (1296m),False
100000073223,eMBReTiwc4g,̂ݓۂݐH΂,43.10581029999999,141.36820850000004,kCDyskO\܏15-2-21,20277,V,123,1,0101025,Ă,,DyscnSL^Vw k2 (160m),False
100000904067,S2NKv2CP2_c,ېV₫Ƃ̐V,43.085887798835,141.39413208653,kCDys敚Îl4-2-15,20144,ʓ,2063,25,0101025,Ă,,DyscnSL^ʓw k28 (2202m),False
100000903974,-D3NK7-C-wE,M,43.092854694067,141.37562368461,kCDysk\17-3-17,20576,(kC),434,5,0101,aH,,DyscnSL^ikCjw k6 (477m),False
100000903830,hDX-WtFeRt2,F,43.085645206983,141.35065165119,kCDysk\1-1-20,20157,kPW,806,10,0101025,Ă,,DyscnSk^kPWw k8 (631m),False
100000900605,RkkwVMJMh-U,₫Ƃ蒹,43.087134761156,141.36279671601,kCDysk\8-1-7,20463,O,1068,13,0101025,Ă,,DyscnSL^Ow k13 (1016m),False
100000903357,eZa-GsA_SlU,Ȓ,43.093628004647,141.36020561608,kCDysk\l7-2-11,20576,(kC),979,12,0101025,Ă,,DyscnSL^ikCjw k16 (1267m),False
100000899842,Qx868R5Z4XY,̎i,43.077307970494,141.36464063568,kCDysk\8-1-6,20463,O,41,0,0101,aH,,DyscnSL^Ow k2 (100m),False
100000900316,-j-PmfOGBpM,I,43.083618632693,141.3513655662,kCDysk\1-3-20,20157,kPW,566,7,0101025,Ă,,DyscnSk^kPWw k7 (567m),False
100000903602,LwHAYe1wToA,Ă,43.100721445623,141.36367801772,kCDyskO\12-1-8,20277,V,814,10,0101,aH,,DyscnSL^Vw k10 (743m),False
100000903563,weE4a7mdI-Y,͒ ÓX,43.085729238901,141.39308502869,kCDys敚Îl4,20144,ʓ,1934,24,0101025,Ă,,DyscnSL^ʓw k26 (2085m),False
100000903954,uw1QS9utuKY,ڂ,43.077513682518,141.3865516885,kCDys{4-4-7,20144,ʓ,1246,15,0101025,Ă,,JRٖ{(M`)^cw k18 (1410m),False
100000903143,4LqKQpvoIkU,y,43.096955578432,141.41438304405,kCDys擌c䔪2-15-16,20277,V,4219,52,0101025,Ă,,JRٖ{(M`)^΁ikCjw k58 (4620m),False
100000903062,6PzsdWvdUF6,₫Ƃ蒹,43.096369945806,141.3595614809,kCDysk\7-3-23,20576,(kC),1261,15,0101025,Ă,,DyscnSL^ikCjw k17 (1355m),False
100000899775,7ci1h53mXt2,񂿂,43.109799695013,141.35566319396,kCDyskl\7-5,20213,h(kC),1082,13,0101025,Ă,,DyscnSL^hikCjw k17 (1323m),False
100000899877,CUQFpHLsadk,齂̑},43.079086994164,141.37070997404,kCDysk\O12-1-21,20463,O,411,5,0101,aH,,DyscnSL^ʓw k7 (554m),False
100000902777,mWJjWg5D2O-,,43.078600469703,141.38628780234,kCDys{3-9-19,20144,ʓ,1226,15,0101,aH,,DyscnSL^ʓw k17 (1352m),False
38348908300222465,NtGDDbcgtMs, kX,43.101578,141.358307,kCDysk327 3-19 No.3NSKr1F,20277,V,1051,13,0101017,,,,True
392000000000080701119701,u5KgkzSkgWI, X[p[A[NXX,43.0789203,141.357183,kCDysk1431-30 X[p[A[NXX1F,20155,kPR,505,6,0101029,DݏĂAĂ,,,False
392000000000080701119698,VQcEKjDeQqc, X[p[A[NXcX,43.0752472,141.380375,kCDysk718-2-10 X[p[A[NXcX1F,20144,ʓ,1038,12,0101029,DݏĂAĂ,,,False
86846,5efAIK-lwJA,OH ,43.11206658,141.35533070,kCDysk4271-1 r1F,20213,h(kC),978,12,0101017,,,,False
124975,D7zDqJj4-q6,őY k37𓌓X,43.10690351,141.35756144,kCDysk3781-10,20277,V,1241,15,0101017,,,,False
20130669252,23HtxAfI7js,{gg,43.114005277778,141.368212500000,kCDyskSQ𓌂PUڂQ|R,20213,h(kC),282,3,0101027,,4,,False
20130478424,YUB169ChGiM,XȐ@CIDyX,43.101458888889,141.368433055556,kCDyskRP𓌂PTڂP|P,20277,V,786,9,0101018,ǂ,5,,False
868693,51cKzSFM3RM,K[nbgAIDyX,43.0711947,141.3703076,kCDysk79-2-20,20368,c,955,11,0101,aH,3,,False
20130080866,nzw2r2vasow,΋iA,43.126741944445,141.415041666667,kCDys撆PPڂPR|U,,,,,0101017,,1,,False
20130848192,MXsjGHXWdUw,낱,43.091367222222,141.372653055556,kCDyskQQ𓌂PUڂP|R,20576,(kC),284,3,0101012,i,1,,False
20130075712,ETilPNCLMzo,O,43.109275277778,141.356419722222,kCDyskSO𓌂VڂR|PO,20213,h(kC),1100,13,0101025,Ă,,,False
20130658807,gkaK9w4flkk,kHiЎDy{,43.092998333333,141.396173055556,kCDys敚ÂXRڂQ|QO,,,,,0101013,]i,,,False
20130846642,xWZiTBsJjFQ,YΏāEg,43.092195555556,141.391843055556,kCDys敚ÂWQڂU|QP,20576,(kC),1781,22,0101050,F[Ă,,,False
20130803710,3I2NMQo6Qig,Â̎Ε,43.080121944445,141.387997222222,kCDys{QSڂT|PQ,20144,ʓ,1226,15,0101025,Ă,,,False
20132003852,aQH4ug4flkk,L^C`t[hT[rX,43.092998333333,141.396173055556,kCDys敚ÂXRڂQ|QO,,,,,0101013,]i,,,False
