id,gid,name,latitude,longitude,address,satation_id,station_name,station_distance,station_time,genre_code,genre_name,review_count,access,paypay_flg
100000901055,ytkmMGx8yIo,道の駅　てしお　レストラン,44.88440503669278,141.74786571822096,北海道天塩郡天塩町新開通4-7227-2,,,,,0111,定食、食堂,35,,False
100000872131,Elv9XBl1GBo,田舎屋　天塩店,44.88564947,141.74689095,北海道天塩郡天塩町新地通5-1500-14,,,,,0101017,そば,2,,False
100000856663,vldWugIMbHI,あげいん,44.886075830163605,141.7476879695579,北海道天塩郡天塩町新開通6,,,,,0106001,ラーメン,1,,False
100000901022,Rv-51sPcRhU,てしお,44.874552740029,141.74633509618,北海道天塩郡天塩町更岸セイコーマートとなり基線,,,,,0101033,郷土料理,1,,False
100000900880,zxkFmBC5i2-,七福寿司,44.885541868608,141.74264649853,北海道天塩郡天塩町山手通6丁目,,,,,0101,和食,,,False
