id,gid,name,latitude,longitude,address,satation_id,station_name,station_distance,station_time,genre_code,genre_name,review_count,access,paypay_flg
100000871351,zTc27NPLsJY,ag,43.83697963,144.59665845,kCΗSHߒ24Ԓn,20172,,361,4,0101,aH,3,JRԖ{^w k5 (393m),False
100000902658,8kKBXh__dtc,ł̏G,43.81608300961913,144.5598098647239,kCΗS_395,20172,,3965,49,0101017,,4,JRԖ{^Dw k57 (4520m),False
100001197148,ycNYPEUVYKg,XgppX,43.790782439535825,144.53471535691733,kCΗS_1071Ԓn,20207,D,706,8,0111,HAH,30,JRԖ{^Dw k8 (573m),True
100000909289,-BZrIvvLawY,Xg ,43.834558712394944,144.59923514572685,kCΗSHߒ31 zeΐ,20172,,825,10,0101011,{,3,JRԖ{^w k9 (725m),False
100001445398,V6ZhohJFMSU,؉ c,43.83734037653922,144.59692772944777,kCΗSHߒ24-4,20172,,349,4,0110,ArAz[,2,JRԖ{^w k5 (341m),False
h855600,8kKBXYm_-yU,ł΂̏G,43.81608114,144.55981007,kCΗS_395,20172,,3965,49,0101017,,2,,False
100001352518,IrjQu1EtrkQ,悳Ə𗬎{ ` JtF,43.828502073275914,144.58569231716194,kCΗSHߒ62,20172,,1434,17,0115001,JtF,1,JRԖ{^w k19 (1470m),False
100000318651,xJFcNJoeBWQ,łΎ,43.83310339812983,144.58998761312728,kCΗSHߒ42,20172,,764,9,0101017,,9,JRԖ{^w k10 (773m),False
20130828294,4eMJDGnkhp6,炵,43.847550555556,144.593205555556,kCΗSΗWXO|R,20172,,1285,16,0101017,,,,False
