id,gid,name,latitude,longitude,address,satation_id,station_name,station_distance,station_time,genre_code,genre_name,review_count,access,paypay_flg
ha1g701,1A147M2-Kps,REJV^ JV,43.067438751066,141.3456375349,kCDyskk66,20220,Dy,499,6,0110,ArAz[,1,,False
100000907817,UkjgxXUrM0o,Ȃނ,43.073129245348,141.35316118346998,kCDyskk\1-4-2 tH[gXr1F,20210,ۂ,486,6,0101017,,3,DyscnSL^kPR𓌉w k6 (458m),False
ha39800,hgsGTHBlVqY,ӎޏ  {X,43.07142471,141.35347555,kCDyskk81-1,20210,ۂ,272,3,0110,ArAz[,1,,False
100000859290,WfSr9JU0QHI, _,43.13954484633068,141.35714639499156,kCDyskH4-7-5,20243,H,1155,14,0110,ArAz[,3,JRD^Sw k13 (977m),True
100000926192,M5JyaC8Fzw-,v`p,43.12395842172931,141.32701522296986,kCDyskVՎ\10-1-3,20270,VՎ,1788,22,0115001,JtF,2,JRD^VՎw k19 (1518m),False
0006098832,MTRTOWZOTDU,teBA ƂȐH,43.10131226,141.34044694,kCDyskkO\l4-2-12-1F,20154,kRS,176,2,0101053,aHȋj,1,k34w1ԏok2,True
100001263898,vrwXty5zDlk,̑,43.0689091,141.3475141,kCDyskk5-6-2r1F,20220,Dy,217,2,0110,ArAz[,2,JRٖ{(M`)^Dyw k5 (363m),False
100001524110,ynOcosDHb3s,ł ,43.11100617908391,141.33589443682274,kCDyskVՎ꒚1-61 Jt[ 1F,20016,,354,4,0101017,,2,JRD^VՎw k3 (226m),True
100001349261,MBEq_lFWyLw,Ώ ,43.142801,141.35845659999995,kCDyskH5-5-28 吣r 1F,20243,H,764,9,0101017,,2,JRD^Hw k9 (666m),False
100000071269,HkWx1LwL79g,gƐVՎlԒʓX,43.12654337469187,141.30712491653287,kCDyskVՎ17-765-3,20270,VՎ,2953,36,0101031,́AAeq,1,JRD^VՎw k44 (3475m),True
100001258538,3CbnoJm3jQ2,ΐ,43.09684873756821,141.3410389214754,kCDyskkO\5-2-1,20154,kRS,303,3,0101017,,1,DyscnSk^kRSw k5 (354m),False
100000071728,k82f3xHWQC-,@k24X,43.0900699,141.3433506,kCDyskk\O4-2-27,20161,kQS,112,1,0101025,Ă,7,DyscnSk^kQSw k2 (142m),False
s000318123,QOZTEKdkL-w,Ԃԉ k24X,43.0900138,141.3440889999,kCDyskk\O4-2-39 k24XKCr2F,20161,kQS,71,0,0101022,Ԃ,0,,False
100001459109,Zp4givgDDlw,plur,43.07583958537295,141.35100344919533,kCDyskk\2-2-3,20156,kPQ,294,3,0119001,o[,1,DyscnSk^kPQw k4 (295m),True
100001401062,du-MofaVcYk,,43.08091948177079,141.3466239426316,kCDyskk\4-1-32 JlTr1F,20157,kPW,119,1,0101029,DݏĂAĂ,1,DyscnSk^kPWw k1 (59m),True
100001445993,jKWGx4gP3dI,,43.1389138,141.36619840000003,kCDyskH7-10,20243,H,803,10,0101025,Ă,1,JRD^Hw k9 (709m),False
100000070900,xknjrUUiQ4k,\q,43.1085006,141.33663060000003,kCDyskkl\5-3-17,20016,,231,2,0101,aH,4,DyscnSk^w k3 (192m),False
100000071266,SxEA7HQtHJ6, k24X,43.09019282514485,141.34416183048677,kCDyskk\O4-2,20161,kQS,43,0,0107001,J[,11,DyscnSk^kQSw k1 (40m),True
100001415024,hoTC5I8GV8-,BILLY X,43.11035589999999,141.3377693,kCDysk斃5-3-10,20016,,81,1,0101026,Ă,4,DyscnSk^w k2 (88m),True
100000908688,o6bVLvBE_zU,H k9X,43.072336896318,141.35041397881002,kCDyskk3-10-1cr B1F,20220,Dy,410,5,0110,ArAz[,3,DyscnSk^kPQw k5 (355m),False
100000075973,sBlVO5dx09w,p k24X,43.090523,141.342612,kCDyskk\l5-1-21m[X24r1F,20161,kQS,209,2,0108001,ē,26,DyscnSk^kQSw k3 (235m),True
h969100,OUTQVoo-pg-,ULTIMANIA,43.09089979,141.34380563,kCDyskk244-1-12 `or1F,20161,kQS,135,1,0119001,o[,,,True
100001159615,CdJXasecxMI, ㉮,43.095817,141.3320582,kCDyskk\11-2-1 5phr,20268,V(kC),874,10,0101034,CN,2,JRD^VikCjw k12 (965m),False
100001443816,hUKTdlSG7q2,ы` Y Dyk24ʂX,43.09002268246623,141.3433983699406,kCDyskk\O4-2-27 2r 1F,20161,kQS,115,1,0110,ArAz[,1,DyscnSk^kQSw k2 (121m),True
100001182738,CQvU7JrGyzY,Ȃ݂ k24,43.091561,141.34391200000005,kCDyskk\l4-4-23 55r TVC24 2F,20161,kQS,170,2,0110,ArAz[,2,DyscnSk^kQSw k3 (209m),False
100001166439,UvMDt4-wJ7M,IB,43.07893193099427,141.34606323724802,kCDyskk\܏4-2-18,20157,kPW,411,5,0101,aH,4,DyscnSk^kPWw k4 (301m),False
100000816335,QP-UZrGOU7-,,43.10718445141582,141.33651282209019,kCDyskkO\7-1-21,20016,,253,3,0101025,Ă,4,DyscnSk^w k4 (288m),False
100000705757,7HlANlsl_o6,XCX,43.089709193647,141.34429603815,kCDyskk\O4-2-3 vUnCc24 105,20161,kQS,44,0,0111,HAH,2,DyscnSk^kQSw k1 (36m),False
100000545084,i3U-HWXjnxI,HBAR ݂񂿂ʂ܂񂿂 kOX,43.077234431773,141.34806454182,kCDyskk\l3ڃ[EXr1F,20156,kPQ,303,3,0101032,ꗿ,2,DyscnSk^kPQw k4 (270m),True
100000833326,0zAPdif1weA,K,43.128568434468,141.27998175854896,kCDyskV쐼O4-6-17,20049,ό,2686,33,0101,aH,2,JRٖ{(M`)^όw k40 (3133m),False
100001247721,D24knKmjb1R,O  X,43.1116119659797,141.33821120262144,kCDysk斃5-7-29,20016,,97,1,0110,ArAz[,1,DyscnSk^w k4 (278m),True
100000882519,9hQ_jrLHg5E,₫Ƃ jg,43.0893867954255,141.3382468297849,kCDyskk\O8-3-32,20161,kQS,534,6,0101025,Ă,1,DyscnSk^kQSw k9 (707m),False
h934323,Z0l5cU39s9U,ۋT DyVX,43.10319146,141.31313518,kCDyskV37-1-58,20268,V(kC),1259,15,0101018,ǂ,4,JRD^VikCjw k17 (1297m),False
100000071062,UnQxi8MLxp2,Ă{ Hl,43.08405399999999,141.34627850000004,kCDyskk\3-2-17,20157,kPW,295,3,0101025,Ă,4,DyscnSk^kPWw k4 (280m),True
h909006,c0C7S-Wd66k,aHXgƂł X,43.109874808663,141.33564402514,kCDyskk406,20016,,370,4,0101034,CN,2,DyscnSk^w k4 (297m),False
ha09101,M_8x_7Iq-GQ,Ԃ,43.08997208,141.34268634,kCDyskk235-2-33 t[r2F,20161,kQS,168,2,0101046,^,,DyscnSk^kQSw k3 (190m),True
ID0101707,02pBw-fy-KE, DyԓcX,43.135244333258,141.33812233444,kCDyskԓc64420,20302,,2270,28,0101031,́AAeq,2,JRD^w k22 (1757m),True
100000070921,22G8QwOqsQg,͎,43.1447544,141.3551463,kCDyskHO3-1-1,20243,H,955,11,0101,aH,1,JRD^Hw k13 (1020m),False
100000905279,xPElmC_JfQ-,|b| ԓcX,43.140221201036,141.34070966909,kCDyskԓcCg[[Jh[ԓcX3-5-1,20599,S,2539,31,0118,XC[c,1,JRD^w k26 (2048m),False
6036697,4ps70HeplBs,[E ,43.068183266666,141.34969272222,kCDysk k62 PASEO WEST B1,20220,Dy,149,1,0106,[,31,,False
100000071252,8ZfekKEUmBg,ʓX,43.109395,141.3375138,kCDyskkl\5-5-20,20016,,121,1,0101015,Ƃ񂩂,3,DyscnSk^w k2 (88m),False
100000070922,rkJtUiKG9Vc,i,43.081746,141.3448899,kCDyskk\5-1-40,20157,kPW,177,2,0101,aH,3,DyscnSk^kPWw k3 (200m),False
100000696501,B2tru2zqc-E,₲,43.1113808,141.3367581,kCDysk斃5-8-10,20270,VՎ,315,3,0101025,Ă,3,JRD^VՎw k4 (251m),False
100001234294,T8hLOZ0m3zY,܂Ώ [,43.119757482340276,141.3398554285302,kCDyskԓc2-1-3,20270,VՎ,994,12,0101017,,2,JRD^VՎw k11 (886m),True
100000910503,OLFEeMXEn9-,zH X,43.110753530787,141.33873560092,kCDysk斃4-12-6 LC2F,20016,,46,0,0108003,z,2,DyscnSk^w k3 (190m),True
100000808082,szFPrzFz58E,,43.074705591345264,141.3498292268448,kCDyskk\32-1,20156,kPQ,127,1,0101,aH,2,DyscnSk^kPQw k2 (159m),False
100000071188,CAvvj2xbcIc,Γ VՎX,43.1108494,141.3116215,kCDyskVՎ11-10-22,20268,V(kC),2079,25,0101017,,2,JRD^VikCjw k24 (1919m),False
100000907265,MSqZHS6-9T6,cS₫Ƃ 悵 X,43.11017851505,141.33818092716,kCDysk斃5-4-13 r 1F,20016,,38,0,0101017,,2,DyscnSk^w k2 (119m),False
100001495535,yhkyfs3Dsec,g DyX,43.10967332997944,141.33696690055967,kCDyskkl\5-331-1,20016,,174,2,0101031,́AAeq,7,DyscnSk^w k2 (131m),True
100000879933,HnxCSzes-Is,I[V_CjO NO,43.09642407,141.34272760,kCDyskk\4-2-1-107 t@~[Dy1F,20154,kRS,231,2,0101034,CN,1,DyscnSk^kRSw k5 (402m),False
3042577,gokkEsL_8Uk,ǂԂ艮łہ[,43.09106642,141.34348620,kCDyskk2443-6 VF[x24@1K,20161,kQS,155,1,0101031,́AAeq,6,,False
100001481734,zFHfNxr4AuE,p_CXAȂ́B,43.1081491,141.33879780000007,kCDyskkl\4-2-10 pXeZgr2F,20016,,62,0,0101029,DݏĂAĂ,,DyscnSk^w k1 (65m),True
100001490122,64E8K3I03-w, k24X,43.0910709551583,141.34348700982173,kCDyskk\l4-3-6VF[x1F,20161,kQS,156,1,0110,ArAz[,,DyscnSk^kQSw k2 (121m),True
100001468815,hUHda2zqc-E,Ă&C^A Toriko,43.1113773733533,141.33676044693289,kCDysk斃5-8-10 1F,20270,VՎ,316,3,0110,ArAz[,,DyscnSk^w k3 (182m),False
1003798,JbqJTsJO1Ns,Ё@DynʂX,43.09531323,141.34613571,kCDyskk282-1-23,20154,kRS,609,7,0101048,,6,,False
3028576,4tEQO3UeMKc,˂@DyX,43.11797857,141.32151678,kCDyskVՎ9-5-15,20270,VՎ,1490,18,0101015,Ƃ񂩂,6,,False
100000850592,xOBX1xTdi8U,Fat Chicken,43.089979,141.34259799999995,kCDyskk\O5-2-33,20161,kQS,173,2,0101027,,,DyscnSk^kQSw k3 (223m),False
100000904180,SENBIFkLhBU,Ă񂮂̑,43.077078587871,141.34876040361,kCDyskk\O32-24 fVIa1K,20156,kPQ,350,4,0101011,{,,DyscnSk^kPQw k4 (253m),False
100000071583,QEw6RMJO1Ns,̂ DynʂX,43.0953138,141.34613620000005,kCDyskk\2-1-23 No2NSKr1F,20154,kRS,609,7,0101,aH,24,DyscnSk^kQSw k8 (634m),False
3028573,6TYq4pUeMKc,ǂԂX@_{@DyX,43.11797857,141.32151678,kCDyskVՎ9-5-15,20270,VՎ,1490,18,0101031,́AAeq,4,,False
3018598,CWSTgcvZ3s-,@HX,43.15710825,141.36127516,kCDyskH1047-14,20243,H,1668,20,0101012,i,4,JRD^Hw k17 (1367m),False
3002947,s1wHSov7SZw,DyCNہ@VՎX,43.11050995,141.31307916,kCDyskVՎ2101-2,20268,V(kC),2002,25,0101012,i,4,JRD^VikCjw k23 (1780m),False
3039255,u0RkmZUeMKc,эLؘ@ڂԂL@DyX,43.11797857,141.32151678,kCDyskVՎ9-5-15,20270,VՎ,1490,18,0101,aH,3,,False
ID0200092,HMnqGxQ0Xt6,ȂK Dyk24X,43.090423168165,141.34345791508,kCDyskk244-2-5,20161,kQS,100,1,0101031,́AAeq,7,DyscnSk^kQSw k2 (144m),True
100001294107,jiaxda2skM-,דԓc H,43.13695941200328,141.32965791031188,kCDyskԓc7,20302,,2984,37,0106001,[,3,JRD^w k33 (2602m),False
100000070916,XL4BivOW6TE,PF,43.1147605,141.32752529999993,kCDyskVՎ5-4-24 PFr8F,20270,VՎ,907,11,0101,aH,3,JRD^VՎw k11 (866m),False
3036793,fHb30JUeMKc,@̂Ԃ@DyX,43.11797857,141.32151678,kCDyskVՎ9-5-15,20270,VՎ,1490,18,0101015,Ƃ񂩂,2,,False
1002066,mKPVBn9WsCE,̂@DyVՎX,43.12413872,141.31070345,kCDyskVՎ15-2-1,20270,VՎ,2612,32,0101012,i,2,,False
3038223,SYLNXMjQ3SI,LJckC@X,43.13578532,141.35357952,kCDysk摾1033-1,20599,S,1068,13,0101015,Ƃ񂩂,1,,False
3002937,s1wHSxno_g2,DyCNہ@X,43.13578532,141.35357952,kCDysk摾1033-1,20599,S,1068,13,0101012,i,0,,False
1003697,QIY8mn9WsCE,Ё@DyVՎX,43.12413872,141.31070345,kCDyskVՎ15-2-1,20270,VՎ,2612,32,0101048,,2,,False
ID0200113,HMnqGsZeegk,ȂK VՎX,43.119613013739,141.31928491988,kCDyskVՎ811-1-11,20270,VՎ,1764,22,0101031,́AAeq,1,JRD^VՎw k24 (1908m),True
3018261,e4s-HvE3Les,㓙I@DyVՎX,43.12413872,141.31070345,kCDyskVՎ15-2-1,20270,VՎ,2612,32,0101012,i,0,JRD^VՎw k37 (2944m),False
ID0101368,l1j0N6V0Kwc, Dyk33X,43.099763021354,141.34078145381,kCDyskkO\O𐼎l112,20154,kRS,142,1,0101031,́AAeq,1,DyscnSk^kRSw k2 (140m),True
3043685,aYk647WvCsA,s@DyX,43.06827762,141.34764010,kCDyskkZ51 TcGLBridge,20220,Dy,257,3,0108001,ē,0,,False
3038226,I6VN6UaWcW6,LJckC@VՎX,43.11050995,141.31307916,kCDyskVՎ2101-2,20268,V(kC),2002,25,0101015,Ƃ񂩂,0,,False
3023651,7VzAn6jQ3SI,ONE@X,43.13578532,141.35357952,kCDysk摾1033-1,20599,S,1068,13,0101012,i,0,,False
100001348294,ltB-GCcV52U,ς҂Ղ؂,43.09092347162196,141.3458466927292,kCDyskk\O3-2-1,20161,kQS,163,2,0101031,́AAeq,1,DyscnSk^kQSw k2 (150m),True
100000071268,ntKEo8BoDug,g231HX,43.144552532451165,141.35006974999135,kCDyskH1-2,20243,H,1454,18,0101031,́AAeq,1,JRD^Hw k20 (1584m),True
3028580,H0Km83UeMKc,{i@|{X@DyX,43.11797857,141.32151678,kCDyskVՎ9-5-15,20270,VՎ,1490,18,0101,aH,0,,False
3028496,GoGjs-aWcW6,ONE@VՎX,43.11050995,141.31307916,kCDyskVՎ2101-2,20268,V(kC),2002,25,0101012,i,0,,False
100001292336,XVkbXeb5jWo,Licious Ichinen,43.095963,141.32333819999997,kCDyskk\16-3-7,20268,V(kC),321,4,0101025,Ă,1,JRD^VikCjw k4 (256m),False
121745,hMu1Q7s-cb2,΂Ƃ _ pZIX,43.0685031,141.3498654,kCDyskk643-1 PASEO WEST n1K,20220,Dy,96,1,0101017,,13,,False
3038101,zJ9rQvlZUho,@X,43.10777248,141.33888002,kCDyskk404-2-5,20016,,42,0,0101031,́AAeq,0,DyscnSk^w k2 (163m),False
3037952,G4MRHi4ME0k,fVXLb`,43.09040540,141.34370011,kCDyskk2442-1,20161,kQS,76,0,0101031,́AAeq,,,False
3034421,Ya9n5JUeMKc,V@I[X^[Y@DyX,43.11797857,141.32151678,kCDyskVՎ9-5-15,20270,VՎ,1490,18,0101031,́AAeq,0,,False
3037944,LiPxKQZsGUQ,ǂԂ̂@fo[X,43.10649734,141.33269448,kCDyskk3610-1-25 CVeB1F,20016,,699,8,0101031,́AAeq,0,,False
3042310,9thj13jANPs,قƂƁ@DywkX,43.07171895,141.34903144,kCDyskk941,20220,Dy,328,4,0114001,AAٓ,0,,False
3046868,1ldSWyrosX6,hgƏċ@kCNX@kX,43.07101348,141.34923980,kCDyskk413Ԓn3,20220,Dy,241,3,0101,aH,0,,False
100001446213,VJhEzonHMQM,ʁ@DyX,43.069492,141.34787089999998,kCDyskk5-8-8,20220,Dy,228,2,0110,ArAz[,,JRٖ{(M`)^Dyw k3 (237m),False
100001260559,n_MuboMYcZo,ۋC ق̉,43.1076783195663,141.338073071164,kCDyskkl\5-1-3 KOr1F,20016,,74,0,0110,ArAz[,15,DyscnSk^w k2 (160m),True
7107858,d3b5_OHX3dg,]i Ԃ܂,43.068269414717,141.35092595216,kCDys k܏2 DyXevCX Z^[6F,20220,Dy,145,1,0101013,]i,14,,False
J001223590,q4lDnJ1xFDM,ĂĂς c{,43.09127197,141.34401392,kCDyskk2443-25grB1,20161,kQS,154,1,0101029,DݏĂAĂ,1,k24wkP,True
6409875,9IEJkCr0RfE,iiYEO[eB[,43.068694342336,141.35028153289,kCDysk k62 PASEO CENTER B1,20220,Dy,82,1,0115001,JtF,10,,False
100000450644,_4uXILOUYMU,؎,43.068893652498,141.34752005339,kCDyskk5-6-2 r 1F,20220,Dy,215,2,0101047,,1,JRٖ{(M`)^Dyw k5 (362m),False
100001504540,wzf_KV6m3IE,nEX GVbg,43.07825617496063,141.34617525221483,kCDyskk\܏4-1-12,20157,kPW,481,6,0101031,́AAeq,1,DyscnSk^kPWw k5 (359m),False
100000071094,DK2kfM7sG-c,ƂV,43.1177516,141.3209061,kCDyskVՎ9-4-10,20270,VՎ,1585,19,0101025,Ă,1,JRD^VՎw k21 (1665m),False
100000818072,RCfnnAhJqpE,񂫂イ,43.07885968,141.34653118,kCDyskk\܏4-2-10,20157,kPW,437,5,0110,ArAz[,1,DyscnSk^kPWw k5 (328m),False
100001522257,BAT9hHY08Ac,΂Ē&Jc  AsAX,43.06844290422382,141.3512977764113,kCDysk܏34 APIA WCtEH[N B1F,20220,Dy,115,1,0101050,F[Ă,,JRٖ{(M`)^Dyw k1 (77m),False
1057777,BzJAQ1jw5-g,H R̉ DywkX,43.069177582724,141.34927602728,kCDysk k74 ze[gCDywkʊB1,20220,Dy,67,0,0110,ArAz[,6,,True
