id,gid,name,latitude,longitude,address,satation_id,station_name,station_distance,station_time,genre_code,genre_name,review_count,access,paypay_flg
100000308391,enSTS06Y7eg,ق,43.03185781,144.31392986,kCHsߖ11-10,20267,Vy,4123,51,0101025,Ă,,JR{(V`H)^Vyщw k41 (3219m),False
100000307874,P6fELjN26AQ,H̖,43.00849642,144.39438862,kCHs2-21-15,20461,H,2363,29,0101025,Ă,,JR{(ԍ)(H`)^Hw k30 (2388m),False
100000307920,TPe1Z8txfJw,F΂ӂ,42.96238027,144.40948087,kCHs2-2-27,20177,H,4628,57,0101025,Ă,,JR{(ԍ)(H`)^Hw k46 (3649m),False
100000307903,3LS55gp6hMc,F[,43.00677796,144.27342954,kCHsy4-4-15,20097,y,903,11,0101025,Ă,,JR{(V`H)^yщw k4 (260m),False
100000307746,otv6KojSxEk,v,42.98352361,144.3856989,kCHsL4-1,20177,H,831,10,0101,aH,,JR{(V`H)^Hw k11 (886m),False
100000308515,CYeiuQpIxrM,قق,43.01131411,144.38240815,kCHs1-11-6,20177,H,2915,36,0101025,Ă,,JR{(V`H)^Hw k29 (2302m),False
100000307949,wxolAQpIxrM,F΂,43.01131411,144.38240815,kCHs1-11-6,20177,H,2915,36,0101025,Ă,,JR{(V`H)^Hw k29 (2302m),False
100000309074,bAZTVZ_r8bs,E낤,43.00699367,144.39088628,kCHs2-7-10,20461,H,2429,30,0101025,Ă,,JR{(V`H)^Hw k26 (2072m),False
100000307900,KObVE_1RRN2,F΂lv,42.98132125,144.39233434,kCHs쒬7,20177,H,1484,18,0101025,Ă,,JR{(V`H)^Hw k20 (1542m),False
100000899896,3SLBhs6UWfw,,42.984915285195,144.38885523317,kCHs㒬5-1,20177,H,965,12,0101025,Ă,,JR{(V`H)^Hw k13 (989m),False
100000307871,fhTQ3Q3H8Yk,܋v,42.98388586787471,144.38933392876663,kCHs㒬3-3-3,20177,H,1096,13,0101025,Ă,,JR{(V`H)^Hw k14 (1104m),False
214504891728855043,ue_4M3dho_k,WCpbN`LHaX,43.020794909709,144.35882891667,kCHsa3-16-23,20279,Vxm(kC),2458,30,01,O,,,True
142213196195790849,s6hIx06NAYY,HȂ,43.013775,144.310516,kCHsY4-4-15,20267,Vy,1567,19,0101012,i,,,True
ID100310,M7XQGcTx0tQ,͂܎i HʓX,43.011377449946,144.35925050299,kCHs2-6-7,20279,Vxm(kC),1624,20,0101013,]i,,,True
206880732072181760,LSTDOqqfOpo,F΂F,42.984097,144.386902,kCHsL4-9,20177,H,900,11,0101050,F[Ă,,,True
176677611510915073,1whXD6_z8MA, Ƃv,42.98259,144.387695,kCHsh 21-1,20177,H,1074,13,0101050,F[Ă,,,True
95767484275425281,6QT31zMnmGU,܉q,43.006943,144.39415,kCHs 215-16 AChr1F,20461,H,2310,28,0101012,i,,,True
118304,U0zvft0hpAY,킢H,42.98595657,144.38001889,kCHsK9-1 𗬃vU킢1F,20177,H,657,8,0101017,,1,,False
142616347596029953,20kNqRgM-rU,͂Ȃ܂邤ǂ CI[HaX,43.0270825,144.3604111,kCHsa4-18-1CI[HaXt[hR[g2F,20279,Vxm(kC),3402,42,0101018,ǂ,,,True
86579703119233025,bjWn6N990Gc, ؑ,42.983402,144.386673,kCHsL3 4 13G[r,20177,H,928,11,0101050,F[Ă,,,True
392000000000126701003109,6KGv1SZJ0hQ,߂Z HL˓X,42.9974184,144.409055,kCHsL3-1-7,20461,H,554,6,0101018,ǂ,,,False
125444,M9Wcm7vBM2U, ,42.96594183,144.42610673,kCHs42-7,20565,(kC),3980,49,0101017,,,,False
20130729407,IVv4nhc7nPo,Ƒ{X,42.972130833333,144.391882222222,kCHsؒR|PX,,,,,0101017,,18,,False
91535,GOPbVa0WlLo,t pVNX,42.92015369,144.00183341,kCHsʒ631-5,20506,Ð,4707,58,0101017,,,,False
20130211184,g3sJx2_2lYg,aHkl,43.046268611111,144.195558888889,kCHsߋuQ,20178,񂿂傤H`,246,3,0111001,HAH,12,,False
20130209298,UMVpPVxu3W-,,43.004051944444,144.372991111111,kCHsV쒬PR|U,,,,,0101015,Ƃ񂩂,5,,False
20130624041,MSIca5KVjfY,F΂Ђ傤,42.983556944444,144.388515277778,kCHshRڂQ,20177,H,1053,12,0101011,{,4,,False
20130577335,U3bOQYtF9Xk,ĂƂE݂,42.984459722222,144.388887222222,kCHs㒬SڂP,20177,H,1043,12,0101025,Ă,3,,False
20130207758,EjBgK5KVjfY,ʂ܂,42.983556944444,144.388515277778,kCHshRڂQ,20177,H,1053,12,0101050,F[Ă,4,,False
20130680161,8Gpf6I5R4g2,齒lG,42.985856666667,144.386365277778,kCHsLVڂV|`,20177,H,696,8,0101012,i,1,,False
20130212958,ioEsPeev_UU,Ћˊ,42.989947777778,144.383315555556,kCHskʂPSڂP|S,20177,H,138,1,0101017,,3,,False
20130733993,MzQCctU9YCE,,42.983556944444,144.388515277778,kCHshRڂQ|PQ,20177,H,1053,12,0101050,F[Ă,2,,False
20130216662,04avsgttcnc,F΂݂,42.999457777778,144.371502777778,kCHsᑐPR|PU,20177,H,1970,24,0101050,F[Ă,1,,False
20130521046,Q0gJL2S8yEQ,F΂ǂ񂮂,42.985017777778,144.388781666667,kCHs㒬TڂP,20177,H,1001,12,0101050,F[Ă,1,,False
20130217979,edV4B9eVZig,Ⴟ,43.011037500000,144.382689722222,kCHsPڂPP|U,,,,,0101050,F[Ă,1,,False
20130210313,_W69CAY3ZOw,Ƃ,42.983329166667,144.386751666667,kCHsLRڂT,20177,H,983,11,0101033,y,,,False
20130816086,33CizP9kf-g,F΂Â,43.008068611111,144.395735833333,kCHsQڂRU|PR,,,,,0101050,F[Ă,,,False
20130860703,-d-vSoYEvm-,SRW,42.984709722222,144.386401666667,kCHsLTڂPR,20177,H,773,9,0101029,DݏĂAĂ,,,False
20130871336,Dgz6vJMA4pk,YčH[@sL[,43.005905000000,144.393075000000,kCHsQڂPO|P,,,,,0101025,Ă,,,False
20130860696,bJwGUt2l1iU,F΂@,42.984545833333,144.388945555556,kCHs㒬SڂP,20177,H,1006,12,0101050,F[Ă,,,False
20130866048,V22FVpvkGuY,,42.984148611111,144.387568055556,kCHshSڂP,20177,H,932,11,0101050,F[Ă,,,False
20130209161,ZdmdTDGLkjU,đ叫RX,42.980405277778,144.401913888889,kCHsRQڂR|PQ,,,,,0101029,DݏĂAĂ,,,False
20130214179,7nxgxvtncYk,̏oY,43.017685277778,144.327842777778,kCHsYʂPڂX|V,,,,,0101050,F[Ă,,,False
20130422043,oRd3jsi7Tew,i,43.112772222222,144.125260277778,kCHsVPڂPP|T,,,,,0101012,i,,,False
20130423818,urwcWBWaptg,t,42.890080555556,143.933055000000,kCHsʒ{PڂT,20111,,151,1,0101017,,,,False
20130208147,GyBLFIpI4eA,,42.968594166667,144.420693333333,kCHsPQڂPR|P,,,,,0101050,F[Ă,,,False
20130868048,AI0I0rBRmZU,򂢏,43.022366111111,144.355931388889,kCHsaSڂRW|U,,,,,0101012,i,,,False
20130833125,YIJdi0TPU7g,ߏL,43.002744166667,144.395777500000,kCHs]PU|QR,20461,H,1913,23,0101050,F[Ă,,,False
20130854494,UrkHzxP-V_-,F[cd̂ނׂ[,43.014514166667,144.347665833333,kCHsʂTڂR|W,20279,Vxm(kC),1848,23,0101050,F[Ă,,,False
20130755367,OFWPvWw6qNk,F΂lԉ,42.979474166667,144.381760555556,kCHsMRڂU|P,20177,H,1522,19,0101050,F[Ă,,,False
20130422220,0pkqUWDITbM,,43.114358333333,144.126301944444,kCHsSڂQ|P,,,,,0101018,ǂ,,,False
20130603039,0bQYKga2Ryg,{VՂ炠c,43.022513333333,144.353695277778,kCHsaSڂRR|PR,,,,,0101014,VՂAg,,,False
20130209089,Q2Dag1vckcg,Hȓc,42.982582222222,144.393989722222,kCHsRPڂS|QP,20177,H,1658,20,0101012,i,,,False
20130205152,cZ-_ZoBmlxA,ӂ,42.993283888889,144.392917222222,kCHsx쒬P|QT,20177,H,1445,17,0101003,ۂ,,,False
20130215433,vsAhpST7rDI,F΂񂽂낤,42.989129444444,144.406696388889,kCHs΃PQڂQS|V,20461,H,1607,20,0101050,F[Ă,,,False
20130818724,kk9cU3WqWaU,YΏĂE,42.983534722222,144.387623611111,kCHshRڂP,20177,H,1007,12,0101025,Ă,,,False
20133018325,pFBA4lqJvqk,SĂǂ,42.992914166667,144.371303055556,kCHsSڂQ|U,20177,H,1096,13,0101050,F[Ă,,,False
20130218522,c9r_vLEjlh2,ӂV,43.021714444444,144.386805555556,kCHsSڂQV|PW,,,,,0101001,Η,,,False
20130823256,t50i77Hu93E,M,43.006932777778,144.394105277778,kCHsQڂPT|PU,,,,,0101025,Ă,,,False
20130205082,9xwRC-XGPZ6,݂,42.983634722222,144.389576111111,kCHs㒬RڂR,20177,H,1153,13,0101050,F[Ă,,,False
20130786114,F3bbHWjv_iI,ǂ,43.000196666667,144.379523888889,kCHshʂWڂP|R,,,,,0101018,ǂ,,,False
20130422455,0tsfxhGu0Hs,,43.433624444444,144.092146111111,kCHsΉSڂR|R,,,,,0101025,Ă,,,False
20130694583,Z6h5PTmmJE6,X,42.982579444444,144.387285000000,kCHsLQڂPR,20177,H,1112,13,0101053,aHȋj,,,False
20130872095,O05-bTFTv_Q,Ώ@ܗ,43.009548611111,144.383067500000,kCHsPڂQ|R,,,,,0101018,ǂ,,,False
20130207971,HEIi_6_z8MA,Hg,42.984687500000,144.388137500000,kCHshTڂQ,20177,H,979,11,0101011,{,,,False
20130208129,nCaqdoRgijc,F΂ӂꈤ,42.965708611111,144.431208888889,kCHsPTڂP|PO,,,,,0101050,F[Ă,,,False
20130422214,BjUdMtYxOYc,K,43.115299722222,144.127521111111,kCHsSڂR|RT,,,,,0101012,i,,,False
20130827111,Zx9son9oS62,lGނ,43.014319722222,144.347635277778,kCHsʂTڂR|Q,20279,Vxm(kC),1773,22,0101011,{,,,False
20130207981,ybqysno4g_o,Ƃ񂿂񂩂,43.007637777778,144.383286944444,kCHsPP|U,,,,,0101050,F[Ă,,,False
20130205163,wUslJ4xW0Ts,F΂Ƃ݂,42.984459722222,144.388887222222,kCHs㒬SڂP,20177,H,1043,12,0101050,F[Ă,,,False
20130790916,Vkp2b7s1n_o,LЂƂ,43.002505000000,144.378790555556,kCHsVʂPڂP|PX,,,,,0101013,]i,,,False
20130844289,PWQ5sTEMl4s,SċEт,42.983987500000,144.389759444444,kCHs㒬RڂR|R,20177,H,1082,13,0101029,DݏĂAĂ,,,False
