id,gid,name,latitude,longitude,address,satation_id,station_name,station_distance,station_time,genre_code,genre_name,review_count,access,paypay_flg
100000827991,fNp8iM4C5yI,t̒X l̕ꂳH,42.49814451,139.84390239,kCvSȒI挳Y930,,,,,0101034,CN,6,,False
100001454635,6dOpkZStdLk,Ƃ,42.41362232352381,139.87539599248623,kCvSȒkwRkwR83-2,,,,,0110,ArAz[,4,,False
100000826670,I9vbvt9INHI,݂H,42.41460150922009,139.87614599712447,kCvSȒkwRkwR267,,,,,0111,HAH,6,,False
100000317362,xoyo3V5m8Do,,42.4597172,139.85165049,kCvSȒIO{94,,,,,0101,aH,3,,True
100001209111,SydcNMMf9IQ,i,42.41355145246701,139.8761086837382,kCvSȒkwRkwR59-1,,,,,0101,aH,1,,False
100001490647,h0kCedAGuWY,Xg܂܂Ȃ zeЂ,42.41542187660585,139.8803074411219,kCvSȒkwR擿4-16 zeЂ,,,,,0111,HAH,1,,False
100001295778,gjQ9RjtQuYQ,ze Ђ H,42.41515524437421,139.88018216341732,kCvSȒkwR擿4Ԓn16,,,,,0111,HAH,8,,True
100000714459,fVs96P5tTWM,yhH,42.45349781128311,139.85105517729812,kCvSȒI{181-3,,,,,0107001,J[,1,,False
100000907529,19vcBqZjEpI,,42.413334914994,139.87642751897,kCvSȒkwRkwR44,,,,,0110,ArAz[,1,,True
100000317348,u_xDCEF0Qkk,,42.41736356,139.87920692,kCvSȒkwR擿21-3,,,,,0101017,,1,,False
100000908377,Jtg6Zv2JH22,ΏC,42.431249731171,139.8911659515,kCvSȒkwR擿440,,,,,0101017,,,,False
100001494901,tRZCxrhs0iM,,42.41508445171585,139.87551679611204,kCvSȒkwRkwR261-9,,,,,0108001,ē,,,False
100000909291,T-PJLEaaXpU,h,42.516661024799,139.84450809739,kCvSȒI擇154,,,,,0101034,CN,,,False
100000317340,3MYKziLfM1o,̎|,42.22566003,139.82000589,kCvSȒ听s245-4,,,,,0101,aH,,,False
100000903734,89DOEUys2VU,tF[H,42.450426899136,139.84863791801,kCvSȒI{1003 tF[^[~i2F,,,,,0101031,́AAeq,,,False
100000901689,nhoTeDkF0ac,IY@,42.45679859034638,139.84977371048274,kCvSȒIO{96,,,,,0101034,CN,,,True
100000317351,cLCAIWLOr5g,VЂ,42.41417204,139.87471289,kCvSȒkwRkwR88-7,,,,,0101014,VՂAg,,,False
100000903794,fyAcZCAgJbY,ƌ̋,42.453250110493,139.85069041544,kCvSȒI{243,,,,,0110,ArAz[,,,False
20130816411,7mrWX2f3tRE,DݏĂ,42.413711111111,139.875251666667,kCvSȒkwRkwRWS,,,,,0101029,DݏĂAĂ,,,False
20130342115,g6_BumSyrIo,,42.414533055556,139.875193333333,kCvSȒkwRkwRR|ST,,,,,0101012,i,,,False
20130342192,XP4G2woKSeY,,42.413930555556,139.875979444444,kCvSȒkwRkwRPP,,,,,0101012,i,,,False
