id,gid,name,latitude,longitude,address,satation_id,station_name,station_distance,station_time,genre_code,genre_name,review_count,access,paypay_flg
100000038851,BlGYhqIL-ng,‚¤‚Ç‚ñ‚ÌŒÜ‰q–å,43.02688533847742,141.76887082024473,–kŠC“¹—[’£ŒS—Rm’¬RŒ`322-1,20595,—Rm,2577,32,0101018,‚¤‚Ç‚ñ,10,D–ys“dR•@ü^¼‚W’š–Ú‰w “k•à4•ª (298m),False
100000902336,ztEAlZYa9aE,ˆêŒ¬’ƒ‰® Schwein,43.00292440589207,141.77091814016967,–kŠC“¹—[’£ŒS—Rm’¬•šŒ©83-1,20595,—Rm,2007,25,0115001,ƒJƒtƒF,3,JRº—––{ü(“Ï¬–q`ŠâŒ©‘ò)^—Rm‰w “k•à25•ª (1936m),False
100000317985,4TwBVFz3HSs,‚ ‚¯‚Ú‚ÌH“°,43.0116314,141.7842379,–kŠC“¹—[’£ŒS—Rm’¬’†‰›77,20595,—Rm,169,2,0101017,‚»‚Î,3,JRº—––{ü(“Ï¬–q`ŠâŒ©‘ò)^—Rm‰w “k•à3•ª (192m),False
148159574122799105,koUCZ3GqNKQ,‚¨‚É‚¬‚è ‚ ‚º‚Á‚±,42.949188,141.857712,–kŠC“¹—[’£ŒS—Rm’¬“ŒOì926,20543,Oì(–kŠC“¹),4835,60,0128001,‚»‚Ì‘¼,13,,True
100000317984,hwOFMu0m8eM,ˆä‚Ş‚ç‚»‚Îˆ,43.01469148,141.78895041,–kŠC“¹—[’£ŒS—Rm’¬“Œ‰h174-4,20595,—Rm,1122,14,0101017,‚»‚Î,1,JRº—––{ü(“Ï¬–q`ŠâŒ©‘ò)^—Rm‰w “k•à6•ª (440m),True
100000317982,XdZxeuJJcoo,–¡‚Æ‚è,43.01277493,141.78454536,–kŠC“¹—[’£ŒS—Rm’¬–{’¬269,20595,—Rm,131,1,0101025,Ä‚«’¹,,JRº—––{ü(“Ï¬–q`ŠâŒ©‘ò)^—Rm‰w “k•à2•ª (160m),False
100000317981,Qt4_JM23dcg,•Fõ‚µ,43.01075295,141.78503706,–kŠC“¹—[’£ŒS—Rm’¬’†‰›150,20595,—Rm,134,1,0101,˜aH,,JRº—––{ü(“Ï¬–q`ŠâŒ©‘ò)^—Rm‰w “k•à3•ª (186m),False
