,id,gid,name,latitude,longitude,address,satation_id,station_name,station_distance,station_time,genre_code,genre_name,review_count,access,paypay_flg
0,20230228955,vADqLcpCQFE,麗,40.825954166667,140.748286666667,青森県青森市本町２丁目６−４,20619,青森,1335,16,0119001,バー,,,False
1,20230035603,oi51VHDOqd6,ジュゴン,40.828718611111,140.787549722222,青森県青森市造道３丁目５−１１,20681,小柳(青森県),1635,20,0115002,喫茶店,,,False
2,20230028054,-JwSmj6t8t6,スマイルグランドスマイル古川店,40.825317777778,140.734495833333,青森県青森市古川１丁目５−６,20619,青森,495,6,0101003,割ぽう,,,False
3,20230227399,p2_rDeN9-pY,味千拉麺,40.802479166667,140.757245000000,青森県青森市大字浜田字玉川３４０,29725,筒井(青森県),1672,20,0106001,ラーメン,,,False
4,20230199859,tuOQuck119k,焼鳥けいちゃん,40.818412777778,140.717394166667,青森県青森市西滝２丁目１９−３,,,,,0101025,焼き鳥,,,False
5,20230179535,mgT6cEJXR4A,吉,40.824729166667,140.738884444444,青森県青森市古川１丁目１９−８,20619,青森,752,9,0110001,和風居酒屋,,,False
6,20230036422,PNxC5qZ2rvI,長治,40.831714166667,140.724443333333,青森県青森市沖館５丁目１−２９,20619,青森,826,9,0110001,和風居酒屋,,,False
7,20230217518,ucMwnuUZPow,居酒屋せん,40.815707777778,140.724457777778,青森県青森市久須志４丁目５−４,20619,青森,1819,22,0110001,和風居酒屋,,,False
8,20230219853,-xl0EMJEsQY,レストラン・モーニングエース・青森駅東,40.827876111111,140.739170555556,青森県青森市安方１丁目１１−２,20619,青森,479,5,0102004,洋食（その他）,,,False
9,20230205057,hdk-fe0MJ_k,やきとり屋福福,40.827341666667,140.677743888889,青森県青森市大字新城字平岡１７１−６,20718,津軽新城,627,7,0101025,焼き鳥,,,False
10,20230219893,s1GkF-4kBSc,有限会社アンジェリック,40.793646944444,140.757186666667,青森県青森市第二問屋町２丁目１２５−１,,,,,0118001,洋菓子、ケーキ,,,False
11,20230217416,Bj_YO4_tYAk,ＴＯＲＡＣＨＩＫＩ,40.717927777778,140.579518888889,青森県青森市浪岡大字女鹿沢字野尻２−３,,,,,0101029,お好み焼き、たこ焼き,,,False
12,20230194244,EgguNd18NJ2,ゆう（ＹＯＵ）カラオケ喫茶居酒屋,40.829086666667,140.701066944444,青森県青森市石江１丁目１５−２,20698,新青森,935,11,0110001,和風居酒屋,,,False
13,20230183199,qNS62Kow6tY,居酒屋さいこ,40.823556944445,140.733568333333,青森県青森市古川３丁目６−１８,20619,青森,605,7,0110001,和風居酒屋,,,False
14,20230230209,7eHAQhHdRsQ,心寧,40.825968055556,140.751053333333,青森県青森市本町５丁目４−３,20619,青森,1568,19,0110001,和風居酒屋,,,False
15,20230169212,XrmErXCf3is,鯛ふく,40.783268333333,140.791295277778,青森県青森市大字幸畑字阿部野１６３−６１,,,,,0118002,和菓子、甘味処、たい焼き,,,False
16,20230026623,6dUcH8aX0gA,レストランなぽり,40.822349444444,140.772565555556,青森県青森市花園２丁目９−３０,20752,東青森,1953,23,0102004,洋食（その他）,,,False
17,20230015984,jRGd3ZwjTr6,とみつる食堂,40.827171388889,140.778553611111,青森県青森市合浦２丁目１３−１８,,,,,0111001,定食、食堂,,,False
18,20230199601,UBXryHJCv76,食事処陽だまり,40.821079722222,140.745792777778,青森県青森市中央１丁目１３−２３,20619,青森,1632,20,0111001,定食、食堂,,,False
19,20230025544,sWBs9qwIP7E,韓国居酒屋ミョンドン,40.825320833333,140.751264444444,青森県青森市橋本１丁目１−５,20619,青森,1725,20,0110001,和風居酒屋,,,False
20,20230173890,bRV2KUQk6Mo,札幌ラーメン専門店　蔵,40.859201111111,140.680960277778,青森県青森市大字羽白字沢田７９６−１,20625,油川,1150,13,0106001,ラーメン,,,False
21,20230036122,3fqkYq6t0bc,居酒屋とまり樹,40.819625277778,140.792205277778,青森県青森市小柳３丁目３−９,20681,小柳(青森県),729,9,0110001,和風居酒屋,,,False
22,20230016859,T7H01qkhqik,有限会社つるや仕出し店,40.796450555556,140.796997222222,青森県青森市大字駒込字月見野３５８−２,,,,,0114001,持ち帰り専門、弁当,,,False
23,20230028865,SiYwiJPkZ2g,のんびり屋,40.812116944444,140.758780833333,青森県青森市奥野１丁目１８−１６,29725,筒井(青森県),1404,17,0114001,持ち帰り専門、弁当,,,False
24,20230221937,5TZZDMsjJZg,回転鮨処・あすか　大野店・出前専用,40.798071111111,140.744648888889,青森県青森市東大野２丁目７−４,,,,,0101013,回転寿司,,,False
25,20230218764,ib9nKdrePgM,ホテル青森５Ｆ　和食処みちのく,40.825196111111,140.755258611111,青森県青森市堤町１丁目１−２３,20619,青森,1984,24,0101011,日本料理,,,False
26,20230213254,mtwADZ7Pfjs,麒麟壱番館,40.828335277778,140.789568888889,青森県青森市造道３丁目１６−３６,20681,小柳(青森県),1406,17,0110001,和風居酒屋,,,False
27,20230223113,0MtNkO0SepM,ほてい寿し,40.827253611111,140.724240833333,青森県青森市篠田２丁目２０−２３,20619,青森,911,11,0101012,握り寿司,,,False
28,20230175523,ZbLpFRHVdLw,サンロード青森１Ｆ　ボンボア,40.807811944444,140.753292500000,青森県青森市緑３丁目９−２,,,,,0123001,ファミレス,,,False
29,20230221218,kRpCdrn3Fao,モンドール,40.828259166667,140.740190000000,青森県青森市安方１丁目１０−７,20619,青森,594,7,0117001,ベーカリー,,,False
30,20230030148,vul_dWvrBdI,タートヴァンワインバー,40.826829166667,140.753128055556,青森県青森市本町５丁目６−７,20619,青森,1829,21,0119001,バー,,,False
31,20230034766,jmFYGbw5Dmg,株式会社赤い林檎　本部,40.812909166667,140.782114722222,青森県青森市南佃１丁目１８−１５,20752,東青森,472,5,0118001,洋菓子、ケーキ,,,False
32,20230222078,z-Xjjb1KGm-,クラブミネルヴァ,40.825781944445,140.748456111111,青森県青森市本町２丁目６−２３,20619,青森,1369,17,0120003,クラブ,,,False
33,20230031897,VYcpOT3KNaM,ゴースト,40.826165277778,140.744428611111,青森県青森市新町２丁目７−３,20619,青森,1011,12,0120001,パブ,,,False
34,20230221509,aWmANqhJdYY,おうちＤＥ猫カフェ・ＰｏＰｏＫｉ,40.780871388889,140.787101388889,青森県青森市幸畑３丁目７−１０,,,,,0115001,カフェ,,,False
35,20230038361,M1XpuHbrRss,松尾ジンギスカン青森支店,40.820007222222,140.716696944444,青森県青森市西滝２丁目２６−２８,,,,,0108002,ジンギスカン,,,False
36,20230033031,Scx_ZNygSTg,長生きの茶屋,40.707999722222,140.823575833333,青森県青森市大字横内字八重菊６２,,,,,0307002,観光案内,,,False
37,20230219163,GmPgTGOHFbg,唐揚こぞう,40.795938611111,140.767958055556,青森県青森市大字筒井字八ツ橋７１−１５,29725,筒井(青森県),1483,18,0110001,和風居酒屋,,,False
38,20230181876,fnVIWIQwxew,居酒屋風すけ,40.824582222222,140.759488888889,青森県青森市堤町１丁目８−６,,,,,0110001,和風居酒屋,,,False
39,20230016555,GhxJl68bNwo,まるしん,40.780074444444,140.792609166667,青森県青森市大字幸畑字阿部野１６３−２０１,,,,,0114001,持ち帰り専門、弁当,,,False
40,20230227866,hGk93uw4Ttk,ゆったり居酒屋　きらき,40.811800000000,140.741587777778,青森県青森市旭町３丁目１５−２０,,,,,0110001,和風居酒屋,,,False
41,20230169553,5HAjhLy8B3k,アメーノ（ＡＭＥＮＯ）,40.826056666667,140.739203888889,青森県青森市新町１丁目１３−２,20619,青森,807,9,0123001,ファミレス,,,False
42,20230021531,iQ0j3rVdFHs,高原茶屋,40.766017777778,140.799040000000,青森県青森市大字田茂木野田代高原,,,,,0111001,定食、食堂,,,False
43,20230198018,3byMLXMcUcs,美鈴コーヒー株式会社青森営業所,40.800271111111,140.753436944444,青森県青森市浜田２丁目１５−９,,,,,0115002,喫茶店,,,False
44,20230164516,hzvLFItM5j6,ＴＯＮＩＣ,40.823526388889,140.734429166667,青森県青森市古川２丁目４−５,20619,青森,949,11,0119001,バー,,,False
45,20230227694,1V2Pg9i7hs-,きっすい,40.825707500000,140.775217777778,青森県青森市花園２丁目２２−９,,,,,0101011,日本料理,,,False
46,20230228145,xUxFQeAw4GQ,メモリーズ,40.825781944445,140.748456111111,青森県青森市本町２丁目６−１,20619,青森,1369,17,0119001,バー,,,False
47,20230217083,uejR8wtoxAQ,一心,40.825223611111,140.738845555556,青森県青森市古川１丁目１９−１４,20619,青森,671,8,0110001,和風居酒屋,,,False
48,20230220280,qupKp45gAMU,食事処夢楽多,40.805804166667,140.770607777778,青森県青森市桜川８丁目１４−５,29725,筒井(青森県),332,4,0111001,定食、食堂,,,False
49,20230227938,ZdTSO72bvzA,ラウンジ　ラフ,40.825804166667,140.747481388889,青森県青森市本町２丁目５−７,20619,青森,1315,16,0119001,バー,,,False
50,20230219158,9RbRqeNa5B6,豪めん　青森西バイパス店,40.834021944444,140.687440000000,青森県青森市大字新城字福田２６５−１７,20698,新青森,1184,14,0106001,ラーメン,,,False
51,20230223138,q7m2bnPPrUw,居酒屋ひのき,40.823893055556,140.744459166667,青森県青森市長島１丁目３−１４,20619,青森,1211,15,0110001,和風居酒屋,,,False
52,20230220274,aCoSite1Y2k,ＤＯＮＴＡＫＵパブ,40.825567777778,140.736762500000,青森県青森市古川１丁目１３−１４,20619,青森,512,6,0110001,和風居酒屋,,,False
53,20230199459,xbporLT_LiQ,Ｄｅａｒｓ,40.825223611111,140.748506111111,青森県青森市本町１丁目５−５,20619,青森,1383,17,0119001,バー,,,False
54,20230226288,UF8G7t9yPIE,麺や城　筒井店,40.797666111111,140.765902500000,青森県青森市大字筒井字八ツ橋１２９６,29725,筒井(青森県),1156,14,0106001,ラーメン,,,False
55,20230217858,hp7PUokVEHU,韓国食堂　てじ,40.826781944445,140.753480833333,青森県青森市本町５丁目６−１１,20619,青森,1722,21,0105001,韓国料理、朝鮮料理,,,False
56,20230025528,xLH4tmN3Yc-,赤い絲,40.828056666667,140.740237222222,青森県青森市安方１丁目１０−９,20619,青森,589,7,0119001,バー,,,False
57,20230023285,gTIObeSGdVw,とく・とく,40.823882500000,140.760177777778,青森県青森市堤町２丁目２３−２９,,,,,0110001,和風居酒屋,,,False
58,20230227535,KYRz2_YTQAc,あすか回転鮨処青森西バイパス店　出前専用,40.830272777778,140.704155555556,青森県青森市大字石江字三好１４２−１,20698,新青森,1297,16,0101013,回転寿司,,,False
59,20230030702,giY_zOPU_mU,三本コーヒー株式会社　青森支店,40.818310833333,140.762891666667,青森県青森市松原３丁目１１−２,29725,筒井(青森県),1890,23,0115002,喫茶店,,,False
60,20230022085,FmuBlffbXH-,ひかる食品,40.820563055556,140.748975833333,青森県青森市中央１丁目３２−２３,20619,青森,1915,23,0114001,持ち帰り専門、弁当,,,False
61,20233000758,36tkqg1kJgA,大野の居酒屋,40.798723611111,140.739396388889,青森県青森市大字大野字前田６４−２２,,,,,0110001,和風居酒屋,,,False
62,20230218755,9TKAE718NJ2,永井久慈良餅店　旬味館店,40.828358888889,140.693489722222,青森県青森市大字石江字高間１４０−２,20698,新青森,81,1,0118002,和菓子、甘味処、たい焼き,,,False
63,20230029469,CbC_q8WLjdk,真呼夢の館,40.826390277778,140.747897777778,青森県青森市本町２丁目７−２１,20619,青森,1410,16,0119001,バー,,,False
64,20230030783,ta44pbAYQCY,ポニードール松原店,40.816691666667,140.763216666667,青森県青森市松原３丁目９−２,,,,,0117001,ベーカリー,,,False
65,32570,Ztwvm0qjNok,ファミール青森店,40.8008069,140.7490679,青森県青森市浜田1-14-1,29725,筒井(青森県),2521,31,0123001,ファミレス,,,False
66,33297,vd6kfjcT2Z6,ホテル青森スカイレストラン「ル・ボア」,40.8252043,140.7554086,青森県青森市堤町1丁目1-23,20619,青森,1994,24,01,グルメ,,,False
67,1568339976840,I4BBoJY4CNM,あさむし古民家カフェapricot,40.88920869,140.86285428,青森県青森市大字浅虫蛍谷65,20622,浅虫温泉,287,3,0115001,カフェ,,,False
0,100000732250,uVVIhdGa7Io,レストラン山崎,40.6024413,140.4703247,青森県弘前市親方町41 小田桐ビル 1F,20709,中央弘前,476,5,0102005,フランス料理（フレンチ）,33,弘南鉄道大鰐線／中央弘前駅 徒歩6分 (421m),False
1,100000704900,M6iSN4LIhKM,たかはし中華そば店,40.6201365745801,140.49534859259,青森県弘前市撫牛子1-3-6,20733,撫牛子,416,5,0106001,ラーメン,30,JR奥羽本線(新庄〜青森)／撫牛子駅 徒歩4分 (283m),False
2,100000250613,hXxiJtE7tbI,高砂,40.60211564595262,140.46865302637434,青森県弘前市親方町1-2,20709,中央弘前,635,7,0101017,そば,21,弘南鉄道大鰐線／中央弘前駅 徒歩7分 (518m),False
3,100000799963,3oUcBl8QpfE,とんかつ 喜多八,40.5960669908,140.494442026,青森県弘前市外崎4-5-23,20753,弘前東高前,924,11,0101015,とんかつ,20,弘南鉄道弘南線／弘前東高前駅 徒歩10分 (778m),False
4,100000832226,DlmRG81UWLo,三忠食堂 本店,40.6071328538427,140.482621372999,青森県弘前市和徳町164,20758,弘前,1125,14,0111,定食、食堂,20,JR奥羽本線(新庄〜青森)／弘前駅 徒歩12分 (934m),False
5,100000229081,f30C_kKTeK6,菊富士本店,40.600997522246,140.47416865825994,青森県弘前市坂本町1,20709,中央弘前,286,3,0101011,日本料理,19,弘南鉄道大鰐線／中央弘前駅 徒歩4分 (300m),True
6,100000884192,VfrUzCK918o,可否屋 葡瑠満,40.606459175891,140.46831071377005,青森県弘前市下白銀町17-39,20709,中央弘前,1142,14,0115002,喫茶店,17,弘南鉄道大鰐線／中央弘前駅 徒歩12分 (920m),False
7,100000827738,PzrjSzuHrVs,津軽居酒屋 わいわい,40.59724440,140.48315994,青森県弘前市大町1-3-15,20758,弘前,351,4,0110,居酒屋、ビアホール,16,JR奥羽本線(新庄〜青森)／弘前駅 徒歩4分 (304m),True
8,100001159624,7BypbCQWT_A,田沢食堂,40.59949094709997,140.4599000756,青森県弘前市茂森町97,20709,中央弘前,1311,16,0101,和食,13,弘南鉄道大鰐線／弘高下駅 徒歩15分 (1165m),False
9,100001224068,PlLwzA1oJzU,スターバックスコーヒー　弘前公園前店,40.60338396809653,140.46307077407835,青森県弘前市上白銀町1-1,20709,中央弘前,1152,14,0115001,カフェ,13,弘南鉄道大鰐線／中央弘前駅 徒歩14分 (1118m),False
10,100001253679,JLVy3EvwSxc,弐代目 にぼshin. 高崎店,40.60844784679972,140.49231422841547,青森県弘前市高崎2-1-6,20758,弘前,1645,20,0106001,ラーメン,12,JR奥羽本線(新庄〜青森)／弘前駅 徒歩16分 (1263m),True
11,100000751155,rWUWwK5X70A,中みそ,40.6019303,140.4729635,青森県弘前市土手町49-1 B1F,20709,中央弘前,344,4,0106001,ラーメン,12,弘南鉄道大鰐線／中央弘前駅 徒歩4分 (321m),False
12,100001050683,x3S3pZ3qj8E,福や銀次郎,40.60013247044783,140.4713690051127,青森県弘前市新鍛冶町63,20709,中央弘前,151,1,0101031,丼もの、牛丼、親子丼,11,弘南鉄道大鰐線／中央弘前駅 徒歩2分 (146m),True
13,100001333256,UXrsIr1vdWU,八甲田食堂,40.59914428310951,140.46941071017136,青森県弘前市桶屋町31-1,20709,中央弘前,423,5,0106001,ラーメン,10,弘南鉄道大鰐線／中央弘前駅 徒歩4分 (250m),False
14,100000798398,vFKPLmqpFHg,PEPE KITCHEN,40.60228725024767,140.48887608465577,青森県弘前市稲田2-1-1,20758,弘前,1284,16,0102003,ハンバーガー,10,JR奥羽本線(新庄〜青森)／弘前駅 徒歩7分 (514m),False
15,100000884649,BXp0ZzpwoP6,大正浪漫喫茶室,40.603589291608095,140.46141432921127,青森県弘前市上白銀町8-1 藤田記念庭園内,20709,中央弘前,1245,15,0115002,喫茶店,10,弘南鉄道大鰐線／中央弘前駅 徒歩17分 (1312m),False
16,100000777026,C4bgadEc6zA,常寿し,40.601586,140.471439,青森県弘前市新鍛冶町9-2,20709,中央弘前,318,3,0101,和食,10,弘南鉄道大鰐線／中央弘前駅 徒歩4分 (284m),False
17,100000822928,eZurUV1SLdo,四季亭,40.6023961313184,140.470477566814,青森県弘前市親方町43 第一木村ビル1F,20709,中央弘前,463,5,0110,居酒屋、ビアホール,10,弘南鉄道大鰐線／中央弘前駅 徒歩6分 (409m),False
18,100001084359,Uc_l-H5FmME,ふじや,40.602074198145786,140.47178874554106,青森県弘前市土手町36-6 プラザシャルマン2F,20709,中央弘前,382,4,0101011,日本料理,8,弘南鉄道大鰐線／中央弘前駅 徒歩5分 (328m),False
19,100001086685,ZyhXG_ziF3-,鮨 たむら,40.60213630039132,140.47142569863774,青森県弘前市土手町31土手町コミュニティーパーク ごちそうプラザ内,20709,中央弘前,379,4,0101,和食,5,弘南鉄道大鰐線／中央弘前駅 徒歩4分 (321m),False
20,100000713584,bUTSxIUPLuo,鄭錫門,40.6043563371263,140.51029855257207,青森県弘前市早稲田1-13-13,20742,新里(青森県),2442,30,0104001,中華料理,20,弘南鉄道弘南線／運動公園前（青森）駅 徒歩23分 (1841m),False
21,100000323272,xxTyOHGqZcE,ゐざかや 團,40.6018747,140.47069699999997,青森県弘前市鍛冶町-1-201号,20709,中央弘前,376,4,0110,居酒屋、ビアホール,15,弘南鉄道大鰐線／中央弘前駅 徒歩5分 (346m),False
22,100000918148,6hIC7g-0qp6,ラグノオ,40.6035007581,140.47206327180015,青森県弘前市百石町9,20709,中央弘前,578,7,0118001,洋菓子、ケーキ,10,弘南鉄道大鰐線／中央弘前駅 徒歩6分 (484m),True
23,100000839344,64C6NTXW9hk,さかなや道場 弘前駅前店,40.59978517117629,140.48358189552596,青森県弘前市駅前1-1-10 宝塚ビル1F,20758,弘前,176,2,0110,居酒屋、ビアホール,9,JR奥羽本線(新庄〜青森)／弘前駅 徒歩2分 (159m),True
24,100000724063,2bA-lqqwM9g,なかた屋 神田店,40.61759226760028,140.48514435767208,青森県弘前市神田2-6-1,20733,撫牛子,1623,20,0106001,ラーメン,10,JR奥羽本線(新庄〜青森)／撫牛子駅 徒歩18分 (1444m),False
25,100001443013,jKz_57QU4CQ,焼肉 にくがとう 弘前店,40.61477069920456,140.48207740521673,青森県弘前市田町5-7-1,20733,撫牛子,2030,25,0108001,焼肉,2,JR奥羽本線(新庄〜青森)／弘前駅 徒歩23分 (1775m),False
26,100001154283,xhpQXLebEL-,パスタヤ,40.59927448429021,140.4820566498986,青森県弘前市駅前町15-6,20758,弘前,321,4,0102002,パスタ、ピザ,10,JR奥羽本線(新庄〜青森)／弘前駅 徒歩5分 (332m),False
27,100000958491,2bA-ltGxHfU,なかた屋 高田店,40.596169875619,140.50802241609,青森県弘前市高田5-10-1,20636,運動公園前(青森県),1629,20,0106001,ラーメン,10,弘南鉄道弘南線／運動公園前（青森）駅 徒歩12分 (933m),False
28,100001444131,pLi9VUYvfnU,中華そば 山田,40.60026548090361,140.47434100858095,青森県弘前市土手町85-1,20709,中央弘前,180,2,0106001,ラーメン,2,弘南鉄道大鰐線／中央弘前駅 徒歩3分 (225m),False
29,100001351492,E3aYKtzkAeU,ギャレスのアジト,40.607349954104414,140.489548317791,青森県弘前市松ケ枝5-7-9 2F,20758,弘前,1418,17,0119001,バー,4,JR奥羽本線(新庄〜青森)／弘前駅 徒歩13分 (998m),False
30,100000843620,DhUoEFNQ3lM,幡,40.60723994020893,140.49508901474996,青森県弘前市高崎2-13-2,20758,弘前,2039,25,0106001,ラーメン,13,JR奥羽本線(新庄〜青森)／弘前駅 徒歩17分 (1360m),True
31,100000322985,afeTkH0AQp2,みんぱい,40.61750034,140.48074199,青森県弘前市八幡町2-8-7,20733,撫牛子,2009,25,0104005,四川料理,28,JR奥羽本線(新庄〜青森)／撫牛子駅 徒歩24分 (1920m),False
32,t100376072,XebvG8ZLJAA,焼肉レストラン　大満,40.5987421,140.4877322,青森県弘前市城東中央1丁目1-22 ,20753,弘前東高前,992,12,0108001,焼肉,6,JR弘前駅城東口より徒歩2分。,True
33,100000879242,vLp3S0_yqHg,日本海庄屋弘前駅前店,40.599711996205976,140.48373238154295,青森県弘前市駅前1-1-7 1･2F,20758,弘前,162,2,0101034,海鮮料理,20,JR奥羽本線(新庄〜青森)／弘前駅 徒歩2分 (148m),False
34,t100341192,5-FS4Q-0qp6,わいん食堂　La　Paix,40.603494,140.4721079,青森県弘前市百石町9 サンクビル2F,20709,中央弘前,582,7,0119004,ダイニングバー,4,,True
35,t100338530,ZgmuUa5X70A,KANDY SPICE,40.5987547,140.4753414,青森県弘前市土手町78 ルネスアリー1F,20709,中央弘前,326,4,0107002,スープカレー,2,弘南鉄道大鰐線／中央弘前駅 徒歩4分 (280m),False
36,100000322763,TsklsrYwKaw,鳥ふじ,40.60192403,140.46907147,青森県弘前市親方町1-9,20709,中央弘前,540,6,0101025,焼き鳥,13,弘南鉄道大鰐線／中央弘前駅 徒歩6分 (465m),False
37,t100508621,ROuFIMptO-k,居酒屋 あどはだり,40.6003201,140.4732364,青森県弘前市土手町78 ルネスアリー1階,20709,中央弘前,161,2,0110001,和風居酒屋,,弘南鉄道大鰐線「中央弘前駅」より徒歩1分　ルネスアリー内,False
38,t100508607,hkXREqftAiI,PIZZERIA MIA,40.5985596,140.476467,青森県弘前市代官町3-1 弘学館ビル1F,20709,中央弘前,484,6,0102006,イタリア料理（イタリアン）,,弘南鉄道大鰐線／中央弘前駅 徒歩6分 (440m),False
39,100001101759,TxBZ5wp0EGs,はすや,40.599137945355,140.47561530036,青森県弘前市上瓦ケ町1-1,20709,中央弘前,348,4,0110,居酒屋、ビアホール,4,弘南鉄道大鰐線／中央弘前駅 徒歩5分 (379m),False
40,t100338520,mfReSqCJqG2,炭火やきとり　焔,40.5972449,140.4831604,青森県弘前市大町1-3-15 駅前カネヨビル2階,20758,弘前,351,4,0110001,和風居酒屋,,JR弘前駅から歩いて5分です。,True
41,100000323159,3_S3Jrigh7g,カレー&コーヒーかわしま,40.59811076,140.4761297,青森県弘前市土手町136,20709,中央弘前,438,5,0107001,カレー,17,弘南鉄道大鰐線／中央弘前駅 徒歩6分 (451m),False
42,100000995277,9KgAfzx_Xkk,マルミツ食堂,40.58626259543052,140.45370929967464,青森県弘前市若葉1-5-4,20745,弘前学院大前,1798,22,0108003,ホルモン,3,弘南鉄道大鰐線／弘高下駅 徒歩23分 (1770m),False
43,100000323924,XdikJVcOc3U,串の坊,40.60109915,140.47034368,青森県弘前市鍛冶町22-1 カネヨビル1F,20709,中央弘前,381,4,0110,居酒屋、ビアホール,13,弘南鉄道大鰐線／中央弘前駅 徒歩4分 (299m),True
44,100000864064,OURgc88DKak,味喜や,40.603184999449525,140.49625255894466,青森県弘前市城東中央4-7-8,20753,弘前東高前,1888,23,0101,和食,13,JR奥羽本線(新庄〜青森)／弘前駅 徒歩17分 (1305m),True
45,100000740329,QZqgU8zJHtE,いもや,40.61090189820894,140.4815662478851,青森県弘前市田町1-8-3,20709,中央弘前,1613,20,0101014,天ぷら、揚げ物,27,JR奥羽本線(新庄〜青森)／弘前駅 徒歩17分 (1299m),False
46,100000751722,a3SbhL6Jji-,虹のマート,40.5990197,140.4817243,青森県弘前市駅前町12-1,20758,弘前,367,4,0111,定食、食堂,10,JR奥羽本線(新庄〜青森)／弘前駅 徒歩5分 (374m),False
47,100001235918,RqeJhX6_bPQ,彦庵,40.59427489999999,140.44957090000003,青森県弘前市茂森新町4-3-7,20757,弘高下,1830,22,0101017,そば,15,弘南鉄道大鰐線／弘高下駅 徒歩26分 (2073m),True
48,100000917484,O4iI1Qc-Z8E,パティスリーヴェルジェ,40.60399154827941,140.47240009889128,青森県弘前市百石町18,20709,中央弘前,639,7,0118,スイーツ,9,弘南鉄道大鰐線／中央弘前駅 徒歩7分 (539m),True
49,100001002518,I5E48f2cD1M,喫茶室baton,40.604896399952956,140.46230432361938,青森県弘前市下白銀町1-6弘前市民会館 2F,20709,中央弘前,1519,18,0115001,カフェ,8,弘南鉄道大鰐線／中央弘前駅 徒歩16分 (1282m),True
50,100000716490,-RjarxZtrvQ,豪華楼,40.59794755555839,140.48239034939695,青森県弘前市駅前町7-5,20758,弘前,350,4,0104001,中華料理,12,JR奥羽本線(新庄〜青森)／弘前駅 徒歩4分 (301m),True
51,t100341208,mA-90J4rzEs,Casual lounge Flavor,40.6021524,140.4702331,青森県弘前市親方町42 ハイネス親方1F,20709,中央弘前,430,5,0119004,ダイニングバー,,,True
52,100001207186,M6xG08q5PUQ,居酒屋まつや,40.600205038935094,140.4680442601442,青森県弘前市本町72-1,20709,中央弘前,509,6,0110,居酒屋、ビアホール,6,弘南鉄道大鰐線／中央弘前駅 徒歩6分 (476m),False
53,100000012702,QW1MYN4ZoiA,chez-moi,40.60189184012539,140.4787663755326,青森県弘前市代官町53-2,20758,弘前,763,9,0102005,フランス料理（フレンチ）,7,JR奥羽本線(新庄〜青森)／弘前駅 徒歩10分 (734m),False
54,100001386544,n7c4mIr1z46,煮干結社 弘前店,40.60342199999999,140.46977000000004,青森県弘前市元寺町9 三上ビル1F,20709,中央弘前,634,7,0106002,つけ麺,5,弘南鉄道大鰐線／中央弘前駅 徒歩7分 (534m),False
55,100001161393,bM1myaxfUZ-,居酒屋あかちょうちん,40.60141893302429,140.46989282894606,青森県弘前市鍛冶町14,20709,中央弘前,416,5,0110,居酒屋、ビアホール,2,弘南鉄道弘南線／黒石（青森）駅 徒歩14分 (1085m),False
56,100001047109,tBKVvdyIpQ-,山小屋,40.601304702411,140.47268395642,青森県弘前市土手町60 山田ビル 2F,20709,中央弘前,269,3,0119004,ダイニングバー,5,弘南鉄道大鰐線／中央弘前駅 徒歩3分 (246m),False
57,100000733837,Ha8_owAeHjY,中華そば八助,40.600917,140.49140669999997,青森県弘前市城東中央3-1-15,20753,弘前東高前,1353,16,0106001,ラーメン,10,JR奥羽本線(新庄〜青森)／弘前駅 徒歩9分 (722m),False
58,s000220698,TSiC3eyLsfA,とりでん弘前土手町店,40.59796631,140.47569363,青森県弘前市土手町135  ,20709,中央弘前,436,5,0101026,串焼き,46,,False
59,100001301274,VmXpvlQqIa6,中華そば 文四郎,40.59373934149284,140.49390301892132,青森県弘前市小比内1-1-22,20753,弘前東高前,646,8,0106001,ラーメン,9,弘南鉄道弘南線／弘前東高前駅 徒歩9分 (675m),False
60,100001266688,_ekkA1fhqoM,深夜バル Cosolatto,40.599850683846796,140.4710422992706,青森県弘前市新鍛冶町79-1 マルケイ会館1F,20709,中央弘前,231,2,0119001,バー,3,弘南鉄道大鰐線／中央弘前駅 徒歩2分 (151m),True
61,100000819503,d02wFdbSpY-,一休寿司,40.59880010,140.49035933,青森県弘前市城東2-1-3,20753,弘前東高前,1033,12,0101,和食,16,JR奥羽本線(新庄〜青森)／弘前駅 徒歩8分 (618m),True
62,100001197618,4CbWWZ7db2Q,ル キャッスル ファクトリー,40.60488211,140.47142112,青森県弘前市上鞘師町24-1 ホテルニューキャッスル 1F,20709,中央弘前,781,9,0102,洋食,8,弘南鉄道大鰐線／中央弘前駅 徒歩9分 (666m),True
63,100000730143,spHu03tO9Kc,ホルモンしち弥,40.6002109,140.4697749,青森県弘前市桶屋町-49,20709,中央弘前,294,3,0108003,ホルモン,6,弘南鉄道大鰐線／中央弘前駅 徒歩4分 (294m),False
64,100001341789,vacjAqnlNl2,そば好きの店 岩,40.60691854471034,140.4709521840614,青森県弘前市東長町13-4,20709,中央弘前,1122,14,0101017,そば,6,弘南鉄道大鰐線／中央弘前駅 徒歩11分 (846m),False
65,100000322940,Krml7F6i_ew,マルヨ食堂,40.55203247,140.54980027,青森県弘前市石川字庄司川添91-1,20630,石川(弘南鉄道線),932,11,0106001,ラーメン,3,弘南鉄道大鰐線／石川プール前駅 徒歩13分 (972m),False
66,100000323014,4KFucqyGFa6,小料理志乃家,40.60264939,140.48286515,青森県弘前市駅前1-4-20,20758,弘前,534,6,0101003,割ぽう,5,JR奥羽本線(新庄〜青森)／弘前駅 徒歩5分 (403m),False
67,100001214136,KPTpVxQyztE,Bistro×Steak DOTERIA -ドテリア,40.60228836448531,140.47182550430296,青森県弘前市土手町31 ごちそうプラザ,20709,中央弘前,406,5,0102005,フランス料理（フレンチ）,3,弘南鉄道大鰐線／中央弘前駅 徒歩5分 (352m),False
68,100000323064,VqIUO5NSskQ,支那そばおぐら,40.57907837,140.51786616,青森県弘前市川合字浅田27-1,20742,新里(青森県),1312,16,0106001,ラーメン,8,弘南鉄道弘南線／新里（青森）駅 徒歩12分 (955m),False
69,100001425621,rs5xPath696,セルフうどん・ラーメン 神製麺所,40.59289955303791,140.51940994479196,青森県弘前市新里東里見112-3,20742,新里(青森県),768,9,0101018,うどん,3,弘南鉄道弘南線／新里（青森）駅 徒歩8分 (617m),True
70,100000323078,emc2UrItrVs,ぶんぷく茶がま,40.58538146,140.47496397,青森県弘前市富田町193,20745,弘前学院大前,515,6,0106001,ラーメン,23,弘南鉄道大鰐線／弘前学院大前駅 徒歩7分 (528m),False
71,100001442673,bw3vMv0kY1-,むらさわ,40.5989725,140.4821187,青森県弘前市駅前町15-12,20758,弘前,371,4,0101011,日本料理,2,JR奥羽本線(新庄〜青森)／弘前駅 徒歩4分 (306m),False
72,100000772517,BJnKP6JzneY,文ちゃんラーメン,40.59953339062491,140.49540409847077,青森県弘前市外崎2-1-2,20753,弘前東高前,1436,17,0106001,ラーメン,15,JR奥羽本線(新庄〜青森)／弘前駅 徒歩14分 (1061m),True
73,100000323289,1PEjYJWFGe-,居酒屋夢地,40.6023968,140.46948870000006,青森県弘前市親方町29 みかさの会館 1F,20709,中央弘前,538,6,0110,居酒屋、ビアホール,14,弘南鉄道大鰐線／中央弘前駅 徒歩6分 (470m),False
74,100000921798,FhvjZeRZVKI,中華そば マル金,40.602504510786,140.46434909105005,青森県弘前市上白銀町1-10,20709,中央弘前,921,11,0106001,ラーメン,7,弘南鉄道大鰐線／中央弘前駅 徒歩12分 (948m),False
75,s000203190,aB5qNu8Fty6,浜焼太郎　弘前店,40.59983817,140.47008268,青森県弘前市大字桶屋町9 老松ビル１０１,20709,中央弘前,346,4,0101034,海鮮料理,7,,True
76,100000322670,r-NOTB5JuE6,なかさん,40.59639979,140.47521043,青森県弘前市富田1-3-16,20709,中央弘前,533,6,0101003,割ぽう,12,弘南鉄道大鰐線／中央弘前駅 徒歩6分 (452m),True
77,100000720937,K3x5GkZB93g,BAR-DINING　itsumo,40.601569,140.47066100000006,青森県弘前市鍛冶町7-4,20709,中央弘前,356,4,0119001,バー,5,弘南鉄道大鰐線／中央弘前駅 徒歩4分 (319m),False
78,100000740817,yNvAy7c3BGg,TUBE LANE,40.59952400830725,140.4748693681023,青森県弘前市土手町107 ブランメルビル 2F,20709,中央弘前,246,3,0115001,カフェ,10,弘南鉄道大鰐線／中央弘前駅 徒歩4分 (299m),False
79,100000880083,OaINmwCebRY,サムギョプサル専門店 BOO豚,40.60153478209196,140.5009960492879,青森県弘前市末広2-2-8,20753,弘前東高前,1936,24,0105001,韓国料理、朝鮮料理,4,弘南鉄道弘南線／運動公園前（青森）駅 徒歩17分 (1362m),False
80,100001259136,UuWe3TyfZ6Q,麺や どん喜,40.60880517,140.50443806,青森県弘前市末広5-4-7,20733,撫牛子,1985,24,0106001,ラーメン,3,JR奥羽本線(新庄〜青森)／撫牛子駅 徒歩19分 (1495m),False
81,100000322827,sRLX2NxZwT2,そば処草乃庄,40.59953695,140.50816872,青森県弘前市高田4-3-5,20636,運動公園前(青森県),2053,25,0101017,そば,8,弘南鉄道弘南線／運動公園前（青森）駅 徒歩16分 (1257m),True
82,100000323019,rfwbVY4dmvE,アンジェリック,40.60751642694051,140.4799447892608,青森県弘前市野田1-3-16,20709,中央弘前,1220,15,0115001,カフェ,38,JR奥羽本線(新庄〜青森)／弘前駅 徒歩14分 (1089m),False
83,100000782508,neEyevR4kjI,かつ亭,40.596723,140.47605199999998,青森県弘前市品川町33,20709,中央弘前,482,6,0101015,とんかつ,13,弘南鉄道大鰐線／中央弘前駅 徒歩7分 (505m),False
84,s000094739,zWIGIPWFfKs,津軽の酒処　わたみ,40.59803877,140.4832321099,青森県弘前市駅前町6-3 1・2F,20758,弘前,257,3,0110001,和風居酒屋,22,,True
85,100000819330,1LL7c7qhD5I,杏,40.602320307448174,140.47057252967215,青森県弘前市親方町44-1二幸ビル1F,20709,中央弘前,448,5,0101,和食,14,弘南鉄道大鰐線／中央弘前駅 徒歩5分 (396m),False
86,100000835250,5eH07BofddQ,シド亭,40.57128781,140.52492699,青森県弘前市堀越柳田92-2,20742,新里(青森県),2377,29,0102001,ステーキ、ハンバーグ,20,弘南鉄道大鰐線／津軽大沢駅 徒歩22分 (1738m),False
87,100000322678,0pkqUg9V9P2,東家,40.60431361,140.49498647,青森県弘前市城東北3-1-12,20758,弘前,1854,23,0101,和食,11,JR奥羽本線(新庄〜青森)／弘前駅 徒歩16分 (1218m),False
88,100000758769,NPX8FjKOc9U,Galcom de Bar,40.600234,140.470041,青森県弘前市桶屋町5-1,20709,中央弘前,267,3,0119001,バー,5,弘南鉄道大鰐線／中央弘前駅 徒歩4分 (269m),False
89,100000322705,fpKlTsbOZRw,龍三郎本店,40.62833794,140.48814362,青森県弘前市大久保字西田124-1,20733,撫牛子,1515,18,0101013,回転寿司,10,JR奥羽本線(新庄〜青森)／撫牛子駅 徒歩17分 (1310m),False
90,100000745286,2g8JddH0ygM,中華そば マル真,40.62938065511384,140.4596758702464,青森県弘前市石渡4-16-1,20733,撫牛子,3733,46,0106001,ラーメン,10,弘南鉄道大鰐線／中央弘前駅 徒歩46分 (3614m),False
91,100000954271,mmNdJFzT56c,アソベの森 いわき荘,40.620742539441,140.33407987738,青森県弘前市百沢字寺沢28-29,,,,,0101011,日本料理,31,,False
92,100001444985,jzFLe4k5t4o,Pommeris,40.60471421819036,140.46953337949117,青森県弘前市元寺町36-1,20709,中央弘前,815,10,0102,洋食,2,弘南鉄道大鰐線／中央弘前駅 徒歩9分 (670m),False
93,100001393341,BX5XgdCF39A,寿司酒場 しもやま,40.600358099794086,140.4709030530671,青森県弘前市新鍛冶町65 65ビル1F,20709,中央弘前,202,2,0110,居酒屋、ビアホール,2,弘南鉄道大鰐線／中央弘前駅 徒歩3分 (203m),False
94,100001328558,AZ2mFRXreeY,鮨たか,40.5978752,140.47504690000005,青森県弘前市品川町1-2,20709,中央弘前,329,4,0101,和食,2,弘南鉄道大鰐線／中央弘前駅 徒歩5分 (333m),True
95,100001297798,uxuWdutZa5w,麺屋 たか虎,40.57980777,140.49537115,青森県弘前市大清水3-7-3,20636,運動公園前(青森県),1383,17,0106001,ラーメン,6,弘南鉄道弘南線／運動公園前（青森）駅 徒歩17分 (1353m),False
96,100001208608,BBnoDYsaYnE,茶房ココ,40.59827439189857,140.48329999446867,青森県弘前市駅前町6-1,20758,弘前,247,3,0115002,喫茶店,10,JR奥羽本線(新庄〜青森)／弘前駅 徒歩4分 (249m),False
97,100000883929,-OTAuqdOHZw,らあめん花月嵐 弘前安原店,40.57628417462706,140.49113631248213,青森県弘前市泉野1-4-4,20711,千年,1406,17,0106001,ラーメン,17,弘南鉄道大鰐線／小栗山駅 徒歩18分 (1421m),False
98,100000212757,bJ8q4n5FmME,万茶ン,40.602047,140.47181899999998,青森県弘前市土手町36-6,20709,中央弘前,386,4,0115001,カフェ,17,弘南鉄道大鰐線／中央弘前駅 徒歩4分 (325m),False
99,100000057262,OlU0EiD19Rs,すずめのお宿,40.5984972,140.4707611,青森県弘前市桶屋町55-4,20709,中央弘前,306,3,0101003,割ぽう,16,弘南鉄道大鰐線／中央弘前駅 徒歩3分 (175m),False
0,100000170795,z38-YJ6MsDk,ル・ショコラ,40.6036356,140.4732634,青森県弘前市徒町17-1,20709,中央弘前,667,8,0118001,洋菓子、ケーキ,9,弘南鉄道大鰐線／中央弘前駅 徒歩7分 (512m),False
1,100000538382,dXjZB4lyc4s,スタミナ一番・屋台スピリッツ,40.572281,140.4944941,青森県弘前市泉野5-5-15,20711,千年,1378,17,0106001,ラーメン,13,弘南鉄道大鰐線／小栗山駅 徒歩16分 (1240m),False
2,100000920643,iu9QZq-hq4s,藪きん,40.601001595234,140.46998441219,青森県弘前市鍛冶町26,20709,中央弘前,354,4,0106001,ラーメン,11,弘南鉄道大鰐線／中央弘前駅 徒歩4分 (321m),False
3,100000989560,A0kg_STVhFk,プラッセリー・テイシャクモン・プー,40.604355991428,140.51047370388,青森県弘前市早稲田1-13,20742,新里(青森県),2427,30,0115001,カフェ,1,弘南鉄道弘南線／運動公園前（青森）駅 徒歩24分 (1850m),False
4,100000832950,IhA7Gz_loW2,新雅飯店,40.60865,140.496536,青森県弘前市城東北3-10-31,20733,撫牛子,2042,25,0104001,中華料理,4,JR奥羽本線(新庄〜青森)／撫牛子駅 徒歩18分 (1409m),False
5,100000955684,cWvo3VkyLO6,なじみ,40.597865143975,140.48275869679,青森県弘前市駅前町第二カネヨビル 1F6-9,20758,弘前,334,4,0110,居酒屋、ビアホール,11,JR奥羽本線(新庄〜青森)／弘前駅 徒歩4分 (325m),True
6,100000322710,6iwZsadOHZw,鮨覚安原店,40.57626905,140.49112172,青森県弘前市泉野1-4-4,20711,千年,1404,17,0101013,回転寿司,6,弘南鉄道大鰐線／小栗山駅 徒歩18分 (1419m),False
7,100001116198,GDC7UcsKghd,なべらーめん たぬき亭 本店,40.596061174009,140.49537941971,青森県弘前市外崎4-6-36,20753,弘前東高前,982,12,0106001,ラーメン,5,弘南鉄道弘南線／弘前東高前駅 徒歩11分 (867m),False
8,100001301216,5BscI06dgKg,炭火焼き鳥 琥珀 駅前店,40.599763485442715,140.48362834079865,青森県弘前市駅前1-1-92階,20758,弘前,171,2,0101025,焼き鳥,3,JR奥羽本線(新庄〜青森)／弘前駅 徒歩2分 (161m),True
9,100000840587,4JUjS4xfUZ-,けん太,40.60141023,140.47038532,青森県弘前市鍛冶町11-2,20709,中央弘前,411,5,0110,居酒屋、ビアホール,9,弘南鉄道大鰐線／中央弘前駅 徒歩4分 (298m),False
10,100000919250,ol2NCxeEBu6,四季旬彩　はなび,40.60227202771949,140.4716147125743,青森県弘前市土手町31,20709,中央弘前,402,5,0101,和食,2,弘南鉄道大鰐線／中央弘前駅 徒歩4分 (316m),False
11,100000621535,214GDW60W1w,なつかし屋　黒潮市場,40.6035975,140.49685869999996,青森県弘前市城東北3-13-1,20753,弘前東高前,1947,24,0110,居酒屋、ビアホール,8,JR奥羽本線(新庄〜青森)／弘前駅 徒歩18分 (1383m),True
12,100001487838,veWHpORimQg,ピッツェリア ジーナキッコ,40.584768188666125,140.47317098159738,青森県弘前市文京町15-2,20745,弘前学院大前,580,7,0102002,パスタ、ピザ,1,弘南鉄道大鰐線／弘前学院大前駅 徒歩4分 (322m),False
13,100000986015,TSnz3e1c7Nk,炭火やきとり　吟,40.601818745168,140.47156233535,青森県弘前市新鍛冶町8,20709,中央弘前,348,4,0110,居酒屋、ビアホール,1,弘南鉄道大鰐線／中央弘前駅 徒歩4分 (305m),False
14,100000842327,PFtvXEd9EDY,焼肉・冷麺 中道 本町店,40.600911989444946,140.4692387580826,青森県弘前市本町85-1 明治屋グランドビル 1F,20709,中央弘前,447,5,0108001,焼肉,20,弘南鉄道大鰐線／中央弘前駅 徒歩5分 (383m),True
15,100000994283,yoigzyKpwYw,中華そば屋 おお田,40.60607171872463,140.50615871767843,青森県弘前市田園1-8-1,20733,撫牛子,2313,28,0106001,ラーメン,10,弘南鉄道弘南線／運動公園前（青森）駅 徒歩24分 (1861m),False
16,100001386044,rSz3JD-DuQU,CUISINE & DRINK HYPE,40.59622662553234,140.47777090719293,青森県弘前市土手町181-9,20709,中央弘前,686,8,0115001,カフェ,4,弘南鉄道大鰐線／中央弘前駅 徒歩9分 (687m),True
17,100000322706,9SDq2x1Jgw-,回転鮨清次郎弘前店,40.60250914,140.51307627,青森県弘前市早稲田2-2-2,20742,新里(青森県),2042,25,0101013,回転寿司,18,弘南鉄道弘南線／運動公園前（青森）駅 徒歩23分 (1833m),True
18,100000838898,1c1ng_mMIq6,なる海,40.6014182716268,140.46453616718702,青森県弘前市本町34,20709,中央弘前,768,9,0101001,懐石料理,4,弘南鉄道大鰐線／中央弘前駅 徒歩12分 (888m),False
19,100001296107,b278l2rtS4k,とんかつ 萬福,40.6072614,140.51347320000002,青森県弘前市福村1-1-6,20742,新里(青森県),2509,31,0101015,とんかつ,3,弘南鉄道弘南線／運動公園前（青森）駅 徒歩29分 (2259m),False
20,100001443749,jy7uXtVcp0Q,郷土ダイニング 鮪山,40.6000196,140.48321299999998,青森県弘前市駅前1-2-1,20758,弘前,238,2,0101034,海鮮料理,3,JR奥羽本線(新庄〜青森)／弘前駅 徒歩3分 (215m),True
21,100000697662,IEVHOv4lTuo,名曲喫茶ひまわり,40.60102694701749,140.47428215767218,青森県弘前市坂本町2,20709,中央弘前,292,3,0115001,カフェ,23,弘南鉄道大鰐線／中央弘前駅 徒歩4分 (311m),True
22,100001184517,K_-0Knp4iKU,食事処 ヤマ二,40.5876597461334,140.42137095777616,青森県弘前市下湯口村元44-1,20757,弘高下,4529,56,0106001,ラーメン,2,弘南鉄道大鰐線／弘高下駅 徒歩66分 (5234m),False
23,100000323444,8loTLM1KcCQ,井,40.60152417,140.47250465,青森県弘前市土手町55-1,20709,中央弘前,273,3,0110,居酒屋、ビアホール,6,弘南鉄道大鰐線／中央弘前駅 徒歩4分 (266m),False
24,100000813372,y4_xVR7LFeM,翠明荘,40.60620918830496,140.46982169552106,青森県弘前市元寺町69,20709,中央弘前,989,12,0101001,懐石料理,13,弘南鉄道大鰐線／中央弘前駅 徒歩10分 (801m),True
25,100000799680,sXtmcLozpp-,みんぱい 城東店,40.59576753991765,140.5082166175082,青森県弘前市高田5-10-6,20636,運動公園前(青森県),1595,19,0104001,中華料理,20,弘南鉄道弘南線／運動公園前（青森）駅 徒歩12分 (912m),False
26,100001187427,wryRlIiVSSA,ポアブル,40.60567722153606,140.4600065946579,青森県弘前市馬屋町24-2,20709,中央弘前,1575,19,0102005,フランス料理（フレンチ）,6,弘南鉄道大鰐線／中央弘前駅 徒歩20分 (1536m),False
27,s000229717,taMMt6PUViQ,美酒・創菜ダイニング寧々家　弘前駅前店,40.59712774,140.48275719,青森県弘前市大町1-3-5  ,20758,弘前,357,4,0110001,和風居酒屋,14,,True
28,100001281407,EgImmMHIMqI,BAR DEGUSTA,40.60230203865174,140.47161597371814,青森県弘前市土手町31-1,20709,中央弘前,407,5,0119001,バー,3,弘南鉄道大鰐線／中央弘前駅 徒歩5分 (331m),False
29,100001201144,23MatG5kAYs,日本料理山口,40.59684882930762,140.48248026822876,青森県弘前市大町1-3-11,20758,弘前,432,5,0101011,日本料理,2,JR奥羽本線(新庄〜青森)／弘前駅 徒歩6分 (425m),False
30,0006001174,q7i2wDgJK6U,ダイニング 海の灯,40.60131576,140.46887152,青森県弘前市本町95 丸二ビルB号2F,20709,中央弘前,491,6,0110001,和風居酒屋,17,中央弘前出口より左へ進み県道28号線に出たら右折。最初の曲がり角を左折した直ぐのビル2階です。,True
31,100001266257,hNPOErvsPcQ,炭火焼串処 和の家,40.601678334835654,140.47147021626552,青森県弘前市新鍛冶町9-3,20709,中央弘前,328,4,0101025,焼き鳥,2,弘南鉄道大鰐線／中央弘前駅 徒歩4分 (293m),False
32,s000263650,VAjrD6j7AXU,カラオケ時遊館　弘前駅前店,40.59704718,140.48256276,青森県弘前市大町1-3-6  ,20758,弘前,370,4,0124002,カラオケボックス,0,,True
33,100000726852,347zZD_knnQ,峰,40.6124989,140.4879342,青森県弘前市和徳町337-4,20733,撫牛子,1472,18,0106001,ラーメン,14,JR奥羽本線(新庄〜青森)／撫牛子駅 徒歩19分 (1452m),False
34,100001109672,56p2ZA2aUK2,一幸食堂,40.60915744283432,140.49338169140128,青森県弘前市高崎2-4-7,20758,弘前,1761,22,0111,定食、食堂,5,JR奥羽本線(新庄〜青森)／弘前駅 徒歩18分 (1390m),True
35,100001252284,99ZYzXS3Zuc,ティーラウンジ  オークレール,40.5981337,140.4840825,青森県弘前市大町1-1-2 ベストウェスタンホテルナクアシティ弘前 1F,20758,弘前,197,2,0115001,カフェ,6,JR奥羽本線(新庄〜青森)／弘前駅 徒歩3分 (205m),False
36,t100059780,kU7CKXTcZwU,レストラン　ポルトブラン,40.6011329,140.4656279,青森県弘前市本町44-1 ,20709,中央弘前,661,8,0102005,フランス料理（フレンチ）,7,弘南鉄道大鰐線／中央弘前駅 徒歩10分 (793m),True
37,s000078431,YQalPBZtrvQ,笑笑　弘前駅前店,40.598106,140.482324,青森県弘前市大字駅前町7-5 おおまち共同パーク 1階,20758,弘前,360,4,0110002,洋風居酒屋,10,,True
38,100001432922,4UMT4_KGUeo,Sobabar Ciliegio,40.601708710618134,140.46829688647347,青森県弘前市元長町11-3,20709,中央弘前,563,7,0101017,そば,4,弘南鉄道大鰐線／中央弘前駅 徒歩7分 (529m),False
39,100001255762,En8xFXS3Zuc,Buffet Dining Chef&#39;s Recipe,40.59835365040793,140.4846853264761,青森県弘前市大町1-1-2 アートホテル弘前シティ2F,20758,弘前,374,4,0103001,バイキング,4,JR奥羽本線(新庄〜青森)／弘前駅 徒歩1分 (78m),False
40,100000878086,SH2CvrPn3LM,トラットリア　リパージオ,40.60583340774872,140.4732711331328,青森県弘前市百石町56,20709,中央弘前,853,10,0102006,イタリア料理（イタリアン）,4,弘南鉄道大鰐線／中央弘前駅 徒歩9分 (710m),True
41,s000078414,8_0W8hZtrvQ,魚民　弘前駅前店,40.598106,140.482324,青森県弘前市大字駅前町7-5 おおまち共同パーク 1階,20758,弘前,360,4,0110001,和風居酒屋,2,,True
42,100000819357,f0ricGQAkMo,松ノ木,40.598443710044,140.48210263251997,青森県弘前市駅前町13-1,20758,弘前,455,5,0101,和食,8,JR奥羽本線(新庄〜青森)／弘前駅 徒歩5分 (353m),False
43,0006074238,bix7ec-GWyA,Grill&Wine Cosolatto(コソラット),40.59967195,140.48383474,青森県弘前市駅前1-1-6 前田ビル2F,20758,弘前,153,1,0110002,洋風居酒屋,2,JR弘前駅中央口より徒歩2分、駅前交番向かいです。,True
44,100000871346,N7NPmknqWRw,チェンバロ,40.60211578,140.47249072,青森県弘前市土手町42ルネス街2階,20709,中央弘前,364,4,0115001,カフェ,8,弘南鉄道大鰐線／中央弘前駅 徒歩5分 (383m),False
45,100000322743,ZdmdT5_zQY6,焼肉大将,40.5903507,140.48479086,青森県弘前市取上1-8-7,20753,弘前東高前,377,4,0108001,焼肉,3,弘南鉄道弘南線／弘前東高前駅 徒歩6分 (468m),False
46,100000972337,oTV6PHzxjdI,森の中のパン屋 野風パン,40.625125498723,140.3314060222,青森県弘前市百沢字東岩木山1205-2,,,,,0117,パン、サンドイッチ,2,,False
47,100001331741,IRgsC_rYNlo,炭火焼 USHIMARU,40.59818883932815,140.4815002206932,青森県弘前市駅前町10-1 遊食館101,20758,弘前,458,5,0108001,焼肉,2,JR奥羽本線(新庄〜青森)／弘前駅 徒歩5分 (386m),True
48,0005018845,QNj_ql7GfeI,もつ焼 炙,40.59831650,140.48271267,青森県弘前市駅前町7-3 大町パークビル1F,20758,弘前,316,3,0108001,焼肉,14,JR弘前駅より徒歩3分。,False
49,100000323811,E4ELdBBWUoQ,珈琲 時代屋,40.60343,140.46973030000004,青森県弘前市元寺町-9,20709,中央弘前,638,7,0115002,喫茶店,2,弘南鉄道大鰐線／中央弘前駅 徒歩7分 (549m),False
50,0006101151,OQ2L8n5GRY-,中華×バル ABOYA,40.59860810,140.48139883,青森県弘前市駅前町12-2,20758,弘前,469,5,0110001,和風居酒屋,3,弘南バス「バスターミナル」徒歩1分、虹のマート駐車場横,True
51,100001307760,zRscpujnymE,まさ,40.6025497,140.47434120000003,青森県弘前市山下町12-1,20709,中央弘前,503,6,0101,和食,6,弘南鉄道大鰐線／中央弘前駅 徒歩5分 (401m),False
52,s000199018,vZIVx5_HzEE,牛角　弘前店,40.59398087,140.48392956,青森県弘前市南大町1-1-1  ,20753,弘前東高前,627,7,0108001,焼肉,15,,True
53,100000322909,iAX1K1VeVIc,城東食堂,40.600626842298716,140.49315421104984,青森県弘前市城東中央3-11-4,20753,弘前東高前,1409,17,0111,定食、食堂,5,JR奥羽本線(新庄〜青森)／弘前駅 徒歩12分 (909m),False
54,100001379627,78ihzxBWUoQ,Pub Grandpa,40.60087463105786,140.4733079503319,青森県弘前市土手町66-12,20709,中央弘前,271,3,0119001,バー,5,弘南鉄道大鰐線／中央弘前駅 徒歩3分 (183m),True
55,100000322762,3omj3rvsPcQ,とり畔,40.60158524,140.47143803,青森県弘前市新鍛冶町9,20709,中央弘前,318,3,0101025,焼き鳥,5,弘南鉄道大鰐線／中央弘前駅 徒歩4分 (284m),False
56,100000323057,g4MEXbWFTBI,げんこつ屋,40.57347789,140.49497144,青森県弘前市泉野3-11-10,20711,千年,1418,17,0106001,ラーメン,13,弘南鉄道大鰐線／小栗山駅 徒歩18分 (1373m),False
57,100000322795,IAnbSHh_8SA,一力,40.5931751,140.47425237,青森県弘前市富田3-2-17,20757,弘高下,654,8,0101017,そば,12,弘南鉄道大鰐線／弘高下駅 徒歩9分 (671m),False
58,100000322809,flMcWKi789k,そば処味新,40.61644231,140.4861168,青森県弘前市宮川3-3-3,20733,撫牛子,1571,19,0101017,そば,4,JR奥羽本線(新庄〜青森)／撫牛子駅 徒歩18分 (1386m),False
59,100000843055,1lJlIJ2SZCg,ラーメンしぶたに,40.599063000476015,140.47082704451316,青森県弘前市新鍛冶町102,20709,中央弘前,318,3,0106001,ラーメン,4,弘南鉄道大鰐線／中央弘前駅 徒歩2分 (153m),False
60,100001088474,dyH7R-YPSlM,地産食菜　kawabata bar 1・23,40.600126898951,140.47204011293,青森県弘前市北川端町1階22-5,20709,中央弘前,92,1,0110,居酒屋、ビアホール,4,弘南鉄道大鰐線／中央弘前駅 徒歩2分 (111m),False
61,100001210465,PbfLJhI4s-E,いわき食堂,40.61383098686345,140.42711702789768,青森県弘前市一町田村元 794-12,20709,中央弘前,4524,56,0106001,ラーメン,10,弘南鉄道大鰐線／弘高下駅 徒歩64分 (5110m),False
62,0006043021,I9W3Ts1KcCQ,レストラン 磊,40.601517510314,140.47260297845,青森県弘前市大字土手町55,20709,中央弘前,274,3,0102001,ステーキ、ハンバーグ,8,中央弘前駅より徒歩3分。土手町通りを弘前公園方面へ向かい、中三弘前店様向いにあります。,False
63,0006138962,XUciPGJps9A,居酒ing,40.59897995,140.47091325,青森県弘前市大字新鍛冶町104,20709,中央弘前,280,3,0110001,和風居酒屋,,弘南鉄道大鰐線中央弘前駅より徒歩5分、ファミリーマート桶屋店そば。店舗隣に4台分駐車場あり。,True
64,0006112228,MqN5j1yikaw,肴バル ノレメナ,40.60205740,140.47068526,青森県弘前市親方町48-2 ゴリラビル1F,20709,中央弘前,430,5,0110001,和風居酒屋,,弘南鉄道大鰐線中央弘前駅下車徒歩10分。,False
65,100000323417,MbrjdImhaxg,佐和家,40.60116856,140.46927985,青森県弘前市本町91,20709,中央弘前,474,5,0111,定食、食堂,10,弘南鉄道大鰐線／中央弘前駅 徒歩5分 (395m),True
66,100001358420,ziNTePwOBvA,柳田とうもろこし店,40.62207758426913,140.27670113494878,青森県弘前市百沢字裾野892,,,,,0113001,自然食,3,,False
67,100001112803,gex--B1_AC2,焼鳥中田,40.612647296491,140.46508015726,青森県弘前市新鍛冶町グルメタウン 2F82,20709,中央弘前,2092,26,0101025,焼き鳥,3,弘南鉄道大鰐線／中央弘前駅 徒歩22分 (1695m),False
68,100000819539,MaeWvBrxue2,蘭華亭 弘前本店,40.5982798537772,140.48326088356998,青森県弘前市駅前町6-15 SKビル1F,20758,弘前,270,3,0106001,ラーメン,9,JR奥羽本線(新庄〜青森)／弘前駅 徒歩4分 (252m),False
69,0005034390,D9S03TEKjHc,津軽 お日さまの味,40.59624431,140.47709645,青森県弘前市土手町189 コーポラスエクレールSHIMADA1F,20709,中央弘前,617,7,0110001,和風居酒屋,2,JR弘前駅正面出口より徒歩10分,False
70,100001321715,o9Gu1UVLKNQ,洋食屋ギャロップ,40.6034395,140.50709630000006,青森県弘前市田園3-1-3,20636,運動公園前(青森県),2451,30,0102,洋食,3,弘南鉄道弘南線／運動公園前（青森）駅 徒歩20分 (1596m),True
71,100000322808,vaOaAsxfN6w,そば処・かふく亭,40.60553729,140.45997723,青森県弘前市馬屋町24-1,20709,中央弘前,1591,19,0101017,そば,9,弘南鉄道大鰐線／中央弘前駅 徒歩20分 (1531m),True
72,0006094485,MIMmion_HZE,ダイニング ZEN,40.60181849,140.46903814,青森県弘前市本町107,20709,中央弘前,529,6,0119004,ダイニングバー,1,弘南鉄道大鰐線「中央弘前駅」より本町方面へ徒歩10分,False
73,ta30300,iLzadVVu12g,日本料理×個室 藤陣,40.60088352,140.49729479,青森県弘前市城東中央4-12-3,20753,弘前東高前,1686,21,0101011,日本料理,3,弘前駅東口より徒歩20分です。,False
74,100000323360,SzvJYv3Xa6I,川崎,40.60130751,140.47206858,青森県弘前市新鍛冶町22,20709,中央弘前,239,2,0110,居酒屋、ビアホール,7,弘南鉄道大鰐線／中央弘前駅 徒歩3分 (241m),False
75,100000861466,c6fg99dGy9Q,豚珍館,40.614066462626,140.4834651947,青森県弘前市田町5-5-4,20733,撫牛子,1923,24,0104001,中華料理,14,JR奥羽本線(新庄〜青森)／弘前駅 徒歩20分 (1601m),False
76,t078514,XZ8kmz3nzZg,個室居酒屋 くいもの屋わん 弘前駅前店,40.59946085,140.48335700,青森県弘前市大字駅前町17-7,20758,弘前,168,2,0110,居酒屋、ビアホール,1,ＪＲ奥羽本線弘前駅 徒歩1分,True
77,0005025167,D1tUqAytEVo,香港・韓国ダイニング&バー「花花」,40.60023535,140.47005209,青森県弘前市桶屋町5-1,20709,中央弘前,266,3,0119004,ダイニングバー,3,弘南鉄道　中央弘前駅から徒歩5分,True
78,0006059730,W8_AFoWmxlI,中道 さくら野店,40.60818819,140.49518627,青森県弘前市高崎2-15-1 ラフォルテ館1F,20758,弘前,2178,27,0108001,焼肉,5,100円バス利用で「さくら野弘前店」下車。「さくら野弘前」向かい。,True
79,s000212197,wzLvQ8j0fjo,しゃぶしゃぶ温野菜 弘前店,40.60142579,140.51091272,青森県弘前市早稲田3-10-2  ,20742,新里(青森県),2062,25,0101022,しゃぶしゃぶ,10,,True
80,0006017973,ybev1OTbzoc,居酒屋 魚々家,40.599352687366,140.47101099665,青森県弘前市新鍛冶町84-1,20709,中央弘前,293,3,0110001,和風居酒屋,3,中央弘前駅から西へ徒歩4分。弘前市繁華街「鍛冶町」にあります。,False
81,ta2t301,xM1WPUKbvPE,個室居酒屋 山善,40.60330172,140.47112126,青森県弘前市土手町20-3,20709,中央弘前,543,6,0110,居酒屋、ビアホール,1,土手町通りを弘前公園方面へ。弘前公園(弘前城)から徒歩5分。,False
82,100000928214,EgAuSCmim3A,お食事処 鶴亀,40.59517974481348,140.48135340428462,青森県弘前市大町2-2-13,20758,弘前,672,8,0111,定食、食堂,3,JR奥羽本線(新庄〜青森)／弘前駅 徒歩9分 (648m),False
83,100001305527,ngARwaxfUZ-,居酒屋 あそび,40.601738476539985,140.47082769664198,青森県弘前市鍛冶町5,20709,中央弘前,351,4,0110,居酒屋、ビアホール,4,弘南鉄道大鰐線／中央弘前駅 徒歩4分 (314m),False
84,0006117158,cfGRR1EFTZM,津軽酒場 あん梅,40.60040201,140.47057705,青森県弘前市新鍛冶町70,20709,中央弘前,231,2,0110001,和風居酒屋,1,弘南鉄道大鰐線「中央弘南」駅より徒歩3分,False
85,100000926959,FfocnfIO0Ng,そば処 清水,40.59652989,140.45925294,青森県弘前市茂森新町1-1-14,20757,弘高下,1119,13,0101017,そば,26,弘南鉄道大鰐線／弘高下駅 徒歩12分 (936m),False
86,100001251893,iPFftDkiIl-,中華飯店 幡龍 弘前城東店,40.59724183942889,140.50566425323484,青森県弘前市高田3-1-4,20636,運動公園前(青森県),1962,24,0106001,ラーメン,4,弘南鉄道弘南線／運動公園前（青森）駅 徒歩12分 (911m),True
87,100000323108,nyk_xB7LFeM,ベア,40.60619026,140.46980722,青森県弘前市元寺町69,20709,中央弘前,987,12,0104005,四川料理,10,弘南鉄道大鰐線／中央弘前駅 徒歩11分 (826m),True
88,0006094486,JQGdAqXZPh2,居酒屋 和心亭 山鷹,40.60021034,140.46977433,青森県弘前市桶屋町4-9,20709,中央弘前,294,3,0101053,和食（その他）,2,中央弘前駅より鍛冶町方面へ道なりに進み徒歩5分。二つ目の信号を左折した右手にあります。,False
89,100000936339,lVmMTq37-7A,ルンゴカーニバル,40.607696930742,140.49663316873,青森県弘前市城東北3-10-71,20733,撫牛子,2160,27,0110,居酒屋、ビアホール,4,JR奥羽本線(新庄〜青森)／撫牛子駅 徒歩19分 (1514m),False
90,s000243804,mWMpzH7c2KI,福福屋　弘前駅前店,40.5995638,140.484325,青森県弘前市大字駅前町1-1-1 東横イン弘前駅前ビル 1階,20758,弘前,83,1,0110001,和風居酒屋,6,,True
91,100000878112,a_hkGV0KtfU,うな新,40.60200404764703,140.46897178066047,青森県弘前市親方町1-7,20709,中央弘前,557,6,0101023,うなぎ,9,弘南鉄道大鰐線／中央弘前駅 徒歩6分 (479m),False
92,100001031549,xfDVQdZyDLk,ル・ブルジョン,40.600755564455945,140.473998856859,青森県弘前市土手町77-1,20709,中央弘前,246,3,0118001,洋菓子、ケーキ,4,弘南鉄道大鰐線／中央弘前駅 徒歩3分 (222m),False
93,100001337295,-fJubHJ278U,そば処 こぎん,40.59946924,140.48486524,青森県弘前市表町2-11,20758,弘前,96,1,0101017,そば,3,JR奥羽本線(新庄〜青森)／弘前駅 徒歩1分 (50m),False
94,100001324192,mUhEcFI4Pm-,カフェレストラン デュボワ,40.60257297334643,140.4643722920307,青森県弘前市上白銀町1-10 2F,20709,中央弘前,928,11,0115001,カフェ,2,弘南鉄道大鰐線／中央弘前駅 徒歩12分 (965m),True
95,0006010227,_lS-rXYrSRg,居酒屋DINING HACHI,40.58373432,140.47136981,青森県弘前市中野1-10-4,20745,弘前学院大前,46,0,0110001,和風居酒屋,1,弘南鉄道大鰐線「弘前学院大前駅」より徒歩1分/大学生街の「西弘」に位置しており、非常に目立ちます。,False
96,0005034384,fI7rQCptv_Y,居酒屋 HACHI,40.60040201,140.47057705,青森県弘前市新鍛冶町70,20709,中央弘前,231,2,0110001,和風居酒屋,1,JR弘前駅から徒歩10分,False
97,0006035953,Jzuxik-zwEk,炭焼鍋 真ちゃん,40.601805217602,140.47132080188,青森県弘前市大字新鍛冶町4-8 山本ビル1F,20709,中央弘前,339,4,0110001,和風居酒屋,1,中央弘前駅より徒歩5分。橋を渡り、そのまま道なりに進みます。最初の信号を右折し進んだ左手です。,False
98,100000884111,Acf5GLGdJtE,アルポルト,40.60311841,140.47120182,青森県弘前市土手町21-1,20709,中央弘前,513,6,0102005,フランス料理（フレンチ）,7,弘南鉄道大鰐線／中央弘前駅 徒歩6分 (417m),False
99,0006133412,X7Pfx7zdunQ,西弘酒場 ちり-ChiRi-,40.58373432,140.47136981,青森県弘前市大字中野1-10-4-2F,20745,弘前学院大前,46,0,0110001,和風居酒屋,,弘南鉄道大鰐線「弘前学院大前駅」目の前。コープあおもり西弘店向かい。,False
0,0006118154,Z7VlVHtQOLo,酔り処 結千,40.60169079,140.47149080,青森県弘前市新鍛冶町9-4 かくみ小路内,20709,中央弘前,331,4,0110001,和風居酒屋,,弘南鉄道線中央弘前駅下車徒歩5分,False
1,0006119648,CAZQr6FpxdQ,カフェアンドダイニングバー ラフール(LaFuul),40.60430719,140.47201836,青森県弘前市百石町25-2,20709,中央弘前,701,8,0119004,ダイニングバー,,弘前駅より徒歩16分。「ホテルニューキャッスル 弘前  ホテル」様向かいです。,True
2,100001081696,3ecc2jNcak2,りんごの家,40.588798734022,140.44199568697,青森県弘前市清水富田弘前市りんご公園字寺沢125,20757,弘高下,2855,35,0115001,カフェ,2,弘南鉄道大鰐線／弘高下駅 徒歩37分 (2949m),False
3,100001159631,y2xYiiRoedU,焼肉みなみ亭,40.60424940139999,140.47694479379993,青森県弘前市南横町30,20709,中央弘前,762,9,0108001,焼肉,7,弘南鉄道大鰐線／中央弘前駅 徒歩10分 (773m),True
4,0006037370,V1dpwc9wFk-,ひつじ家,40.58213261,140.49715975,青森県弘前市小比内5-4-20,20636,運動公園前(青森県),1044,13,0108002,ジンギスカン,0,運動公園前駅より徒歩15分。堀越小学校と弘前第五中学校の交差点角、黄色の建物です。,True
5,100000323052,mym6C0X9JqM,キンタ,40.60224975,140.49050355,青森県弘前市城東中央2-4-2,20758,弘前,1429,17,0106001,ラーメン,7,JR奥羽本線(新庄〜青森)／弘前駅 徒歩9分 (671m),False
6,100001397877,lJZLyN1gDAQ,極煮干し本舗 弘前店,40.59589908378753,140.49392967361064,青森県弘前市外崎4 丁目 1-5,20753,弘前東高前,848,10,0106001,ラーメン,1,弘南鉄道弘南線／弘前東高前駅 徒歩10分 (773m),False
7,100001045011,rlfotXL-ddc,喫茶 北の郭,40.6094417494772,140.46748300681918,青森県弘前市下白銀町1-1 弘前公園 武徳殿休憩所内,20709,中央弘前,1537,19,0115001,カフェ,1,弘南鉄道大鰐線／中央弘前駅 徒歩16分 (1257m),False
8,100000844352,4DI2_SNnt4c,津軽郷土料理の店あば,40.59682479,140.47647144,青森県弘前市土手町166 東栄ホテル1F,20709,中央弘前,594,7,0110,居酒屋、ビアホール,13,弘南鉄道大鰐線／中央弘前駅 徒歩7分 (552m),False
9,100000921799,valipEnFI4c,来々軒,40.60251805248737,140.46154929293857,青森県弘前市茂森町16,20709,中央弘前,1128,14,0106001,ラーメン,13,弘南鉄道大鰐線／中央弘前駅 徒歩16分 (1240m),False
10,ta34600,VpcEz_Iwx2k,大衆にぐ酒場 チキポービアボール,40.60215737,140.47008251,青森県弘前市親方町38-2,20709,中央弘前,493,6,0110,居酒屋、ビアホール,,,True
11,100000868468,Fv7qHBgRUQ2,から揚げ専門店こばしょぐ 城東店,40.59934453,140.49134811,青森県弘前市城東中央2-3-2,20753,弘前東高前,1140,14,0111,定食、食堂,6,JR奥羽本線(新庄〜青森)／弘前駅 徒歩9分 (721m),False
12,100000322698,pBgcELL6w_Y,十三家,40.60038921,140.49915296,青森県弘前市城東中央5-2-9,20753,弘前東高前,1726,21,0101,和食,4,弘南鉄道弘南線／運動公園前（青森）駅 徒歩16分 (1275m),False
13,100001161228,a3SKlg9099k,はな,40.59977272310652,140.4695725440979,青森県弘前市桶屋町12,20709,中央弘前,354,4,0110,居酒屋、ビアホール,3,弘南鉄道大鰐線／中央弘前駅 徒歩4分 (300m),False
14,100000323095,tweeEEka43I,ラーメンめん丸弘前石渡店,40.62887626,140.46076167,青森県弘前市浜の町北2-4-1,20733,撫牛子,3639,45,0106001,ラーメン,3,弘南鉄道大鰐線／中央弘前駅 徒歩45分 (3536m),False
15,100000322687,_BxASonEF-2,寿し一道,40.60343925,140.50709638,青森県弘前市田園3-1-3,20636,運動公園前(青森県),2451,30,0101,和食,3,弘南鉄道弘南線／運動公園前（青森）駅 徒歩21分 (1614m),False
16,100000732461,SVS-xRhLi_-,結き食事処,40.60054765243918,140.47229144966764,青森県弘前市北川端町-122,20709,中央弘前,163,2,0102,洋食,4,弘南鉄道大鰐線／中央弘前駅 徒歩2分 (156m),True
17,100000772505,DyALK4DhmGs,極めん,40.60022984948599,140.498097885608,青森県弘前市城東中央5-1-2,20753,弘前東高前,1626,20,0106001,ラーメン,4,弘南鉄道弘南線／運動公園前（青森）駅 徒歩17分 (1331m),False
18,100001093337,4UVu2Efue72,ラーメン山岡家 弘前店,40.62601602,140.48701607,青森県弘前市神田3-2-4,20733,撫牛子,1351,16,0106001,ラーメン,3,JR奥羽本線(新庄〜青森)／撫牛子駅 徒歩16分 (1275m),False
19,100000800155,fkSl3q-Aids,鮨覚,40.60189027686821,140.51048048785003,青森県弘前市早稲田2-12-16,20742,新里(青森県),2149,26,0101013,回転寿司,3,弘南鉄道弘南線／運動公園前（青森）駅 徒歩21分 (1611m),False
20,100001531360,BLGsZzzGXpw,地鶏soba十五屋,40.60389658508406,140.50584233869247,青森県弘前市田園2-1-4,20636,運動公園前(青森県),2566,32,0106001,ラーメン,2,弘南鉄道弘南線／運動公園前（青森）駅 徒歩21分 (1617m),False
21,0006090621,b4eDUiWEb26,鉄板バル faro,40.60063810,140.47076592,青森県弘前市新鍛冶町51 カネヨセンター1F,20709,中央弘前,247,3,0101045,鉄板焼き,1,「中央弘前」駅から徒歩5分。駅を出て左へ。道なりに進み、二つ目の信号を右へ曲がったところです。,True
22,100001338097,yaDORu-F_Js,弘前シードル工房 kimori,40.5901286,140.44292429999996,青森県弘前市清水富田字寺沢52-3弘前市りんご公園内,20757,弘高下,2636,32,01,グルメ,2,弘南鉄道弘南線／津軽尾上駅 徒歩14分 (1061m),False
23,100001041317,20RJl14uIXU,めん処 いっぷく,40.608359938463,140.46974815862,青森県弘前市蔵主町3,20709,中央弘前,1259,15,0101018,うどん,2,弘南鉄道大鰐線／中央弘前駅 徒歩14分 (1059m),False
24,0006086213,eexTaej678A,カフェ&ダイナー史家,40.60032964,140.46493569,青森県弘前市相良町6-4,20709,中央弘前,760,9,0110002,洋風居酒屋,,JR奥羽本線「弘前駅」西口から徒歩20分。弘前大病院隣り,False
25,YP1411856026ED,7x7geGKvQ_M,ピザハット弘前店,40.59751361,140.47660194,青森県弘前市大字土手町151,20709,中央弘前,526,6,0114002,配達専門、宅配ピザ,4,弘南鉄道大鰐線／中央弘前駅 徒歩7分 (516m),False
26,100000057252,5RUGlulew8Q,土紋,40.6039719,140.47952959999998,青森県弘前市代官町99,20758,弘前,881,11,0110,居酒屋、ビアホール,6,JR奥羽本線(新庄〜青森)／弘前駅 徒歩10分 (770m),False
27,100000323703,qDJljpYuhIQ,よしじん,40.60180744,140.47133525,青森県弘前市新鍛冶町4-10,20709,中央弘前,338,4,0101025,焼き鳥,6,弘南鉄道大鰐線／中央弘前駅 徒歩4分 (311m),True
28,100000772515,JTcUzsWTojM,アップル食堂,40.563153,140.439402,青森県弘前市小沢御笠見58-1,20700,聖愛中高前,3814,47,0106001,ラーメン,6,弘南鉄道大鰐線／聖愛中高前駅 徒歩51分 (4011m),False
29,100000323660,LCpoz112f3Q,ぼんしゃん亭,40.60185744,140.47156856,青森県弘前市土手町36-13,20709,中央弘前,351,4,0110,居酒屋、ビアホール,12,弘南鉄道大鰐線／中央弘前駅 徒歩4分 (309m),True
30,ta34400,SWivYOSvNvU,焼鳥と日本酒 うまいもん処竈,40.59838311,140.48119053,青森県弘前市駅前町11-12,20758,弘前,475,5,0110,居酒屋、ビアホール,3,JR奥羽本線(新庄〜青森)／弘前駅 徒歩6分 (452m),True
31,100000322969,xcGXSdDur7E,山水酒肴風月,40.60035769087165,140.47225330644005,青森県弘前市北川端町15,20709,中央弘前,109,1,0101003,割ぽう,3,弘南鉄道大鰐線／中央弘前駅 徒歩2分 (104m),False
32,100000323087,O7tvWwtMJmI,優太ラーメン,40.61515442,140.41877464,青森県弘前市賀田2-4-13,,,,,0106001,ラーメン,3,弘南鉄道大鰐線／弘高下駅 徒歩76分 (6010m),False
33,100000322965,GeK1Knljt5g,季太郎,40.5997665,140.47055820000003,青森県弘前市新鍛冶町82 グルメタウン2階,20709,中央弘前,262,3,0101003,割ぽう,10,弘南鉄道大鰐線／中央弘前駅 徒歩3分 (195m),False
34,100001534903,QUsQ1kVG09A,中華厨房たんたん,40.6080654,140.5022975,青森県弘前市末広4-1-5,20733,撫牛子,2075,25,0104001,中華料理,2,JR奥羽本線(新庄〜青森)／撫牛子駅 徒歩20分 (1604m),False
35,100001311976,pau1wzYBWas,つがるひろさき食堂,40.58987212470571,140.48301959485218,青森県弘前市富田町9,20753,弘前東高前,540,6,0111,定食、食堂,4,弘南鉄道弘南線／弘前東高前駅 徒歩8分 (613m),True
36,100000323834,uChQc_tF4c-,SUGA,40.601808,140.47133580000002,青森県弘前市新鍛冶町4-8,20709,中央弘前,338,4,0115002,喫茶店,2,弘南鉄道大鰐線／中央弘前駅 徒歩4分 (311m),False
37,100001450217,TaKUUHfD27I,古民家カフェ山の子,40.623327,140.35698230000003,青森県弘前市高岡獅子沢2-2,,,,,0112001,創作料理,3,,False
38,100001211533,K0oSfQHgkRk,銀水食堂,40.601233472663814,140.47153046131132,青森県弘前市新鍛冶町15-2,20709,中央弘前,275,3,0111,定食、食堂,3,弘南鉄道大鰐線／中央弘前駅 徒歩3分 (244m),False
39,100000322862,xZt5Y9WmpCA,しげ作,40.59910211,140.469255,青森県弘前市桶屋町65,20709,中央弘前,428,5,0101015,とんかつ,8,弘南鉄道大鰐線／中央弘前駅 徒歩4分 (327m),False
40,100000937606,6tR4xqJTjiw,夕凪,40.597154063356,140.48496085144,青森県弘前市大町1-9-2,20758,弘前,426,5,0110,居酒屋、ビアホール,3,JR奥羽本線(新庄〜青森)／弘前駅 徒歩4分 (285m),False
41,100001104597,ez1NJljyqYU,成田専蔵珈琲店,40.606401822848,140.49338725265,青森県弘前市城東北2-7-4,20758,弘前,1843,23,0115002,喫茶店,3,JR奥羽本線(新庄〜青森)／弘前駅 徒歩15分 (1189m),False
42,100001293905,FhZE8K5X70A,山忠ラーメン 弘前中三店,40.60190958285111,140.47310223579404,青森県弘前市土手町49-1弘前中三地下1階,20709,中央弘前,343,4,0106001,ラーメン,8,弘南鉄道大鰐線／中央弘前駅 徒歩4分 (282m),False
43,100001049886,U4FXDNeIfCU,ぼん蔵,40.599677812179,140.48296598295,青森県弘前市駅前町17-10,20758,弘前,210,2,0101029,お好み焼き、たこ焼き,2,JR奥羽本線(新庄〜青森)／弘前駅 徒歩3分 (228m),False
44,ta2t302,kiwNSpj7sBg,博多もつ鍋 山善 弘前店,40.60193240,140.47022696,青森県弘前市鍛冶町2,20709,中央弘前,402,5,0110,居酒屋、ビアホール,3,弘南鉄道大鰐線／中央弘前駅 徒歩5分 (368m),False
45,100001258713,2PT0USYBRlo,串焼き15,40.6006232,140.4708303,青森県弘前市新鍛冶町51 カネヨセンター1F,20709,中央弘前,241,3,0110,居酒屋、ビアホール,2,弘南鉄道大鰐線／中央弘前駅 徒歩3分 (224m),False
46,100001293894,S-wSfFmTjy-,戸田うちわ餅店,40.5977445,140.46999449999998,青森県弘前市銅屋町21,20709,中央弘前,489,6,0118,スイーツ,2,弘南鉄道大鰐線／中央弘前駅 徒歩5分 (335m),False
47,100000720943,kvpGVTRXGP6,半兵ヱ 弘前かくみ小路店,40.60206212494138,140.47181756316036,青森県弘前市土手町36,20709,中央弘前,386,4,0101025,焼き鳥,8,弘南鉄道大鰐線／中央弘前駅 徒歩4分 (327m),False
48,100000323013,XBekLjUgBsg,小料理こだま,40.60037146,140.4706715,青森県弘前市新鍛冶町69,20709,中央弘前,220,2,0101003,割ぽう,2,弘南鉄道大鰐線／中央弘前駅 徒歩3分 (218m),False
49,100001290397,JSxcyqMnFL-,ふく助,40.59928248987051,140.47092964649198,青森県弘前市新鍛冶町96-1,20709,中央弘前,297,3,0101042,牛肉料理,2,弘南鉄道大鰐線／中央弘前駅 徒歩3分 (174m),True
50,53576,pmDhgP6ffZU,津軽藩ねぷた村,40.61118969,140.46927354,青森県弘前市亀甲町61,20709,中央弘前,1683,21,0305003,博物館、科学館,71,,False
51,0005002446,FBcjwPevZ-s,津軽のおかず 旬の味 甚平,40.59902753,140.48247652,青森県弘前市駅前町16-3 コーポラス福井1F-101,20758,弘前,392,4,0101053,和食（その他）,,JR弘前駅より駅前公園の裏側小路へ。徒歩5分,False
52,100000323062,dMuLimmAi0U,神龍,40.57396664,140.49311326,青森県弘前市泉野2-1-7,20711,千年,1431,17,0106001,ラーメン,8,弘南鉄道大鰐線／小栗山駅 徒歩17分 (1290m),False
53,100001314046,dflrPwhSFj2,Bon Vue,40.584218509781984,140.46617175267443,青森県弘前市稔町19-17,20745,弘前学院大前,764,9,0102005,フランス料理（フレンチ）,1,弘南鉄道大鰐線／弘前学院大前駅 徒歩7分 (500m),False
54,100001111694,hknVdkWATmo,めんの店　アキモト,40.599006625035,140.48171217407,青森県弘前市駅前町虹のマート内12-1,20758,弘前,369,4,0101018,うどん,1,JR奥羽本線(新庄〜青森)／弘前駅 徒歩5分 (375m),False
55,100001258988,RPjBvbl1jMU,ふく茶庵,40.603119,140.47120240000004,青森県弘前市土手町21-1,20709,中央弘前,513,6,0101001,懐石料理,1,弘南鉄道大鰐線／中央弘前駅 徒歩6分 (455m),False
56,100000323463,uwOsRyV9l1g,Stuff,40.60149627,140.46783823,青森県弘前市元長町9-1,20709,中央弘前,577,7,0110,居酒屋、ビアホール,1,弘南鉄道大鰐線／中央弘前駅 徒歩7分 (550m),False
57,100001445841,HzFQRi3m7nw,弘前 大勝軒,40.604826681906516,140.48670926502973,青森県弘前市松ケ枝3-1-4,20758,弘前,1026,12,0106001,ラーメン,1,JR奥羽本線(新庄〜青森)／弘前駅 徒歩8分 (637m),False
58,100001340895,30K-4JgEVdE,弘前東栄ホテル,40.59682530000001,140.47647189999998,青森県弘前市土手町166,20709,中央弘前,594,7,0103001,バイキング,22,弘南鉄道大鰐線／中央弘前駅 徒歩7分 (529m),True
59,t100060399,Q9rcPScgXEc,津軽衆,40.5956978,140.4806856,青森県弘前市大町16-2 ,20758,弘前,585,7,0110001,和風居酒屋,8,JR弘前駅より徒歩3分です。弘前駅中央口を背に左側方向に歩き2つ目の信号を左折すると看板が見えます。,False
60,100000835490,_xtj11lJkdw,洋菓子パン マタニ,40.602834414555,140.46965181828,青森県弘前市親方町23,20709,中央弘前,606,7,0117,パン、サンドイッチ,4,弘南鉄道大鰐線／中央弘前駅 徒歩7分 (498m),False
61,100000959276,Quf1hcEivgI,ホルモン食堂やま長,40.601143918048,140.50337932317,青森県弘前市高田2-8-4,20753,弘前東高前,2111,26,0108001,焼肉,3,弘南鉄道弘南線／運動公園前（青森）駅 徒歩17分 (1291m),False
62,0006094481,5gScdn0vLWo,花一華,40.57528307,140.49141616,青森県弘前市泉野1丁目8番地15,20711,千年,1336,16,0101053,和食（その他）,3,弘南鉄道大鰐線「千年駅」徒歩15分/イオンタウン弘前安原店そば,True
63,100000322849,QpUBPC0FFxo,川丁蔵座敷本店,40.605958954835174,140.47411073282933,青森県弘前市百石町60-9,20709,中央弘前,936,11,0101011,日本料理,3,弘南鉄道大鰐線／中央弘前駅 徒歩10分 (745m),True
64,t254700,yQLUoE97yGQ,津軽三味線ライヴ あいや,40.59325840,140.47357741,青森県弘前市富田2-7-3,20757,弘高下,600,7,0124001,パーティースペース、宴会場,5,,True
65,100000845006,FhZE8KtSqIc,山忠食堂,40.576510308626,140.45933604239997,青森県弘前市城南5-13-3,20700,聖愛中高前,1229,15,0106001,ラーメン,17,弘南鉄道大鰐線／弘前学院大前駅 徒歩19分 (1469m),False
66,100000864521,eYf5UbKGoJw,めん屋 北闘馬,40.614007415823,140.48550367355006,青森県弘前市宮川3-17-2,20733,撫牛子,1741,21,0106001,ラーメン,9,JR奥羽本線(新庄〜青森)／撫牛子駅 徒歩20分 (1569m),False
67,100000927548,0g7Kay9XVfk,さんくまむ,40.62111810304128,140.48125866647877,青森県弘前市青山2-1-1,20733,撫牛子,1864,23,0111,定食、食堂,2,JR奥羽本線(新庄〜青森)／撫牛子駅 徒歩23分 (1816m),True
68,100000960270,01j9j08LANk,カミヤ,40.603012754958,140.47447878719,青森県弘前市徳田町4-4,20709,中央弘前,549,6,0102,洋食,8,弘南鉄道大鰐線／中央弘前駅 徒歩7分 (498m),True
69,100000719968,9xUDcE8j-Eg,豪ーめん 弘前店,40.600235869167,140.49794912338007,青森県弘前市城東中央5-1-2,20753,弘前東高前,1615,20,0106001,ラーメン,2,弘南鉄道弘南線／運動公園前（青森）駅 徒歩17分 (1308m),False
70,ta2s000,oqsumiqLDac,旬の味 喜桜,40.60289900,140.47175181,青森県弘前市土手町24-10 2F,20709,中央弘前,474,5,0101033,郷土料理,,弘南鉄道大鰐線／中央弘前駅 徒歩5分 (395m),False
71,100001034372,oMq7DdXt2-Q,サンフェスタいしかわ 駅の食堂屋さん,40.554986316488,140.54898827312,青森県弘前市石川字泉田62-1 道の駅ひろさき サンフェスタいしかわ 1F,20630,石川(弘南鉄道線),1184,14,0101017,そば,2,弘南鉄道大鰐線／石川プール前駅 徒歩17分 (1306m),False
72,100001033391,7sshN4O4mSc,花茶屋 弘前駅前,40.598847212038,140.48375047179,青森県弘前市駅前町ホテルルートイン5-1,20758,弘前,118,1,0103001,バイキング,60,JR奥羽本線(新庄〜青森)／弘前駅 徒歩3分 (171m),False
73,100001305535,1g8kjEyTjUM,鉄板ダイニング IROHA,40.5966727,140.48210489999997,青森県弘前市大町1-14-2,20758,弘前,430,5,0119004,ダイニングバー,1,JR奥羽本線(新庄〜青森)／弘前駅 徒歩5分 (403m),True
74,100000322863,qaDZ2OF_-tg,ふぐ新,40.6016601,140.46624108,青森県弘前市元大工町25-6,20709,中央弘前,702,8,0101035,ふぐ料理,1,弘南鉄道大鰐線／中央弘前駅 徒歩9分 (718m),False
75,100000956782,4uHK1o3G7SY,居酒屋この花,40.604863851327,140.47144170895,青森県弘前市上鞘師町ホテルニューキャッスル 1F24-1,20709,中央弘前,778,9,0110,居酒屋、ビアホール,1,弘南鉄道大鰐線／中央弘前駅 徒歩8分 (641m),True
76,100000322729,WkG7r1wOVxw,東天,40.60047702,140.47126035,青森県弘前市新鍛冶町52,20709,中央弘前,228,2,0108001,焼肉,6,弘南鉄道大鰐線／中央弘前駅 徒歩3分 (181m),True
77,100001166431,05jqEOjnymE,煉瓦亭,40.602867,140.47172999999998,青森県弘前市土手町24,20709,中央弘前,469,5,0115002,喫茶店,6,弘南鉄道大鰐線／中央弘前駅 徒歩6分 (417m),False
78,ta30800,LJwy0-2s7zk,焼肉 あさひ,40.60183796,140.47018808,青森県弘前市鍛冶町6,20709,中央弘前,395,4,0110,居酒屋、ビアホール,,,True
79,s000260846,NQk15L1MnIg,弘前個室居酒屋　東北料理とお酒　北六　弘前店,40.59813323,140.48408205,青森県弘前市大町1-1-2 アートホテル弘前シティB1Ｆ,20758,弘前,197,2,0110001,和風居酒屋,2,,False
80,100000323486,DH13ocSuywU,炭焼専科チャコール,40.59015595,140.47413592,青森県弘前市富野町4-1,20757,弘高下,679,8,0101026,串焼き,3,弘南鉄道大鰐線／弘高下駅 徒歩10分 (733m),True
81,t291000,j1NfROpx6WQ,ブラッスリー・ル・キャッスル,40.60486822,140.47141835,青森県弘前市上鞘師町24-1,20709,中央弘前,780,9,0102005,フランス料理（フレンチ）,,,True
82,100000949972,TOaJdfFRRX6,三笠屋餅店,40.597690506076,140.47648666756,青森県弘前市土手町146-2,20709,中央弘前,493,6,0118,スイーツ,4,弘南鉄道大鰐線／中央弘前駅 徒歩7分 (502m),False
83,100000322833,Hc9yWUj63dM,とみや,40.60389062,140.47354609,青森県弘前市徒町18,20709,中央弘前,687,8,0101017,そば,2,弘南鉄道大鰐線／中央弘前駅 徒歩7分 (548m),False
84,100000858878,Ay_Z-tM_fMw,岩木屋,40.62513291,140.46843883600002,青森県弘前市藤野2-3-5,20733,撫牛子,3333,41,0113001,自然食,3,弘南鉄道大鰐線／中央弘前駅 徒歩37分 (2915m),False
85,100000758714,zHIBmBX5N1g,Dining Bar 吉や,40.601767343541006,140.47127354365534,青森県弘前市新鍛冶町4,20709,中央弘前,336,4,0119004,ダイニングバー,3,弘南鉄道大鰐線／中央弘前駅 徒歩4分 (309m),False
86,100000323388,qvJdeJBot2o,けん太旬彩館,40.5997882,140.47106041,青森県弘前市新鍛冶町81-2,20709,中央弘前,240,3,0110,居酒屋、ビアホール,9,弘南鉄道大鰐線／中央弘前駅 徒歩2分 (146m),False
87,100001330594,NIvhaiA2lAg,居酒屋 金八,40.6003731056256,140.47092728761424,青森県弘前市新鍛冶町65 65ビル1F,20709,中央弘前,202,2,0110,居酒屋、ビアホール,2,弘南鉄道大鰐線／中央弘前駅 徒歩3分 (201m),False
88,100000323789,B_8moial4Tc,きたもん,40.61240894,140.46665969,青森県弘前市亀甲町90-1,20709,中央弘前,1956,24,0115001,カフェ,2,弘南鉄道大鰐線／中央弘前駅 徒歩20分 (1596m),True
89,100001104513,EqGSNaYKcvQ,笑福亭,40.583356154891,140.47492031841,青森県弘前市中野1-2-1,20745,弘前学院大前,586,7,0106001,ラーメン,2,弘南鉄道大鰐線／弘前学院大前駅 徒歩6分 (474m),False
90,100001360204,SBGNGj2qVuQ,炭火焼 炎,40.57340441618743,140.4980643730164,青森県弘前市泉野5-2-5,20711,千年,1783,22,0101044,炭火焼き,1,弘南鉄道大鰐線／松木平駅 徒歩19分 (1449m),True
91,100001360402,fmwU6ey6xxc,カフェ&バル チュロス,40.599728,140.47656299999994,青森県弘前市上瓦ケ町11-2 SPACE･DENEGA内,20709,中央弘前,446,5,0119004,ダイニングバー,1,弘南鉄道大鰐線／中央弘前駅 徒歩6分 (453m),False
92,100001312440,iybLzXJ278U,VIE DE FRANCE 弘前店,40.5994586,140.48480740000002,青森県弘前市表町2-11 弘前アプリーズ,20758,弘前,91,1,0117,パン、サンドイッチ,1,JR奥羽本線(新庄〜青森)／弘前駅 徒歩1分 (49m),False
93,100001525152,bwDDvnBJKFo,ステーキ食堂ミートソルジャー,40.586396742749045,140.47663609568076,青森県弘前市富田町162,20745,弘前学院大前,686,8,0102001,ステーキ、ハンバーグ,1,弘南鉄道大鰐線／弘前学院大前駅 徒歩10分 (748m),True
94,100001419303,TaRB20LbjQY,ゆぱんき ごはんと喫茶のお店,40.5970612,140.46795840000004,青森県弘前市銅屋町63-8,20709,中央弘前,715,8,0115002,喫茶店,1,弘南鉄道大鰐線／弘高下駅 徒歩6分 (473m),False
95,100000323280,rkOUGH_fi96,居酒屋秀,40.60298096,140.50664368,青森県弘前市田園2-2-6,20636,運動公園前(青森県),2400,30,0110,居酒屋、ビアホール,1,弘南鉄道弘南線／運動公園前（青森）駅 徒歩20分 (1551m),False
96,ta35901,b-xN5v8LBrA,デザートショップ(ピッコリドルチェ/パスタ・パスタ),40.61389541,140.48583644,青森県弘前市宮川3-17-1,20733,撫牛子,1715,21,0102002,パスタ、ピザ,4,JR奥羽本線(新庄〜青森)／撫牛子駅 徒歩20分 (1558m),True
97,100001381046,6GkXwS0xDxs,ToToTo,40.6023246,140.4705831,青森県弘前市親方町44-1,20709,中央弘前,448,5,0115001,カフェ,1,弘南鉄道大鰐線／中央弘前駅 徒歩5分 (383m),False
98,100000323158,bU3zJt9Ia2I,サイアン・パティオ,40.60181022,140.47154635,青森県弘前市新鍛冶町8,20709,中央弘前,345,4,0102007,スペイン料理,5,弘南鉄道大鰐線／中央弘前駅 徒歩4分 (305m),False
99,100000961890,8MqqxNI2-oo,道の駅野市里 レストラン こざくら,40.61652474815092,140.3956251187933,青森県弘前市宮地川添77-4,,,,,0118,スイーツ,6,弘南鉄道大鰐線／弘高下駅 徒歩106分 (8480m),True
0,s000251953,A3yO1TXRFHM,すたみな太郎　弘前店,40.58520185,140.49953992,青森県弘前市扇町3-1-1  ,20636,運動公園前(青森県),566,7,0108001,焼肉,2,,False
1,100000323868,P0L5WF4KCGI,はなまる,40.61259226,140.46704577,青森県弘前市若党町61-4,20709,中央弘前,1984,24,0115002,喫茶店,4,弘南鉄道大鰐線／中央弘前駅 徒歩20分 (1599m),False
2,100001431986,49c2Qa80UXk,ポワンルージュ,40.6012887,140.4721191,青森県弘前市新鍛冶町23 1F,20709,中央弘前,235,2,0102006,イタリア料理（イタリアン）,4,弘南鉄道大鰐線／中央弘前駅 徒歩3分 (208m),True
3,100000323754,GMYTJmNVQAM,わいんぱぶためのぶ,40.59722449,140.46797742,青森県弘前市銅屋町63-6,20709,中央弘前,685,8,0119007,ワインバー,4,弘南鉄道大鰐線／弘高下駅 徒歩6分 (461m),False
4,J000265786,8xLm2dQB9b-,北海道レストラン,40.60764665,140.49666954,青森県弘前市城東北3-10-71,20733,撫牛子,2164,27,0110001,和風居酒屋,6,JR弘前駅より徒歩10分です。,True
5,100000843053,d5ZgDSptv_Y,そば処 今村,40.600421,140.47057799999993,青森県弘前市新鍛冶町70,20709,中央弘前,233,2,0101017,そば,11,弘南鉄道大鰐線／中央弘前駅 徒歩3分 (229m),False
6,100001277359,DDfeQLJavDI,炭火ダイニング としぞう,40.602096036533595,140.47138262446742,青森県弘前市土手町31-1 コミュニティパークG,20709,中央弘前,372,4,0101044,炭火焼き,2,弘南鉄道大鰐線／中央弘前駅 徒歩5分 (340m),False
7,t365108,401EDKEa2HM,無添くら寿司 弘前店,40.60226964,140.50056103,青森県弘前市末広2-2-11,20753,弘前東高前,2022,25,0123001,ファミレス,2,弘南鉄道弘南線／運動公園前（青森）駅 徒歩18分 (1407m),True
8,100000919117,-bB6AVmClFY,津軽旨米屋,40.61110998619,140.46934068202995,青森県弘前市亀甲町61 津軽藩ねぷた村内,20709,中央弘前,1682,21,0101,和食,3,弘南鉄道大鰐線／中央弘前駅 徒歩17分 (1366m),False
9,100000323518,RYIUAREUSwI,ど田舎,40.58861694,140.46356992,青森県弘前市桔梗野4-2-15,20757,弘高下,814,10,0110,居酒屋、ビアホール,10,弘南鉄道大鰐線／弘高下駅 徒歩9分 (715m),False
10,t901101,meoR8RAsncQ,天丼てんや 弘前店,40.59410587,140.48421009,青森県弘前市南大町1-1-1,20753,弘前東高前,629,7,0123002,ファストフード,1,弘南鉄道弘南線／弘前東高前駅 徒歩7分 (540m),False
11,100000884631,iZCjzhX5N1g,純喫茶 ルビアン,40.60183797,140.47056862,青森県弘前市鍛冶町4,20709,中央弘前,375,4,0115002,喫茶店,3,弘南鉄道大鰐線／中央弘前駅 徒歩4分 (307m),False
12,100001360407,YYkoEIZVYD6,居酒屋 和楽味,40.5869208,140.47487260000003,青森県弘前市富野町12-31,20745,弘前学院大前,641,8,0110,居酒屋、ビアホール,2,弘南鉄道大鰐線／弘前学院大前駅 徒歩8分 (613m),False
13,100000323194,-1q__VuhRPU,びっくりドンキー弘前店,40.60471263,140.46926014,青森県弘前市元寺町36-1,20709,中央弘前,867,10,0123001,ファミレス,9,弘南鉄道大鰐線／中央弘前駅 徒歩9分 (699m),False
14,100000322695,0RxG68KUgr2,太助,40.60068253,140.4703576,青森県弘前市鍛冶町34,20709,中央弘前,282,3,0101,和食,3,弘南鉄道大鰐線／中央弘前駅 徒歩4分 (267m),False
15,100001038565,UT-TN4QYID2,スリーブリッヂ,40.599107856161,140.48242180854,青森県弘前市駅前町16-7,20758,弘前,345,4,0117,パン、サンドイッチ,2,JR奥羽本線(新庄〜青森)／弘前駅 徒歩4分 (296m),False
16,100001284350,vL_0yYjuCyA,まめ子,40.60090296078061,140.46994126281902,青森県弘前市鍛冶町29,20709,中央弘前,344,4,0110,居酒屋、ビアホール,2,弘南鉄道大鰐線／中央弘前駅 徒歩4分 (326m),False
17,0006086208,UmfK5aGCyu-,シリウス,40.57171663,140.39103487,青森県弘前市大字水木在家字桜井113-2,,,,,0101053,和食（その他）,1,JR奥羽本線弘前駅下車、弘南バスにてから「相馬庁舎」下車。車の場合は約30分。「星と森のロマントピア」内,False
18,100001300548,Hl6E3mtR2Ko,炉ばた屋 黒潮市場,40.60253689197213,140.4918340988177,青森県弘前市城東中央3-8-5,20758,弘前,1538,19,0110,居酒屋、ビアホール,2,JR奥羽本線(新庄〜青森)／弘前駅 徒歩10分 (763m),True
19,100000937626,j0gwYALQaKw,鉄板焼　15,40.601756577932,140.47149350555,青森県弘前市新鍛冶町かくみ小路9-4,20709,中央弘前,336,4,0101045,鉄板焼き,2,弘南鉄道大鰐線／中央弘前駅 徒歩4分 (300m),False
20,J001218469,tE2bRH1ZiFA,焼肉ホルモン酒場もつべぇ,40.60056875,140.47361022,青森県弘前市土手町78 ルネスアリー1F,20709,中央弘前,227,2,0108001,焼肉,,中央弘前駅正面の建物　徒歩1分,True
21,s000312241,UOcAU6WmWuU,串焼酒場 炭太郎,40.60137691,140.4705381,青森県弘前市鍛冶町11番地C1  ,20709,中央弘前,378,4,0101026,串焼き,0,,True
22,ta3a300,UEg_f65xVFw,Hirosaki Rice Wine,40.59785267,140.48304324,青森県弘前市駅前町6-6 1F,20758,弘前,279,3,0110,居酒屋、ビアホール,,JR奥羽本線(新庄〜青森)／弘前駅 徒歩3分 (230m),True
23,100001102740,1yV-mDFBcPY,ボンジュ-ル,40.599419382881,140.49225946952,青森県弘前市城東中央焼肉叙々苑 1F3-1-3,20753,弘前東高前,1214,15,0118001,洋菓子、ケーキ,2,JR奥羽本線(新庄〜青森)／弘前駅 徒歩10分 (805m),False
24,100000027714,n3WdFg6_AjU,けや木,40.574574,140.45016399999997,青森県弘前市桜ケ丘2-3-2,20700,聖愛中高前,2193,27,0115001,カフェ,2,弘南鉄道大鰐線／弘前学院大前駅 徒歩31分 (2475m),False
25,100001474674,3GkZt2WVjzI,麺屋 玉三郎,40.59266336610901,140.4678390147152,青森県弘前市桜林町9-8,20757,弘高下,81,1,0106001,ラーメン,1,弘南鉄道大鰐線／弘高下駅 徒歩1分 (48m),False
26,100001067288,_GfrpgY4hcc,ノリズクラブ,40.605369637908,140.51391399439,青森県弘前市早稲田4-1-3,20742,新里(青森県),2297,28,0118001,洋菓子、ケーキ,2,弘南鉄道弘南線／新里（青森）駅 徒歩27分 (2097m),False
27,100000965647,AxNh4mccx9k,アルペジオ,40.599677291431,140.48293716033,青森県弘前市駅前町2F17-10,20758,弘前,213,2,0119001,バー,1,JR奥羽本線(新庄〜青森)／弘前駅 徒歩3分 (231m),False
28,100001074077,-AluDcrc6sE,日向ぼっこ,40.60309771927,140.47190383538,青森県弘前市百石町2-1 かだれ横丁,20709,中央弘前,540,6,0110,居酒屋、ビアホール,1,弘南鉄道大鰐線／中央弘前駅 徒歩6分 (440m),False
29,100001522178,9pojG-d9EDY,魚魚dining 樹,40.6008864,140.4690349,青森県弘前市本町85-1 明治屋グランドビル1F,20709,中央弘前,424,5,0110,居酒屋、ビアホール,1,弘南鉄道大鰐線／中央弘前駅 徒歩6分 (415m),True
30,100001488401,m0KZftUWLJk,スカイバンケットルーム ステラ 弘前パークホテル,40.5988288,140.4756843,青森県弘前市土手町126 弘前パークホテル13F,20709,中央弘前,364,4,0103001,バイキング,1,弘南鉄道大鰐線／中央弘前駅 徒歩5分 (361m),False
31,J001101190,gex--7fmHBY,焼鳥 中田,40.59976597,140.47055766,青森県弘前市新鍛冶町82 グルメタウン201,20709,中央弘前,262,3,0110001,和風居酒屋,2,中央弘前駅から西へ167m、徒歩5分です。,True
32,100000730040,SwtUATKOc9U,京城苑,40.60015554519526,140.47000968280338,青森県弘前市桶屋町5,20709,中央弘前,300,3,0105001,韓国料理、朝鮮料理,6,弘南鉄道大鰐線／中央弘前駅 徒歩4分 (268m),False
33,53410,B_de_w6WbY-,藤田記念庭園,40.60384306,140.46122452,青森県弘前市大字上白銀町8-1,20709,中央弘前,1308,16,0305003,博物館、科学館,44,,False
34,100000323025,NysJzSxxoyw,ジャルダン洋菓子店,40.59266956,140.47318302,青森県弘前市富田3-1-6,20757,弘高下,562,7,0118001,洋菓子、ケーキ,5,弘南鉄道大鰐線／弘高下駅 徒歩7分 (554m),True
35,100000322779,QkfsRowy1Tk,焼鳥のたろう,40.60007706,140.47108538,青森県弘前市新鍛冶町59-1,20709,中央弘前,183,2,0101025,焼き鳥,4,弘南鉄道大鰐線／中央弘前駅 徒歩2分 (162m),False
36,100001159625,13SrSrBfdOU,中華そば あらや 弘前店,40.597615663103085,140.50734274527224,青森県弘前市高田3-4-5,20636,運動公園前(青森県),1808,22,0106001,ラーメン,3,弘南鉄道弘南線／運動公園前（青森）駅 徒歩13分 (1026m),False
37,J000265794,6dyPmwyUR6w,居酒屋 Tubo屋,40.60689677,140.49761391,青森県弘前市城東北4-3-1,20733,撫牛子,2178,27,0110001,和風居酒屋,,弘前駅東口から車で東へ6分、バッティングセンターすぐを左折、道なり右側にあります。,False
38,100000772518,YxLMGWqL37-,緑屋,40.59394218354522,140.4942503294477,青森県弘前市豊田1-1-2,20753,弘前東高前,677,8,0106001,ラーメン,12,弘南鉄道弘南線／弘前東高前駅 徒歩9分 (718m),False
39,100001226042,PDLRhAZ0SpM,かつや弘前城東店,40.5953192534837,140.49311151504514,青森県弘前市外崎5-1-1,20753,弘前東高前,720,9,0101015,とんかつ,4,弘南鉄道弘南線／弘前東高前駅 徒歩8分 (609m),False
40,100000772670,ArIbI9BI0aM,ふじや からあげ 弘前店,40.604583310291474,140.50698259935018,青森県弘前市田園4-7-5,20733,撫牛子,2490,31,0111,定食、食堂,4,弘南鉄道弘南線／運動公園前（青森）駅 徒歩22分 (1732m),False
41,100001263936,nvjhskVOTCU,Happy Cafe 弘前城東店,40.6023637132641,140.48907914906738,青森県弘前市稲田2-1-13,20758,弘前,1307,16,0102002,パスタ、ピザ,3,JR奥羽本線(新庄〜青森)／弘前駅 徒歩7分 (505m),True
42,EAK0000007599,kJaI5yr7SbM,Cafe&Bar Scat,40.6041577,140.4695386,青森県弘前市元寺町26,20709,中央弘前,744,9,0119004,ダイニングバー,,弘南鉄道大鰐線／中央弘前駅 徒歩8分 (617m),False
43,100000322990,knoFh1DgMzY,有限会社大阪屋,40.60080178,140.46378294,青森県弘前市本町20,20709,中央弘前,842,10,0118,スイーツ,12,弘南鉄道大鰐線／中央弘前駅 徒歩12分 (953m),False
44,100000323514,81KWZZuJ7KE,つりキチ黒鯛,40.60037146,140.47080204,青森県弘前市新鍛冶町67,20709,中央弘前,210,2,0110,居酒屋、ビアホール,3,弘南鉄道大鰐線／中央弘前駅 徒歩3分 (207m),False
45,100000884529,9kXqC6rObFc,支那そば 晃や,40.59888360809679,140.49117386341106,青森県弘前市城東中央2-2-15,20753,弘前東高前,1070,13,0106001,ラーメン,2,JR奥羽本線(新庄〜青森)／弘前駅 徒歩9分 (690m),False
46,100000323584,dsSzymcYqA-,晩しゃく処端月,40.601097,140.47087480000005,青森県弘前市新鍛冶町37-1,20709,中央弘前,299,3,0110,居酒屋、ビアホール,3,弘南鉄道大鰐線／中央弘前駅 徒歩4分 (262m),False
47,100000758228,wJ9pISi_qco,郷土料理 しまや,40.601703005880424,140.46652672473067,青森県弘前市元大工町31-1,20709,中央弘前,691,8,0101033,郷土料理,3,弘南鉄道大鰐線／中央弘前駅 徒歩9分 (691m),True
48,100000758744,v8Ik-sX8Ou6,Bar Ash,40.602518,140.471241,青森県弘前市土手町12,20709,中央弘前,504,6,0119001,バー,2,弘南鉄道大鰐線／中央弘前駅 徒歩5分 (389m),False
49,100001131760,pbcQ6MUcFvA,きはちらくはち 城東店,40.60373649567,140.5123618153,青森県弘前市早稲田2-7-6,20742,新里(青森県),2203,27,0110,居酒屋、ビアホール,3,弘南鉄道弘南線／運動公園前（青森）駅 徒歩24分 (1896m),False
50,J001101363,M0WSRsnb3aU,ぴょん吉にく仙人,40.58498697,140.47138641,青森県弘前市文京町16-32,20745,弘前学院大前,173,2,0108001,焼肉,2,弘南鉄道　大鰐線　弘前学院大前駅から徒歩約3分　弘前大学から大鰐方向　枡形交番を右折セブンイレブン西弘前店向い,True
51,100000726914,SOJhd_JP8MI,惣菜さとう,40.583951,140.471042,青森県弘前市中野1-11-12,20745,弘前学院大前,20,0,0114001,持ち帰り専門、弁当,3,弘南鉄道大鰐線／弘前学院大前駅 徒歩1分 (78m),False
52,EAP0000001934,TIHkxibPpuw,洋菓子工房ノエル(Noel),40.5977377,140.4746398,青森県弘前市品川町2-2,20709,中央弘前,311,3,0118001,洋菓子、ケーキ,13,弘南鉄道大鰐線／中央弘前駅 徒歩4分 (300m),True
53,100001148854,kNq1RnofVAE,スイーツガーデンヒロヤ 堀越店,40.578676962580396,140.51707625389326,青森県弘前市川合字浅田5-1,20742,新里(青森県),1419,17,0118,スイーツ,3,弘南鉄道弘南線／新里（青森）駅 徒歩13分 (1022m),True
54,100001353211,bYloSnRjedU,ki to ao,40.5983587,140.48168810000004,青森県弘前市駅前町13-3 サンデュエル弘前駅前II 1階,20758,弘前,473,5,0115001,カフェ,3,JR奥羽本線(新庄〜青森)／弘前駅 徒歩5分 (361m),True
55,100000984740,H_1mixD_OFc,らーめん 井上家,40.603547962738,140.48770838255,青森県弘前市稲田城東サングリーン1F2号2-5-2,20758,弘前,1125,14,0106001,ラーメン,28,JR奥羽本線(新庄〜青森)／弘前駅 徒歩7分 (519m),False
56,25338,S6UJqa0jcy6,弘前市りんご公園,40.58907462,140.44290456,青森県弘前市清水富田字寺沢125番地,20757,弘高下,2803,35,0303011,観光農園,30,,False
57,t954327,jFat5R2N2Rc,丸亀製麺 弘前店,40.59654526,140.50121129,青森県弘前市大字高田1-2-3,20753,弘前東高前,1393,17,0101018,うどん,1,弘南鉄道弘南線／運動公園前（青森）駅 徒歩10分 (801m),False
58,J000265769,wG5eiDMJ8ss,シェ・アンジュ Chez Ange,40.59886974,140.49525341,青森県弘前市外崎2-7-1,20753,弘前東高前,1301,16,0102006,イタリア料理（イタリアン）,1,弘前駅より約800m、徒歩約15分。城東口を出て直進、接骨院を右折です。,False
59,100001482140,GsACWCYk-bc,らぁめん萬,40.6017497911778,140.46602069999994,青森県弘前市元大工町20-1,20709,中央弘前,715,8,0106001,ラーメン,2,弘南鉄道大鰐線／中央弘前駅 徒歩10分 (762m),False
60,s000259369,ou2ZO1oZ_rA,オーブン亭弘前駅前店,40.59935801,140.48105158,青森県弘前市大字駅前3-2-1 イトーヨーカドー弘前店８Ｆ,20758,弘前,415,5,0123001,ファミレス,2,,False
61,100001353148,mOCg_M12ZwY,インドネパールキッチン プルナ 弘前駅前店,40.59955253,140.48409307,青森県弘前市駅前1-1-1,20758,弘前,105,1,0105006,インド料理,2,JR奥羽本線(新庄〜青森)／弘前駅 徒歩1分 (76m),False
62,100001115468,oJA4MXAeL_Q,魚河岸 岩木屋,40.55479925544357,140.54882827611073,青森県弘前市石川字泉田62-1,20630,石川(弘南鉄道線),1162,14,0101034,海鮮料理,2,弘南鉄道大鰐線／石川プール前駅 徒歩16分 (1275m),False
63,100001043899,JtZGODVZ6Bw,小山せんべい 大浦町本店,40.610790932915,140.4689399201,青森県弘前市大浦町5-3,20709,中央弘前,1615,20,0118,スイーツ,2,弘南鉄道大鰐線／中央弘前駅 徒歩17分 (1343m),False
64,100001342255,Gts2CAzxdyI,diner&bar JET,40.601869454986925,140.47139735306712,青森県弘前市新鍛冶町4-12,20709,中央弘前,343,4,0119004,ダイニングバー,1,弘南鉄道大鰐線／中央弘前駅 徒歩4分 (295m),True
65,100001190575,8hA7eYn_HZE,オモニ,40.601772127646626,140.46904469386573,青森県弘前市本町107,20709,中央弘前,522,6,0105001,韓国料理、朝鮮料理,1,弘南鉄道大鰐線／中央弘前駅 徒歩6分 (456m),False
66,100001507376,X1FYEido6Vg,かし和や直ちゃん,40.60024885025438,140.4986989259586,青森県弘前市城東中央5-2-16,20753,弘前東高前,1666,20,0110,居酒屋、ビアホール,1,弘南鉄道弘南線／運動公園前（青森）駅 徒歩17分 (1304m),True
67,100000993408,sOhr4bVUSa-,ハギワラミルクハウスローザス,40.602171253405,140.47252412036,青森県弘前市土手町42,20709,中央弘前,373,4,0118,スイーツ,1,弘南鉄道大鰐線／中央弘前駅 徒歩5分 (338m),False
68,100000323058,6g8KdxUf3uQ,幸楽苑弘前城東店,40.59769559,140.51042413,青森県弘前市早稲田3-20-5,20742,新里(青森県),1928,24,0106001,ラーメン,1,弘南鉄道弘南線／運動公園前（青森）駅 徒歩16分 (1235m),False
69,100000322889,yxKkWFf1QTg,狼森食堂,40.55649302,140.46748778,青森県弘前市狼森字天王8-4,20711,千年,1733,21,0106001,ラーメン,1,弘南鉄道大鰐線／千年駅 徒歩24分 (1865m),False
70,100001337933,0H4UVOrxivs,やまさん,40.604444,140.47693809999998,青森県弘前市南横町34-3 高橋店舗B号,20709,中央弘前,745,9,0110,居酒屋、ビアホール,1,弘南鉄道大鰐線／中央弘前駅 徒歩10分 (743m),False
71,100000773202,rSkInIn7xvg,宮園苑,40.620275,140.476698,青森県弘前市宮園5-8-12,20733,撫牛子,2199,27,0111,定食、食堂,6,JR奥羽本線(新庄〜青森)／撫牛子駅 徒歩29分 (2325m),False
72,100001110425,N2XL7kjkgIY,レストランくれそん,40.59267467,140.45675892,青森県弘前市樹木1-3-4,20757,弘高下,1191,14,0102,洋食,13,弘南鉄道大鰐線／弘高下駅 徒歩16分 (1211m),False
73,100000884650,zzPqRxvd96I,カフェ ジーバ,40.60278657136404,140.47190486736258,青森県弘前市土手町27,20709,中央弘前,456,5,0115001,カフェ,6,弘南鉄道大鰐線／中央弘前駅 徒歩5分 (406m),False
74,100000839014,nFUMoGGjKoM,開雲堂,40.6003267004357,140.47429375627098,青森県弘前市土手町83,20709,中央弘前,188,2,0118,スイーツ,11,弘南鉄道大鰐線／中央弘前駅 徒歩4分 (267m),False
75,100000719290,uQ4aJrvsPcQ,侍庵,40.601668075382506,140.47146602883606,青森県弘前市新鍛冶町-93 かくみ小路,20709,中央弘前,327,4,0119001,バー,4,弘南鉄道大鰐線／中央弘前駅 徒歩4分 (292m),False
76,100000323091,G8R8rVvwkYg,ラーメンショップ弘前,40.5748344,140.51887184,青森県弘前市堀越字川合189-1,20742,新里(青森県),2049,25,0106001,ラーメン,2,弘南鉄道弘南線／新里（青森）駅 徒歩18分 (1404m),False
77,100000322717,hM7Y1vVQKKM,貴陽苑,40.59377022,140.49428433,青森県弘前市豊田1-1-16,20753,弘前東高前,682,8,0108001,焼肉,2,弘南鉄道弘南線／弘前東高前駅 徒歩9分 (659m),False
78,100000322707,-f0PoQOdkzw,かっぱ寿司弘前安原店,40.57640511,140.49029124,青森県弘前市安原1-1-1,20711,千年,1389,17,0101013,回転寿司,3,弘南鉄道大鰐線／小栗山駅 徒歩18分 (1404m),True
79,s000279778,LIixV1Gb28o,羊肉鍋　生出屋,40.60851819,140.48362027,青森県弘前市和徳町209 和徳センター,20758,弘前,1268,15,0108002,ジンギスカン,0,,True
80,100000323076,H4Lp9ZHuFIA,満来,40.60797192,140.50412981,青森県弘前市末広4-8-1,20733,撫牛子,2077,25,0104001,中華料理,9,JR奥羽本線(新庄〜青森)／撫牛子駅 徒歩21分 (1646m),False
81,100001161779,DZkaM1J278U,ドト―ル弘前駅ビル店,40.59938853079406,140.48491320249946,青森県弘前市表町2-11弘前駅ビル2F,20758,弘前,87,1,0115001,カフェ,3,JR奥羽本線(新庄〜青森)／弘前駅 徒歩1分 (39m),False
82,100000322858,AIvgi5LTm1c,かつ元本店,40.62833794,140.48814362,青森県弘前市大久保字西田124,20733,撫牛子,1515,18,0101015,とんかつ,9,JR奥羽本線(新庄〜青森)／撫牛子駅 徒歩17分 (1310m),False
83,YP1588674275BF,Z3YjoIrY3TI,ステーキ宮 弘前店,40.59622845,140.49771445,青森県弘前市外崎4-7-1,20753,弘前東高前,1136,14,0102001,ステーキ、ハンバーグ,1,弘南鉄道弘南線／運動公園前（青森）駅 徒歩12分 (933m),True
84,100001426730,1beiA-UvdWc,HERB & SPICE CAFE MINERAL,40.60461919999999,140.470239,青森県弘前市元寺町40 齋栄旅館 1F,20709,中央弘前,861,10,0115001,カフェ,2,弘南鉄道大鰐線／中央弘前駅 徒歩8分 (626m),False
85,100001314820,5HYRaSsehDs,らーめん酒場 くろふね,40.60021620067153,140.4697746791336,青森県弘前市桶屋町4-9 1F,20709,中央弘前,294,3,0106001,ラーメン,2,弘南鉄道大鰐線／中央弘前駅 徒歩4分 (313m),False
86,100000798173,et8jHojSNeU,蕎麦清,40.59094190601314,140.4989884795067,青森県弘前市小比内2-9-9,20636,運動公園前(青森県),839,10,0101017,そば,2,弘南鉄道弘南線／運動公園前（青森）駅 徒歩6分 (459m),False
87,100001023387,9NupCT1gazg,自然房 万作庵,40.573358471299,140.38692290579,青森県弘前市水木在家字桜井113-9,,,,,0101017,そば,2,弘南鉄道大鰐線／弘高下駅 徒歩116分 (9285m),False
88,100000323807,cG6q0-C9Aik,珈甘堂ピンクベア,40.60002703,140.46973824,青森県弘前市桶屋町4,20709,中央弘前,315,3,0115002,喫茶店,9,弘南鉄道大鰐線／中央弘前駅 徒歩4分 (291m),False
89,100001235525,EnWkkpx-Xvo,古川食堂,40.62889647348903,140.26910414695737,青森県弘前市常盤野字湯の沢88,,,,,0111,定食、食堂,1,,False
90,100001296412,com_ROOoiy-,白樺 Restaurant 岩木山総合公園,40.6147404,140.30437359999996,青森県弘前市百沢裾野195-1,,,,,0111,定食、食堂,1,,False
91,100001145965,dK-doWVIR3c,肉の富田,40.598878509527,140.47494125098,青森県弘前市土手町121,20709,中央弘前,312,3,0101021,すき焼き,1,弘南鉄道大鰐線／中央弘前駅 徒歩4分 (305m),False
92,100001075292,0GHP4nfrX4E,コトリ カフェ,40.603544252078,140.47164069914,青森県弘前市百石町3-2 百石町展示館,20709,中央弘前,563,7,0115001,カフェ,1,弘南鉄道大鰐線／中央弘前駅 徒歩7分 (492m),True
93,100001127810,zDM2GaHQmvY,キアッソ,40.572994631462,140.49192392714,青森県弘前市泉野2-12-1,20711,千年,1278,15,0102006,イタリア料理（イタリアン）,1,弘南鉄道大鰐線／小栗山駅 徒歩15分 (1128m),False
94,100000854122,CRTDuvnJBvI,まるなか食堂,40.60993477493547,140.4817178048935,青森県弘前市野田1-8-3,20758,弘前,1504,18,0101,和食,1,JR奥羽本線(新庄〜青森)／弘前駅 徒歩15分 (1191m),False
95,100001281903,X4HSzLgdP9c,BEER & SAUSAGE BAR BORDER,40.599779134737645,140.4706851904838,青森県弘前市新鍛冶町82かじまちグルメタウン4F,20709,中央弘前,248,3,0119001,バー,1,弘南鉄道大鰐線／中央弘前駅 徒歩3分 (203m),False
96,100001035127,wWzwXxM-bwY,ピエタンザ,40.609924509611,140.50483243477,青森県弘前市末広5-5-3,20733,撫牛子,1859,23,0102002,パスタ、ピザ,1,JR奥羽本線(新庄〜青森)／撫牛子駅 徒歩19分 (1495m),False
97,100001501185,9BorIYam41A,桜林茶寮,40.62513099110852,140.33394223447112,青森県弘前市百沢字寺沢257-4,,,,,0115001,カフェ,1,,True
98,100001128670,qQOQOwe9nLo,ラグノオアプリ,40.599442898987,140.48481868811,青森県弘前市表町2-11 アプリーズ 1F,20758,弘前,89,1,0118001,洋菓子、ケーキ,1,JR奥羽本線(新庄〜青森)／弘前駅 徒歩1分 (38m),True
99,100001290390,3BNF6Ggf3K2,Qureyon  クレヨン,40.5994841076407,140.4705179274082,青森県弘前市新鍛冶町91マックヒルズ1F,20709,中央弘前,291,3,0119001,バー,1,弘南鉄道大鰐線／中央弘前駅 徒歩3分 (219m),False
0,100000772502,0pnXiHnhk_2,津久志食堂,40.558647,140.497054,青森県弘前市松木平松山下27-9,20770,松木平,230,2,0111,定食、食堂,1,弘南鉄道大鰐線／松木平駅 徒歩3分 (225m),False
1,100000323647,odLn_9E1pI-,ぶん,40.60151858,140.47143248,青森県弘前市新鍛冶町9-7,20709,中央弘前,295,3,0101028,おでん,1,弘南鉄道大鰐線／中央弘前駅 徒歩4分 (277m),False
2,100000323782,vZAKVjq4-Vg,カフェ・ホートン,40.59350012,140.47596892,青森県弘前市御幸町5-9,20757,弘高下,810,10,0115002,喫茶店,1,弘南鉄道大鰐線／中央弘前駅 徒歩10分 (753m),False
3,3020868,9U7d3WM833M,ガスト　弘前城東店,40.60983259,140.49844979,青森県弘前市大字城東北4-5-13,20733,撫牛子,1756,21,0102,洋食,7,,True
4,100001345880,3ehZBkhfpOY,弘前個室居酒屋　東北料理とお酒　北六　弘前店,40.59813399999999,140.48408300000006,青森県弘前市大町1-1-2 アートホテル弘前シティ B1F,20758,弘前,197,2,0110,居酒屋、ビアホール,,JR奥羽本線(新庄〜青森)／弘前駅 徒歩2分 (132m),False
5,J000772144,lyf96jHWYZI,大衆鶏酒場 とりべえ,40.59925228,140.47526856,青森県弘前市土手町120-1,20709,中央弘前,319,3,0108001,焼肉,,中央弘前駅より徒歩4分、駅を出て右へ、突当り左折、国道3号線を出て右折、弘前パークホテル手前を左折、前方左手です。,True
6,s000310191,kmEk52Md5EA,弘前駅前鶏料理個室ダイニング　風花　かざはな,40.59815545,140.48409872,青森県弘前市大町1-1-2 アートホテル弘前シティB1F,20758,弘前,193,2,0110001,和風居酒屋,0,,False
7,1006711,mmfB9WGckho,ピザ　テン．フォー　城東中央店,40.59909174,140.49043986,青森県弘前市大字城東中央2-2-1 弘前ブラザービル,20753,弘前東高前,1048,13,0102002,パスタ、ピザ,5,JR奥羽本線(新庄〜青森)／弘前駅 徒歩8分 (606m),False
8,1000547,c631wmU3Rx-,カレーハウスCoCo壱番屋　弘前城東店,40.59597279,140.49479805,青森県弘前市大字外崎4-5-3,20753,弘前東高前,922,11,0107001,カレー,5,,True
9,J000100584,mslN-c1DhUY,フランス食堂 シェ・モア,40.60117440,140.47830993,青森県弘前市代官町53-2,20758,弘前,687,8,0102006,イタリア料理（イタリアン）,15,JR弘前駅より弘前公園方向へ、みちのく銀行交差点を右折し徒歩7分です。,False
10,J001246081,6e1WsIMd5EA,お肉で乾杯個室居酒屋 鶏まろ 弘前駅前店,40.59815545,140.48409872,青森県弘前市大町1-1-2 アートホテル弘前シティB1F,20758,弘前,193,2,0110001,和風居酒屋,,JR弘前駅の中央口から出て左手に見えるアートホテルシティ地下1階にございます!!徒歩1分★迷わず待ち合わせにも便利！！,False
11,100000323699,SVqAglcOc3U,酔イ屋,40.60109915,140.47034368,青森県弘前市鍛冶町22-1,20709,中央弘前,381,4,0110,居酒屋、ビアホール,4,弘南鉄道大鰐線／中央弘前駅 徒歩4分 (299m),False
12,100000861474,X4Q6lyT8SPg,西海岸,40.601672150947,140.47024918425996,青森県弘前市鍛冶町7-3,20709,中央弘前,402,5,0101003,割ぽう,4,弘南鉄道大鰐線／中央弘前駅 徒歩5分 (355m),False
13,100001025645,Hez2T5WQVlk,レストランパプリカ,40.629251392123,140.45807089183,青森県弘前市石渡3-4-41,20733,撫牛子,3830,47,0115001,カフェ,5,弘南鉄道大鰐線／中央弘前駅 徒歩47分 (3692m),False
14,100001468377,nVfoHVfVZmc,横浜家系ラーメン 壱角家 弘前店,40.6015062,140.5009999,青森県弘前市末広2-2-8,20753,弘前東高前,1933,24,0106001,ラーメン,3,弘南鉄道弘南線／運動公園前（青森）駅 徒歩17分 (1359m),False
15,100000758777,E5vjXmlDHNE,Punto Rosso,40.60082992700199,140.47266347238735,青森県弘前市北川端町2-1,20709,中央弘前,150,1,0119001,バー,2,弘南鉄道大鰐線／中央弘前駅 徒歩3分 (194m),False
16,YP0544626323BC,vJcCVvsy5ek,かつてん 弘前ヒロロ店,40.59742684,140.48172223,青森県弘前市駅前町9-20 ヒロロ4F,20758,弘前,424,5,0101031,丼もの、牛丼、親子丼,0,JR奥羽本線(新庄〜青森)／弘前駅 徒歩6分 (416m),True
17,100001059264,m_CdYVB1EYc,レストラン ジョージの店,40.586203580054,140.49655521295,青森県弘前市小比内5-1-1,20636,運動公園前(青森県),763,9,0102,洋食,11,弘南鉄道弘南線／運動公園前（青森）駅 徒歩10分 (793m),False
18,100000849678,b278l5sBTpA,萬福ラーメン,40.59980535720706,140.46993772883604,青森県弘前市桶屋町11,20709,中央弘前,340,4,0106001,ラーメン,3,弘南鉄道大鰐線／中央弘前駅 徒歩4分 (262m),False
19,100000881706,G3HiqV3cd6M,ラーメン一文路,40.60899842811096,140.49309164286092,青森県弘前市高崎2-4-3,20758,弘前,1732,21,0106001,ラーメン,2,JR奥羽本線(新庄〜青森)／弘前駅 徒歩17分 (1365m),False
20,100001345373,1RdZde1fLuU,英国貴族の館,40.5653391,140.43426520000003,青森県弘前市小沢広野226-24,20700,聖愛中高前,4262,53,0115001,カフェ,2,JR奥羽本線(新庄〜青森)／北常盤駅 徒歩27分 (2116m),True
21,J000100600,uEbUSY6bWZU,マタギ亭,40.63019293,140.26842536,青森県弘前市常盤野湯ノ沢19,,,,,0101053,和食（その他）,10,弘前駅より枯木平行バスで50分。岳温泉前下車徒歩1分です。,True
22,100000323786,yB1ev2UHJE2,カフェテラス　KE・RA・RA,40.59034496,140.478594,青森県弘前市御幸町9-17,20757,弘高下,1011,12,0115001,カフェ,2,弘南鉄道弘南線／弘前東高前駅 徒歩14分 (1124m),False
23,111304,DaPmNE6Fy0w,ブッフェダイニング シェフズレシピ／アートホテル弘前シティ,40.5981570,140.484104,青森県弘前市大字大町1-1-2 アートホテル弘前シティ 2F,20758,弘前,193,2,0102004,洋食（その他）,,JR奥羽本 弘前 中央口より徒歩1分,False
24,100001293641,IV2TGDpZBa6,パキスタンレストラン サナ,40.60668561,140.49588352,青森県弘前市城東北3-10-1 さくら野1F バス乗り場入口側,20758,弘前,2079,25,0105008,パキスタン料理,1,JR奥羽本線(新庄〜青森)／弘前駅 徒歩18分 (1394m),False
25,100000768310,EF0wZlDkeX-,津軽弘前屋台村かだれ横丁,40.603125,140.471872,青森県弘前市百石町2-1 かだれ横丁,20709,中央弘前,538,6,0110,居酒屋、ビアホール,2,弘南鉄道大鰐線／中央弘前駅 徒歩6分 (443m),False
26,100001278835,b-Xu3zirIeo,Bask食堂,40.603534,140.4728149,青森県弘前市徒町16-1 第8狩野ビル1F,20709,中央弘前,664,8,0119004,ダイニングバー,1,弘南鉄道大鰐線／中央弘前駅 徒歩7分 (492m),False
27,100001063338,fG2NfpfqGwI,ブルーエイト,40.598331307702,140.47525741003,青森県弘前市土手町132-2,20709,中央弘前,365,4,0118,スイーツ,2,弘南鉄道大鰐線／中央弘前駅 徒歩5分 (351m),False
28,100000322902,ofMWOQU9m4g,熊っこラーメン青山本店,40.61788923,140.48259466,青森県弘前市青山1-19-1,20733,撫牛子,1850,23,0106001,ラーメン,1,JR奥羽本線(新庄〜青森)／撫牛子駅 徒歩22分 (1710m),False
29,100000322832,vEnsFaqnTpU,竹くら,40.599820975800455,140.49439686018695,青森県弘前市城東中央3-4-2,20753,弘前東高前,1364,17,0101017,そば,8,JR奥羽本線(新庄〜青森)／弘前駅 徒歩12分 (951m),False
30,100001174866,U23N2pRVz1Q,そば処 地蔵茶屋,40.6160518461,140.3104560294999,青森県弘前市百沢据野,,,,,0101017,そば,1,,False
31,111305,j_CGc9BiNdM,鉄板焼き シェフズテーブル／アートホテル弘前シティ,40.5981407,140.483988,青森県弘前市大字大町1-1-2 アートホテル弘前シティ 2F,20758,弘前,196,2,0101045,鉄板焼き,,JR奥羽本 弘前 中央口より徒歩1分,False
32,100000969614,TJgtvkqtDWE,ハマダ海産 虹のマート店,40.598990756955,140.48175672272,青森県弘前市駅前町12-1 虹のマート,20758,弘前,370,4,0101034,海鮮料理,1,JR奥羽本線(新庄〜青森)／弘前駅 徒歩5分 (371m),False
33,100001481272,K23ip2MKidU,ローカルフードブュッフェ そらにわ,40.6001971797172,140.47300398273387,青森県弘前市土手町78 ルネスアリー1F,20709,中央弘前,84,1,0103001,バイキング,1,弘南鉄道大鰐線／中央弘前駅 徒歩2分 (101m),True
34,100001329257,A8Fg9Nzo3N6,Cafe 有&#39;s,40.603387876122895,140.5133539172705,青森県弘前市早稲田2-1-2,20742,新里(青森県),2083,26,0115001,カフェ,1,弘南鉄道弘南線／運動公園前（青森）駅 徒歩24分 (1889m),False
35,100001273411,Dj9ORU4srqE,中華そば あらや 弘前新鍛冶町店,40.60022027453278,140.47073824465267,青森県弘前市新鍛冶町66-2,20709,中央弘前,203,2,0106001,ラーメン,1,弘南鉄道大鰐線／中央弘前駅 徒歩3分 (202m),False
36,100000322888,PWQ5sE-xMSY,えびす,40.58924291,140.49501511,青森県弘前市小比内4-6-1,20753,弘前東高前,878,10,0111,定食、食堂,1,弘南鉄道弘南線／弘前東高前駅 徒歩10分 (796m),False
37,100001414067,gFSPus_CN1A,レストランPomme〜りんご〜,40.60287641821835,140.4633346723873,青森県弘前市上白銀町1-1弘前市役所 新庁舎4階,20709,中央弘前,1033,12,0111,定食、食堂,1,弘南鉄道大鰐線／中央弘前駅 徒歩14分 (1061m),False
38,100001351926,o3MN4uB6d7g,キッチン39,40.60386074710287,140.47230759338936,青森県弘前市百石町16,20709,中央弘前,622,7,0107001,カレー,1,弘南鉄道大鰐線／中央弘前駅 徒歩7分 (490m),False
39,100000323094,NsoubVViS6E,ラーメン華心,40.584832,140.47056470000007,青森県弘前市中野1-12-12,20745,弘前学院大前,129,1,0106001,ラーメン,8,弘南鉄道大鰐線／弘前学院大前駅 徒歩2分 (163m),False
40,100000322823,o5_PMcbOZRw,龍亭,40.62833794,140.48814362,青森県弘前市大久保字西田124-1,20733,撫牛子,1515,18,0111,定食、食堂,1,JR奥羽本線(新庄〜青森)／撫牛子駅 徒歩17分 (1310m),False
41,100001318833,K0n30v8Qzro,蜜芋屋,40.592298780301306,140.49340597153616,青森県弘前市城東5-13-1,20753,弘前東高前,769,9,0118,スイーツ,1,弘南鉄道弘南線／弘前東高前駅 徒歩8分 (599m),True
42,100001032805,gV5jryiwMBM,独立行政法人 国立病院機構 弘前病院 売店食堂,40.58999085404,140.47575289539,青森県弘前市富野町1,20757,弘高下,847,10,0111,定食、食堂,1,弘南鉄道大鰐線／弘高下駅 徒歩12分 (904m),False
43,1006611,5s5_tuMX6Wg,ピザ　テン．フォー　駒越店,40.60714529,140.45442194,青森県弘前市大字駒越町12番1号,20709,中央弘前,2028,25,0102002,パスタ、ピザ,0,弘南鉄道大鰐線／中央弘前駅 徒歩27分 (2164m),False
44,100001302494,FD8EMYYG_5k,和菓子 こがねさわ,40.5917925,140.4753306,青森県弘前市富田3-11-12,20757,弘高下,649,8,0118,スイーツ,1,弘南鉄道大鰐線／弘高下駅 徒歩10分 (795m),False
45,100001067059,cCp-Spt0k1I,ブーランジェリー・フー,40.611903605653,140.46933276744,青森県弘前市亀甲町65-1,20709,中央弘前,1748,21,0117,パン、サンドイッチ,1,弘南鉄道大鰐線／中央弘前駅 徒歩19分 (1452m),True
46,100001020626,Pgua7gSHRaU,追の沢マス釣場,40.636724245158,140.35376049623,青森県弘前市百沢東岩木山2279,,,,,0101018,うどん,1,,False
47,100000943616,67t3fzpZBa6,北の綿雪 さくら野弘前店,40.606668022916,140.49586024527,青森県弘前市城東北さくら野百貨店弘前店3-10-1,20758,弘前,2078,25,0118,スイーツ,1,JR奥羽本線(新庄〜青森)／弘前駅 徒歩18分 (1429m),True
48,J000266154,Dg6NPeaROo2,車寿し,40.59863841,140.47395478,青森県弘前市山道町20-3,20709,中央弘前,196,2,0101053,和食（その他）,8,中央弘前駅を背に右側方向へ、昇天教会の通りにあります。,False
49,100000878118,PJKgABYj7LA,ハンモック,40.602288005872815,140.50240373235454,青森県弘前市末広2-6-6,20753,弘前東高前,2129,26,0115001,カフェ,,弘南鉄道弘南線／運動公園前（青森）駅 徒歩18分 (1417m),False
50,100000767131,5BusmwadMvc,ファーマーズキッチン,40.59925198873421,140.49307244412284,青森県弘前市外崎1-2-2,20753,弘前東高前,1249,15,0114001,持ち帰り専門、弁当,,JR奥羽本線(新庄〜青森)／弘前駅 徒歩12分 (896m),False
51,100001076686,AZ4w9bBuXtU,レストラン セーブル,40.59268857108746,140.4812043524571,青森県弘前市松森町73キングパチンコ 2F,20753,弘前東高前,850,10,0123001,ファミレス,6,弘南鉄道弘南線／弘前東高前駅 徒歩11分 (814m),False
52,100000775162,XlX79AlOwos,じょっぱり寿司,40.600241,140.471603,青森県弘前市北川端町21,20709,中央弘前,136,1,0101,和食,,弘南鉄道大鰐線／中央弘前駅 徒歩2分 (139m),False
53,100000322703,Ojs1_3jVQIA,元鮨,40.60066029,140.46967708,青森県弘前市鍛冶町35-2,20709,中央弘前,330,4,0101,和食,6,弘南鉄道大鰐線／中央弘前駅 徒歩4分 (327m),True
54,100000322749,KR8Xd2ZfKbg,焼肉レストランひがしやま弘前店,40.60383608,140.49947774,青森県弘前市末広1-3-1,20753,弘前東高前,2142,26,0108001,焼肉,5,弘南鉄道弘南線／運動公園前（青森）駅 徒歩21分 (1632m),True
55,100000053260,vj8Zin2AOjo,茶飯次,40.60382085436875,140.47802085648345,青森県弘前市萱町22,20709,中央弘前,772,9,0104001,中華料理,4,弘南鉄道大鰐線／中央弘前駅 徒歩11分 (829m),False
56,100000720940,m_j7U-9XV62,函太郎 弘前店,40.609418,140.49852499999997,青森県弘前市城東北4-5-3,20733,撫牛子,1804,22,0101,和食,4,JR奥羽本線(新庄〜青森)／撫牛子駅 徒歩17分 (1323m),True
57,100000733340,li2KoSPwyPY,やまなか家弘前店,40.603912,140.508868,青森県弘前市田園3-7-1,20742,新里(青森県),2543,31,0108001,焼肉,4,弘南鉄道弘南線／運動公園前（青森）駅 徒歩22分 (1730m),False
58,J000265728,dswFot7jwRw,お好み焼・鉄板焼 かちかち山,40.60224773,140.50717699,青森県弘前市田園3-2-8,20636,運動公園前(青森県),2311,28,0101029,お好み焼き、たこ焼き,5,弘前駅より車で5分です。,True
59,100001170974,DlmRG223Rrs,三忠 塩分町分店,40.6023970833356,140.4642210950533,青森県弘前市塩分町1-2,20709,中央弘前,915,11,0101017,そば,3,弘南鉄道大鰐線／中央弘前駅 徒歩12分 (957m),False
60,100000323984,xwgLPIQBYnA,ポテト,40.56645017,140.47018452,青森県弘前市原ケ平4-3-2,20711,千年,1070,13,0111,定食、食堂,2,弘南鉄道大鰐線／千年駅 徒歩14分 (1126m),False
61,100000323049,yJcYCiLGIYE,ル・シュクル,40.60110377,140.51385126,青森県弘前市早稲田4-3-4 Aー101,20742,新里(青森県),1830,22,0118001,洋菓子、ケーキ,4,弘南鉄道弘南線／新里（青森）駅 徒歩21分 (1657m),False
62,J001232332,83Uv_fKmqVM,しゃぶしゃぶブッフェ しゃぶ葉 弘前城東店,40.60389160,140.49881392,青森県弘前市城東北4-1-9,20753,弘前東高前,2099,26,0101053,和食（その他）,,弘南鉄道弘南線，ＪＲ奥羽本線弘前駅城東口より徒歩約24分,True
63,100000322839,72R5g-tErWc,めん一源,40.60608334,140.50621301,青森県弘前市田園1-8-1,20733,撫牛子,2308,28,0101017,そば,12,弘南鉄道弘南線／運動公園前（青森）駅 徒歩24分 (1875m),False
64,60018,wrApvprlpBU,弘前市立百石町展示館,40.60353226,140.47161288,青森県弘前市百石町3-2 弘前市立百石町展示館,20709,中央弘前,562,7,0115001,カフェ,14,,False
65,100001012879,A1ZECiRHc0U,みっきー,40.62110106247,140.48060946602,青森県弘前市青山3-1-1,20733,撫牛子,1912,23,0114001,持ち帰り専門、弁当,2,JR奥羽本線(新庄〜青森)／撫牛子駅 徒歩24分 (1888m),False
66,100000883961,62xXBGKUhXU,会席郷土料理・幻の津軽そば　野の庵,40.61016111685047,140.46242058277016,青森県弘前市五十石町57,20709,中央弘前,2297,28,0101001,懐石料理,3,弘南鉄道大鰐線／中央弘前駅 徒歩21分 (1635m),False
67,100000947219,KbQQVIC3bEM,スミス,40.601493516963,140.47741554502,青森県弘前市北瓦ケ町8-1 朝日コーポE 1F,20709,中央弘前,607,7,0115001,カフェ,2,弘南鉄道大鰐線／中央弘前駅 徒歩8分 (635m),False
68,J000266296,u_Z_bmq9zQc,くま吉ラーメン,40.58390929,140.47058373,青森県弘前市中野1-13-1,20745,弘前学院大前,39,0,0106001,ラーメン,2,弘前学院大前駅から徒歩1分、駅を出て左折(北へ)、左手です。,False
69,J000964994,C7rS9r00_jk,カフェ&ギャラリー モンロー,40.59061159,140.47851065,青森県弘前市御幸町9-21,20757,弘高下,980,12,0115001,カフェ,2,弘前東高前駅から徒歩10分。弘前病院の東側です。,False
70,J000772086,-f0PoLQPfGs,かっぱ寿司 弘前八幡店,40.61622562,140.48475300,青森県弘前市八幡町3-2-4,20733,撫牛子,1685,21,0101053,和食（その他）,3,撫牛子駅から車で10分。,True
71,100000034148,aqYXEsHujEY,エボリューション,40.59922,140.49317050000002,青森県弘前市外崎1-2-4,20753,弘前東高前,1262,15,0104001,中華料理,3,JR奥羽本線(新庄〜青森)／弘前駅 徒歩12分 (907m),False
72,J000265775,lszOkwA_yEQ,らーめん くまちゃん,40.60181996,140.50642988,青森県弘前市田園2-3-6,20636,運動公園前(青森県),2307,28,0106001,ラーメン,2,弘前駅東口から車で6分、弘前東消防署から法務局に向かう2つ目の信号の手前です。,False
73,100001244032,uFTsyngDVR-,芝のラーメン屋さん 弘前店,40.59935801,140.48105158,青森県弘前市駅前3-2-1 イトーヨーカドー内,20758,弘前,415,5,0106001,ラーメン,2,JR奥羽本線(新庄〜青森)／弘前駅 徒歩6分 (462m),False
74,t000510721,Wb2h4ZsCVOc,カラオケルームメロディクイーン,40.5822446,140.471778,青森県弘前市中野２−１０−８メゾン・西弘,20745,弘前学院大前,239,2,0124002,カラオケボックス,,,False
75,100000323680,R_L4XJqNvjQ,土竜,40.588924235874096,140.46361894723873,青森県弘前市桔梗野4-1-1,20757,弘高下,778,9,0110,居酒屋、ビアホール,2,弘南鉄道大鰐線／弘高下駅 徒歩9分 (671m),False
76,100000783856,gbdo8PU5PBw,ルネスアベニュー　スキップハート,40.600361,140.47329690000004,青森県弘前市土手町78ルネスアベニュー1階,20709,中央弘前,171,2,0118,スイーツ,2,弘南鉄道大鰐線／中央弘前駅 徒歩3分 (182m),False
77,100000322723,qdzmcQj77Ic,叙々苑弘前店,40.59940012,140.49229248,青森県弘前市城東中央3-1-3,20753,弘前東高前,1209,15,0108001,焼肉,10,JR奥羽本線(新庄〜青森)／弘前駅 徒歩11分 (808m),False
78,100000038770,TUzngDKOc9U,鮨勝,40.600041,140.47012799999993,青森県弘前市桶屋町5,20709,中央弘前,278,3,0101,和食,2,弘南鉄道大鰐線／中央弘前駅 徒歩4分 (251m),False
79,100001158263,c74RaqxfUZ-,ダイニングルームアップ,40.6019033125141,140.47058980190445,青森県弘前市鍛冶町1 石岡ビル1F,20709,中央弘前,384,4,0119004,ダイニングバー,2,弘南鉄道大鰐線／中央弘前駅 徒歩5分 (355m),True
80,100001272442,LnrBI3MVIik,お菓子のヒロヤ 船水店,40.62937179461466,140.46089282035825,青森県弘前市船水2-1-1,20733,撫牛子,3649,45,0118001,洋菓子、ケーキ,1,弘南鉄道大鰐線／中央弘前駅 徒歩45分 (3582m),True
81,100001353903,v58OmvkSkUo,カフェ  エルミタージュ,40.5993353,140.49134860000004,青森県弘前市城東中央2-3-2サンケイビル103,20753,弘前東高前,1139,14,0102,洋食,1,JR奥羽本線(新庄〜青森)／弘前駅 徒歩8分 (610m),True
82,100000758750,14uCEjSLGiQ,cafe bar aj,40.60366,140.472163,青森県弘前市百石町12,20709,中央弘前,597,7,0119004,ダイニングバー,1,弘南鉄道大鰐線／中央弘前駅 徒歩7分 (501m),True
83,100001461162,SiEl7YV7xi2,CHANTLOOSE,40.59102697195696,140.4821060104507,青森県弘前市松森町121,20753,弘前東高前,683,8,0107001,カレー,1,弘南鉄道弘南線／弘前東高前駅 徒歩9分 (669m),False
84,100001227456,g7rnmrEJ1J2,ファーマーズダイニングベジフル,40.59853710980436,140.47572007179258,青森県弘前市土手町131,20709,中央弘前,377,4,0115001,カフェ,1,弘南鉄道大鰐線／中央弘前駅 徒歩5分 (396m),False
85,ID0200482,U1l_te7EZJo,なか卯 7号弘前堅田店,40.627636349073,140.48729288949,青森県弘前市大字堅田字神田382-8,20733,撫牛子,1430,17,0101031,丼もの、牛丼、親子丼,1,JR奥羽本線(新庄〜青森)／撫牛子駅 徒歩17分 (1344m),True
86,100001334348,sTE5pvwca86,食楽処 桜家,40.6078042,140.45917229999998,青森県弘前市五十石町6-2,20709,中央弘前,1939,24,0101,和食,1,弘南鉄道大鰐線／中央弘前駅 徒歩22分 (1745m),False
87,100001114199,VHEmJbOP8xw,ロイヤル ファクトリー 弘前ヒロロ店,40.597290843152,140.48172748485,青森県弘前市駅前町9-20 弘前ヒロロ B1F,20758,弘前,435,5,0117,パン、サンドイッチ,1,JR奥羽本線(新庄〜青森)／弘前駅 徒歩6分 (454m),False
88,100000323086,UQlLVVeCCBw,山忠下町店,40.60954513,140.45727155,青森県弘前市新町230,20709,中央弘前,2172,27,0106001,ラーメン,1,弘南鉄道大鰐線／中央弘前駅 徒歩26分 (2020m),False
89,100001357327,6BHcbly6etM,カフェボアソルテ,40.553175911014144,140.55042425000875,青森県弘前市石川泉田21-2,20630,石川(弘南鉄道線),1244,15,0115001,カフェ,1,弘南鉄道大鰐線／鯖石駅 徒歩25分 (1956m),False
90,100000878116,GGJD9tN8c0k,パノーマルカフェ,40.603119165674215,140.471805842388,青森県弘前市百石町2-1かだれ横丁,20709,中央弘前,530,6,0115001,カフェ,1,弘南鉄道大鰐線／中央弘前駅 徒歩6分 (443m),False
91,246034281009676289,vXQ7d2ryJXE,寿々炉,40.60252,140.473694,青森県弘前市田代町 14-2,20709,中央弘前,494,6,0303,レジャー、趣味,11,,True
92,100000758718,N8vfeiQuVy6,The Black Widow,40.60012243372819,140.47085161838527,青森県弘前市新鍛冶町43-6 ソレイユビル,20709,中央弘前,201,2,0119001,バー,1,弘南鉄道大鰐線／中央弘前駅 徒歩3分 (185m),False
93,100001542422,XyhEFMv8cGI,やきとり弁当 こう乃とり,40.59531140833226,140.48951918895494,青森県弘前市城東3-3-1,20753,弘前東高前,582,7,0101025,焼き鳥,1,弘南鉄道弘南線／弘前東高前駅 徒歩5分 (380m),False
94,100000772853,HVwA3lJkc3o,豚次郎,40.60176337646798,140.46606562113425,青森県弘前市元大工町20-1,20709,中央弘前,714,8,0106001,ラーメン,1,弘南鉄道大鰐線／中央弘前駅 徒歩10分 (741m),False
95,100001292976,YK4jLECJPk2,地鶏白湯soba15,40.60177774457675,140.46609583075102,青森県弘前市元大工町20-1,20709,中央弘前,714,8,0106001,ラーメン,1,弘南鉄道大鰐線／中央弘前駅 徒歩10分 (755m),False
96,100001493545,jwrVZ2RA-UI,満ぷく処 くぅ,40.55433671999999,140.5407409254891,青森県弘前市石川字石川55-1,20630,石川(弘南鉄道線),586,7,0102,洋食,1,JR奥羽本線(新庄〜青森)／石川駅 徒歩14分 (1068m),False
97,100001072220,TvKJ2EELsr-,津軽ジェラート,40.55475158,140.54879474,青森県弘前市石川字泉田62-1 道の駅ひろさき サンフェスタ石川,20630,石川(弘南鉄道線),1156,14,0118,スイーツ,1,弘南鉄道大鰐線／石川プール前駅 徒歩17分 (1342m),False
98,100000322834,fbiGbDPUwH-,ますみや,40.60560422,140.47039335,青森県弘前市元寺町56-2,20709,中央弘前,927,11,0101017,そば,1,弘南鉄道大鰐線／中央弘前駅 徒歩10分 (745m),False
99,5641586,U5IxDLxG9q2,花よりだんご,40.58311494,140.47126708,青森県弘前市 中野1-9-14 ロフトビル1F,20745,弘前学院大前,108,1,0110,居酒屋、ビアホール,6,,False
0,100000776244,e5WJJwmj5KY,有限会社秋田屋仕出し店 秋田屋会館,40.598505,140.459604,青森県弘前市茂森町124,20757,弘高下,1353,16,0111,定食、食堂,1,弘南鉄道大鰐線／弘高下駅 徒歩15分 (1130m),False
1,100001499627,ETdW479FVCw,美ら桜,40.6003201,140.47323640000002,青森県弘前市土手町78,20709,中央弘前,161,2,0101022,しゃぶしゃぶ,1,弘南鉄道大鰐線／中央弘前駅 徒歩2分 (127m),True
2,100000795079,IxxyPZ49_qo,うめちゃんラーメン,40.544794,140.552536,青森県弘前市小金崎留岡8-6,29440,石川プール前,403,5,0106001,ラーメン,1,弘南鉄道大鰐線／石川プール前駅 徒歩4分 (301m),False
3,100001102868,wmVXGz7tcL6,しかないせんべい,40.596877179923,140.46554178339,青森県弘前市新寺町32,20757,弘高下,868,10,0118,スイーツ,1,弘南鉄道大鰐線／弘高下駅 徒歩7分 (515m),False
4,100000323173,_zyuwXZQN3I,サーティワンアイスクリーム　弘前イトーヨーカドー店,40.60008568,140.48005158,青森県弘前市駅前3-3-1 イトーヨーカドー弘前店1F,20758,弘前,472,5,0118,スイーツ,8,JR奥羽本線(新庄〜青森)／弘前駅 徒歩7分 (553m),True
5,100000322999,BZfV-jCIpcM,甘栄堂,40.60032171,140.4783461,青森県弘前市代官町41,20758,弘前,649,8,0118,スイーツ,1,弘南鉄道大鰐線／中央弘前駅 徒歩9分 (694m),True
6,100001007817,_pl4pbQHLEM,たかまる,40.596722716893,140.47586039302,青森県弘前市品川町32,20709,中央弘前,459,5,0109001,鍋料理,1,弘南鉄道大鰐線／中央弘前駅 徒歩6分 (487m),False
7,100000322961,iQmmB49HqDs,おおやま,40.6007437,140.47247693,青森県弘前市北川端町4,20709,中央弘前,147,1,0101007,京料理,8,弘南鉄道大鰐線／中央弘前駅 徒歩3分 (180m),False
8,100000323819,tlg6IvNF7PA,サムスイング,40.60713458,140.46930995,青森県弘前市下白銀町19-4,20709,中央弘前,1187,14,0115002,喫茶店,1,弘南鉄道大鰐線／中央弘前駅 徒歩12分 (943m),False
9,J000302262,i6d7mzkqPig,サロンド カフェ アンジュ Salon de cafe Ange,40.60271275,140.46582714,青森県弘前市下白銀町2-1,20709,中央弘前,853,10,0115001,カフェ,1,弘前駅から、弘前城植物園方面へ、車で約8分です。旧東奥義塾外人教師館1階にあります。,True
10,100000782198,Z1UoI2qAfsI,焼き鳥大,40.60124689874634,140.49463368807335,青森県弘前市城東中央3-4-15,20753,弘前東高前,1554,19,0101025,焼き鳥,1,JR奥羽本線(新庄〜青森)／弘前駅 徒歩14分 (1081m),False
11,5004758,1zH1ropOqtw,さの,40.59962435,140.47186038,青森県弘前市 北川端町36-3,20709,中央弘前,162,2,0101,和食,5,弘南鉄道大鰐線／中央弘前駅 徒歩1分 (65m),False
12,100000322784,i4hWN6UQw8U,よろ作,40.59296193,140.49340112,青森県弘前市城東5-12-1,20753,弘前東高前,679,8,0101025,焼き鳥,,弘南鉄道弘南線／弘前東高前駅 徒歩7分 (546m),False
13,100001263000,LGjfdA68aT2,インド・ネパールキッチン プルナ かだれ横丁店,40.603131451384606,140.47184159755705,青森県弘前市百石町2-1 かだれ横丁,20709,中央弘前,535,6,0107004,インドカレー,,弘南鉄道大鰐線／中央弘前駅 徒歩6分 (444m),False
14,100000322841,tg42kFX-ZXQ,やぶそば,40.60183796,140.47018808,青森県弘前市鍛冶町6,20709,中央弘前,395,4,0101017,そば,7,弘南鉄道大鰐線／中央弘前駅 徒歩5分 (373m),False
15,J001101154,nkCvXjwPbcA,greenfingers,40.58481200,140.47179473,青森県弘前市文京町16-1,20745,弘前学院大前,180,2,0115001,カフェ,,弘前学院大前駅から徒歩3分。県道130号線を東へ行ったところです。,True
16,J001101232,-6xl-opNa9U,ぶりーず・ど・すりじぇ,40.60150751,140.47250187,青森県弘前市土手町55-1 Creative香風2F(呉服屋の2F),20709,中央弘前,271,3,0115001,カフェ,,中央弘前駅より徒歩約3分、弘前中三の向かい側です。,False
17,J000267033,H8gwla3VAgg,食事処もめん,40.56552272,140.47889788,青森県弘前市千年2-7-10,20711,千年,266,3,0110001,和風居酒屋,,弘南鉄道千年駅より徒歩5分です。ファミリーマート前の信号を右方向に進むとすぐです。駅から300mです。,False
18,J001101242,j-vStR6FGUc,Green Smoothie&Cafe ベジタイアン,40.60164913,140.47148525,青森県弘前市新鍛冶町9-3 かくみ小路,20709,中央弘前,327,4,0119004,ダイニングバー,,弘南鉄道中央弘前駅より徒歩3分です。,False
19,J001101320,UYSDADpZBO-,BE・SIDE,40.59831650,140.48271267,青森県弘前市駅前町7-3,20758,弘前,316,3,0119004,ダイニングバー,,弘前駅から徒歩2分、ブロッサムホテル内です。,False
20,J001011567,CCo9rzuDNtM,焼肉 煌苑,40.61684592,140.41874399,青森県弘前市賀田1-17-8,,,,,0108001,焼肉,,弘前駅から車で20分、関医院中津軽診療所の向かいです。,False
21,J000647344,xc-9iqqu61s,すずき,40.59032242,140.46732794,青森県弘前市寒沢町13-1,20757,弘高下,334,4,0101053,和食（その他）,,弘高下駅より徒歩5分、弘前駅より車で8分です。,False
22,J000266501,VjzwlRBWUoQ,オールドジャンク Old Junk,40.60342945,140.46972966,青森県弘前市元寺町9 三上ビル2階,20709,中央弘前,638,7,0119004,ダイニングバー,,弘前駅から徒歩約15分、土手町を公園に向かって右側にあるレトロ感のあるビルの2階です。,False
23,J001101166,fNSjb-4huiA,バスターミナル そば店,40.59935801,140.48105158,青森県弘前市駅前3-2-1,20758,弘前,415,5,0101053,和食（その他）,,弘前駅前から徒歩5分。駅中央口を出てロータリーを右(県道17号)へ。イトーヨーカドーの裏手のバスターミナル前です。,False
24,J001101113,3-an7J7YEb-,みくにけ,40.60175175,140.46602442,青森県弘前市元大工町20-1木村ビル2F,20709,中央弘前,715,8,0110001,和風居酒屋,,JR弘前駅から徒歩25分です。弘前図書館からすぐです。,False
25,100001499092,r3wf_vham_U,まる鐵二代目,40.6105269244009,140.49940946933543,青森県弘前市大字境関字西田58-1,20733,撫牛子,1804,22,0106001,ラーメン,6,JR奥羽本線(新庄〜青森)／撫牛子駅 徒歩16分 (1267m),False
26,100000322760,fAca97BK90U,鳥かん,40.5986139,140.47008890000006,青森県弘前市桶屋町44-1,20709,中央弘前,386,4,0101025,焼き鳥,6,弘南鉄道大鰐線／中央弘前駅 徒歩3分 (242m),False
27,J000692937,stsnOp6AAhE,かめや食堂,40.62231872,140.45802330,青森県弘前市浜の町東3-1-7,20709,中央弘前,3474,43,0101053,和食（その他）,,ＪＲ奥羽本線 / 弘前駅 バス20分 浜の町3丁目下車 徒歩2分／弘南鉄道弘南線 / 弘前駅 バス20分 浜の町3丁目下車 徒歩2分,False
28,100000752041,mG6MMDoA6zw,音羽亭,40.600657,140.469188,青森県弘前市本町84 ニュー明治屋ビル 1F,20709,中央弘前,364,4,0101025,焼き鳥,5,弘南鉄道大鰐線／中央弘前駅 徒歩5分 (374m),False
29,6217743,Xul9mN-KaMk,pizzeria DA SASINO,40.60143254,140.47315462,青森県弘前市 土手町62-1,20709,中央弘前,322,4,0102002,パスタ、ピザ,5,,False
30,100000323852,ImPU1Y6PhLg,ドウ,40.59883844,140.47553524,青森県弘前市土手町126 川島ビル2F,20709,中央弘前,346,4,0115002,喫茶店,4,弘南鉄道大鰐線／中央弘前駅 徒歩5分 (371m),False
31,5119623,oPJwOZL0IS-,居酒屋Tubo屋,40.60689677,140.49761391,青森県弘前市 城東北4-3-1,20733,撫牛子,2178,27,0112001,創作料理,3,JR奥羽本線(新庄〜青森)／弘前駅 徒歩20分 (1591m),False
32,6418310,H5IM19ZcF8U,居酒家 隠れ家,40.598913277132,140.47057994046,青森県弘前市 新鍛治町103-1,20709,中央弘前,309,3,0101,和食,2,,False
33,100000322672,fv7zsLUdcXM,藤棚,40.6025606,140.4683914343933,青森県弘前市元長町20-1,20709,中央弘前,677,8,0101003,割ぽう,4,弘南鉄道大鰐線／中央弘前駅 徒歩8分 (568m),False
34,904601012854,rqF98j9dQtE,ガスト 弘前駅前,40.59699436,140.48087953,青森県弘前市大字大町3丁目1-7,20758,弘前,593,7,0123001,ファミレス,7,,True
35,100000322685,rfFm-_B3RAY,芝よし,40.59942154,140.47001882,青森県弘前市桶屋町22 開発センター1F入口,20709,中央弘前,394,4,0101,和食,4,弘南鉄道大鰐線／中央弘前駅 徒歩3分 (244m),False
36,100000323116,g9Yl6bnU-pY,弦や,40.59732176,140.4699662,青森県弘前市銅屋町34,20709,中央弘前,541,6,0110,居酒屋、ビアホール,5,弘南鉄道大鰐線／中央弘前駅 徒歩4分 (320m),True
37,100000323875,CW2aeFrxe6M,プリムヴェール,40.58501755,140.47273634,青森県弘前市文京町15-13,20745,弘前学院大前,274,3,0115002,喫茶店,4,弘南鉄道大鰐線／弘前学院大前駅 徒歩4分 (295m),False
38,02518,qZmO5otH3tU,マクドナルド弘前さくら野店,40.606749793806,140.49638987855,青森県弘前市城東北3-10-1,20758,弘前,2207,27,0123002,ファストフード,4,JR奥羽本線(新庄〜青森)／弘前駅 徒歩18分 (1433m),False
39,6215351,EKKj53NDyqw,大衆鶏酒場 とりべえ,40.599213389743,140.47521300694,青森県弘前市 土手町120 いとうプラザ1F,20709,中央弘前,312,3,0108003,ホルモン,4,,True
40,100000377401,ZvgxnisehDs,南国食堂シャンシャン,40.600028,140.469739,青森県弘前市桶屋町4-8,20709,中央弘前,314,3,0111,定食、食堂,4,弘南鉄道大鰐線／中央弘前駅 徒歩4分 (291m),False
41,100000322765,hihe-4xfUZ-,鳥よし,40.6010525,140.46981099999994,青森県弘前市鍛冶町13,20709,中央弘前,372,4,0110,居酒屋、ビアホール,5,弘南鉄道大鰐線／中央弘前駅 徒歩5分 (340m),False
42,100000323274,4yXbFXthRDg,居酒屋物語,40.5790272,140.49353804,青森県弘前市大清水4-2-1,20636,運動公園前(青森県),1547,19,0110,居酒屋、ビアホール,4,弘南鉄道弘南線／運動公園前（青森）駅 徒歩20分 (1560m),False
43,6046150,rRMmNvI0T2o,フランス料理 シェ・アンジュ,40.59886974,140.49525341,青森県弘前市 外崎2-7-1,20753,弘前東高前,1301,16,0102005,フランス料理（フレンチ）,2,,True
44,100001508352,GSv-yTDixeY,秋刀魚煮干しそば 高倉,40.5960348,140.4997452,青森県弘前市豊田三丁目1-1,20753,弘前東高前,1255,15,0106001,ラーメン,4,弘南鉄道弘南線／運動公園前（青森）駅 徒歩11分 (834m),False
45,100000323972,RS0idvJuCHI,八十八夜西弘店,40.58496196,140.47096421,青森県弘前市文京町6-18,20745,弘前学院大前,154,1,0110,居酒屋、ビアホール,4,弘南鉄道大鰐線／弘前学院大前駅 徒歩3分 (181m),False
46,100001020762,N8HQr0P6E_Q,門外4丁目,40.578147794131,140.50509030171,青森県弘前市門外4-6-9,20636,運動公園前(青森県),1719,21,0106001,ラーメン,3,弘南鉄道弘南線／運動公園前（青森）駅 徒歩16分 (1287m),False
47,20970461,gqAJcfvVAfQ,魚屋 地酒処 真ちゃん,40.600663699999998,140.47138870000001,青森県弘前市新鍛冶町46,20709,中央弘前,258,3,0110001,和風居酒屋,,,True
48,02528,tKdyn4T1liE,マクドナルド弘前大町店,40.594615531973,140.4839317424,青森県弘前市大字大町1-17-7,20753,弘前東高前,656,8,0123002,ファストフード,3,弘南鉄道弘南線／弘前東高前駅 徒歩8分 (593m),False
49,100000323602,QZwwrIwy1Tk,ビア・コトブキ,40.60007706,140.47108538,青森県弘前市新鍛冶町59-1,20709,中央弘前,183,2,0119006,ビアバー,3,弘南鉄道大鰐線／中央弘前駅 徒歩2分 (162m),False
50,74964917548662785,flMcWNhH75U,寿司割烹 味新,40.616089,140.48732,青森県弘前市宮川 3丁目4-3,20733,撫牛子,1436,17,0101012,握り寿司,4,,True
51,214582192550248452,QaHkQGZrOgs,ケンタッキーフライドチキン 弘前城東店,40.5970844,140.5068218,青森県弘前市高田3-1-9,20636,運動公園前(青森県),1806,22,0123002,ファストフード,5,,True
52,02007,MzwnHhVp6dw,マクドナルド102弘前店,40.596482794819,140.50767173777,青森県弘前市大字高田5-2-8,20636,運動公園前(青森県),1666,20,0123002,ファストフード,5,,False
53,100000323856,phWsFzLlapk,ドトールコーヒーショップ弘前イトーヨーカドー店,40.5997413,140.48090434,青森県弘前市駅前3-2-1,20758,弘前,419,5,0116001,コーヒー専門店,3,JR奥羽本線(新庄〜青森)／弘前駅 徒歩6分 (456m),False
54,100000323983,xIhSgq7wFuU,弁天,40.6056245,140.48065999999994,青森県弘前市和徳町-107-2,20758,弘前,987,12,0101025,焼き鳥,3,JR奥羽本線(新庄〜青森)／弘前駅 徒歩11分 (814m),False
55,100000322755,P9oqdIygs-M,ろばた焼　けん太,40.60021312,140.46960212,青森県弘前市桶屋町3,20709,中央弘前,311,3,0101050,炉端焼き,3,弘南鉄道大鰐線／中央弘前駅 徒歩4分 (312m),False
56,100000954190,Xstu1Li2F8o,とんちゃん,40.606499180423,140.45566319749,青森県弘前市新町159,20709,中央弘前,1946,24,0108003,ホルモン,2,弘南鉄道大鰐線／中央弘前駅 徒歩26分 (2009m),True
57,100001016686,tzpVIi3Q0dc,ふらいぱんダディ,40.609253750428,140.45753233129,青森県弘前市新町225,20709,中央弘前,2153,26,0114001,持ち帰り専門、弁当,2,弘南鉄道大鰐線／中央弘前駅 徒歩25分 (1978m),False
58,100000323986,_4ivmfe2j3M,ます酒,40.59844702,140.48200714,青森県弘前市駅前町13-2,20758,弘前,459,5,0110,居酒屋、ビアホール,2,JR奥羽本線(新庄〜青森)／弘前駅 徒歩5分 (363m),False
59,100000322916,qLMwa6_ff2g,千石食堂,40.5957501,140.48267396,青森県弘前市大町1-15-12,20758,弘前,560,7,0111,定食、食堂,2,JR奥羽本線(新庄〜青森)／弘前駅 徒歩7分 (512m),False
60,100000323398,R3l_r_mq1U-,こにぎり,40.59960486,140.47005214,青森県弘前市桶屋町16福寿センター 1F,20709,中央弘前,373,4,0110,居酒屋、ビアホール,2,弘南鉄道大鰐線／中央弘前駅 徒歩3分 (244m),True
61,100000322813,91UH6A7y0vQ,月の舞,40.5992418,140.4775939,青森県弘前市代官町19-10,20709,中央弘前,580,7,0101018,うどん,3,弘南鉄道大鰐線／中央弘前駅 徒歩8分 (598m),True
62,100000323507,Vn0G3Dnk-iw,酒肴めし ちょっ蔵,40.59831334,140.47073275,青森県弘前市南川端町8,20709,中央弘前,326,4,0110,居酒屋、ビアホール,2,弘南鉄道大鰐線／中央弘前駅 徒歩3分 (187m),False
63,100000758781,-lQdX1C-B5U,Bar du Man,40.596914,140.47947,青森県弘前市大町3-10-6,20758,弘前,724,9,0119001,バー,2,JR奥羽本線(新庄〜青森)／弘前駅 徒歩9分 (690m),False
64,100000323512,R3Cdfh2ULwQ,楽食ダイニングつぼ八　弘前北大通り店,40.61526739,140.48421421,青森県弘前市八幡町3-1-4,20733,撫牛子,1782,22,0110,居酒屋、ビアホール,2,JR奥羽本線(新庄〜青森)／撫牛子駅 徒歩21分 (1631m),False
65,100001047267,GZLQ8SWSDGE,串源,40.600428246749,140.47172906072,青森県弘前市北川端町19,20709,中央弘前,152,1,0110,居酒屋、ビアホール,2,弘南鉄道大鰐線／中央弘前駅 徒歩2分 (152m),False
66,100000322741,s2A5kWq9zQc,焼肉五エ門,40.58379819,140.47064485,青森県弘前市中野1-13-1,20745,弘前学院大前,33,0,0108001,焼肉,3,弘南鉄道大鰐線／弘前学院大前駅 徒歩1分 (48m),False
67,100001223963,ZNGfGTRXGP6,バーリー,40.6021173020776,140.47203471660612,青森県弘前市土手町36-11,20709,中央弘前,388,4,0119001,バー,2,弘南鉄道大鰐線／中央弘前駅 徒歩5分 (331m),False
68,100000941265,dPYMEbo2lts,アジアンカフェ,40.570629914848,140.50355647515,青森県弘前市清水森沼田49-1,20770,松木平,1438,17,0115001,カフェ,2,弘南鉄道大鰐線／松木平駅 徒歩17分 (1317m),False
69,100001018505,GyBLFKhmq2Q,藤寿司,40.604611966046,140.47654241549,青森県弘前市南横町33-2,20709,中央弘前,752,9,0101,和食,2,弘南鉄道大鰐線／中央弘前駅 徒歩10分 (775m),False
70,100000322820,hlb6JKrcPIk,めん房たけや,40.58574514,140.46835041,青森県弘前市稔町10-1,20745,弘前学院大前,400,5,0101017,そば,2,弘南鉄道大鰐線／弘前学院大前駅 徒歩5分 (368m),False
71,100001524198,MSkh5SA9CN2,麺処 駒繋,40.60822975367061,140.4804073147152,青森県弘前市野田1-5-1,20709,中央弘前,1301,16,0106001,ラーメン,2,JR奥羽本線(新庄〜青森)／弘前駅 徒歩15分 (1136m),False
72,100000323452,n0XsXYFGXuo,じん,40.60125753,140.47222691,青森県弘前市新鍛冶町25-2,20709,中央弘前,229,2,0110,居酒屋、ビアホール,2,弘南鉄道大鰐線／中央弘前駅 徒歩3分 (235m),False
73,100000323857,mfmqX5QqiRM,ドトールコーヒーショップ弘前さくら野店,40.60818819,140.49518627,青森県弘前市高崎2-15-1さくら野弘前ラフォルテ1F,20758,弘前,2178,27,0115001,カフェ,2,JR奥羽本線(新庄〜青森)／弘前駅 徒歩19分 (1469m),False
74,100000323799,M_b94a7qcmM,京,40.60259972,140.49052853,青森県弘前市稲田2-3-2,20758,弘前,1433,17,0115002,喫茶店,2,JR奥羽本線(新庄〜青森)／弘前駅 徒歩9分 (690m),False
75,66202,DJmgzcQQpEE,ヒロロスクエア,40.59742684,140.48172223,青森県弘前市駅前町9-20,20758,弘前,424,5,0408007,児童館,5,,False
76,100000323951,BEV9e3jVQIA,辰乃家,40.60066029,140.46967708,青森県弘前市鍛冶町35-2,20709,中央弘前,330,4,0110,居酒屋、ビアホール,2,弘南鉄道大鰐線／中央弘前駅 徒歩4分 (327m),False
77,100001041773,VCJO9UEh-Jc,ラコスティ,40.60924205,140.44661961,青森県弘前市駒越村元15-3,20709,中央弘前,2882,36,0102,洋食,1,弘南鉄道大鰐線／弘高下駅 徒歩37分 (2962m),False
78,392000000000099400666251,pet1CKu149Y,千成らーめん 弘前店,40.6060286,140.48877,青森県弘前市高崎1-5-2,20758,弘前,1252,15,0106,ラーメン,6,,False
79,100001398038,Ki7ZBfQNP_g,スシロー 弘前さくら野SC店,40.609592627717134,140.49612014479203,青森県弘前市高崎2-17-5,20733,撫牛子,1956,24,0101013,回転寿司,1,JR奥羽本線(新庄〜青森)／撫牛子駅 徒歩18分 (1375m),True
80,100000323036,_zjcHGZm-7w,パテスリー山崎,40.60252122,140.47016303,青森県弘前市親方町36,20709,中央弘前,496,6,0118001,洋菓子、ケーキ,2,弘南鉄道大鰐線／中央弘前駅 徒歩6分 (438m),False
81,100000323146,E6-b7PragPo,カプリチョーザ弘前店,40.59738883,140.48305438,青森県弘前市大町1-3-1,20758,弘前,317,3,0102006,イタリア料理（イタリアン）,2,JR奥羽本線(新庄〜青森)／弘前駅 徒歩5分 (338m),False
82,219386903745044481,wJG7Vv1DUe6,開源堂 川嶋,40.59724,140.475052,青森県弘前市大字品川町 15,20709,中央弘前,379,4,0118002,和菓子、甘味処、たい焼き,3,,True
83,100000323080,Rms6e1lI2KE,萬龍,40.59992769999999,140.47229700000003,青森県弘前市北川端町27-2,20709,中央弘前,58,0,0104001,中華料理,2,弘南鉄道大鰐線／中央弘前駅 徒歩2分 (88m),False
84,100000323371,7eJChdwttA2,金時,40.60076308,140.4703576,青森県弘前市鍛冶町32,20709,中央弘前,354,4,0110,居酒屋、ビアホール,2,弘南鉄道大鰐線／中央弘前駅 徒歩4分 (273m),False
85,100000322758,h9uJKUOzcZY,しん兵,40.6262435,140.4566102,青森県弘前市石渡3-1-7,20709,中央弘前,4033,50,0101025,焼き鳥,2,弘南鉄道大鰐線／中央弘前駅 徒歩44分 (3470m),False
86,392000000000022400601533,HoBNSmZrOgs,モスバーガー 弘前城東店,40.5971657,140.507479,青森県弘前市大字高田3丁目1-10,20636,運動公園前(青森県),1751,21,0123002,ファストフード,5,,False
87,100000323748,XPqNnScgXEc,れんが亭,40.59725553,140.48357381,青森県弘前市大町1-6-2,20758,弘前,334,4,0110,居酒屋、ビアホール,2,JR奥羽本線(新庄〜青森)／弘前駅 徒歩4分 (317m),False
88,100000323175,00AZ3HJ278U,ミスタードーナツ弘前ステーションショップ,40.59944702,140.48481802,青森県弘前市表町2-11 アプリーズ2F,20758,弘前,90,1,0118,スイーツ,1,JR奥羽本線(新庄〜青森)／弘前駅 徒歩1分 (38m),False
89,100000758765,hCCtmD6g7mw,Bar Alba,40.600474,140.46808399999998,青森県弘前市本町72-2 カトウビル1F,20709,中央弘前,435,5,0119001,バー,1,弘南鉄道大鰐線／中央弘前駅 徒歩6分 (480m),False
90,100001530958,ZXq4Ddcu9YY,八甲田麺業R ヒロロ,40.597200259663296,140.48169367609214,青森県弘前市駅前町9-20 ヒロロ 4F フードコート,20758,弘前,438,5,0106001,ラーメン,1,JR奥羽本線(新庄〜青森)／弘前駅 徒歩5分 (407m),True
91,100001529949,DTanoH0rwko,自家製手打ち中華そば 花菱,40.61321343782363,140.50558562438658,青森県弘前市境関亥ノ宮35-11,20733,撫牛子,1609,20,0106001,ラーメン,1,JR奥羽本線(新庄〜青森)／撫牛子駅 徒歩16分 (1279m),False
92,100000323327,WVSmBII73lY,おばとみ,40.59823591,140.48145163,青森県弘前市駅前町10-1 遊食館304,20758,弘前,465,5,0110,居酒屋、ビアホール,3,JR奥羽本線(新庄〜青森)／弘前駅 徒歩6分 (429m),False
93,100001499626,6SFndOQJQsw,とんかつ専門店 助六,40.5986388,140.47840710000003,青森県弘前市駅前3-15-7 グランメール駅前1F,20709,中央弘前,704,8,0101015,とんかつ,1,弘南鉄道大鰐線／中央弘前駅 徒歩9分 (663m),True
94,100000322883,Dw8TmP-1mRI,一乃矢食堂,40.58199833,140.46843395,青森県弘前市城南2-2-2,20745,弘前学院大前,423,5,0106001,ラーメン,1,弘南鉄道大鰐線／弘前学院大前駅 徒歩4分 (289m),False
95,100001008664,ZkdahdDxY6Y,ペテドのんヌ,40.618792796467,140.480777729,青森県弘前市青山1-20-3,20733,撫牛子,1933,24,0102,洋食,1,JR奥羽本線(新庄〜青森)／撫牛子駅 徒歩24分 (1890m),False
96,100000322794,gaEko7txT4E,石黒食堂,40.57252186,140.47945603,青森県弘前市松原東2-6-6,20711,千年,815,10,0106001,ラーメン,1,弘南鉄道大鰐線／千年駅 徒歩8分 (577m),False
97,100000323314,RjDGKhSus-Y,えびす屋,40.59695835,140.48410991,青森県弘前市大町1-6-7,20758,弘前,414,5,0110,居酒屋、ビアホール,1,JR奥羽本線(新庄〜青森)／弘前駅 徒歩4分 (323m),False
98,100000322994,3ZT3RjLlapk,おきな屋(和菓子)イトーヨーカドー店,40.5997413,140.48090434,青森県弘前市駅前3-2-1 イトーヨーカドーB1F,20758,弘前,419,5,0118,スイーツ,1,JR奥羽本線(新庄〜青森)／弘前駅 徒歩6分 (456m),False
99,100000323427,T7A1f_tF4c-,しがらき,40.60187966,140.4713769,青森県弘前市新鍛冶町4-12,20709,中央弘前,346,4,0110,居酒屋、ビアホール,2,弘南鉄道大鰐線／中央弘前駅 徒歩4分 (317m),False
0,100000322735,xneLKJBLc2Q,ホルモン家弘前城東店,40.59549781,140.49411202,青森県弘前市外崎5-7-14,20753,弘前東高前,862,10,0108003,ホルモン,1,弘南鉄道弘南線／弘前東高前駅 徒歩9分 (714m),True
1,100000758776,yEPuCbX5FQQ,Bar Rize,40.599465,140.471865,青森県弘前市北川端町32,20709,中央弘前,183,2,0119001,バー,1,弘南鉄道大鰐線／中央弘前駅 徒歩1分 (52m),False
2,100000998797,QfBLLK1jycs,本間食堂,40.61799022293,140.41681653576,青森県弘前市賀田大浦119,,,,,0111,定食、食堂,1,弘南鉄道大鰐線／弘高下駅 徒歩80分 (6340m),False
3,100000322948,MJe5Zx8EU82,山喜,40.62235487,140.45990095,青森県弘前市浜の町東2-4-2,20709,中央弘前,3572,44,0111,定食、食堂,1,弘南鉄道大鰐線／中央弘前駅 徒歩37分 (2916m),False
4,100000323447,ZDnXW2ygs-M,白川,40.5994082,140.46924160000003,青森県弘前市桶屋町53,20709,中央弘前,419,5,0110,居酒屋、ビアホール,1,弘南鉄道大鰐線／中央弘前駅 徒歩5分 (330m),False
5,100001050027,TbsJJBHfR0U,なかの食堂,40.619127631245,140.34338580134,青森県弘前市百沢字高田80,,,,,0101018,うどん,1,,False
6,100000323011,tQpomy4QaqU,華リン,40.62913174,140.45838125,青森県弘前市石渡3-4-39,20733,撫牛子,3813,47,0101010,おばんざい,1,弘南鉄道大鰐線／中央弘前駅 徒歩46分 (3665m),False
7,100000323109,CfU1e903cQM,宝来軒,40.59543617,140.48032133,青森県弘前市大町2-3-18,20758,弘前,636,7,0104001,中華料理,2,JR奥羽本線(新庄〜青森)／弘前駅 徒歩9分 (706m),False
8,100000758761,Ri19rORrjlM,Bar 2nd,40.60076,140.470382,青森県弘前市鍛冶町32 サクラセンター1F,20709,中央弘前,356,4,0119001,バー,2,弘南鉄道大鰐線／中央弘前駅 徒歩4分 (270m),False
9,100000322828,Wj2NiE1Mv_c,そば処もみじ亭,40.58776165,140.47040851,青森県弘前市文京町4-5,20745,弘前学院大前,546,6,0101017,そば,1,弘南鉄道大鰐線／弘前学院大前駅 徒歩7分 (489m),False
10,100001125239,TuoDU96DrYU,ブランジュリー,40.588828269392,140.46341725568,青森県弘前市桔梗野4-2-1,20757,弘高下,834,10,0117,パン、サンドイッチ,1,弘南鉄道大鰐線／弘高下駅 徒歩9分 (711m),False
11,168933124050264072,nk3NgjiOtFg,バンケット・バー ガヤガヤ,40.59951,140.470139,青森県弘前市桶屋町24 フリーランドビル3F,20709,中央弘前,392,4,0119001,バー,2,,True
12,100000323713,fXAq9qxfUZ-,楽久,40.60137691,140.4705381,青森県弘前市鍛冶町11,20709,中央弘前,378,4,0110,居酒屋、ビアホール,2,弘南鉄道大鰐線／中央弘前駅 徒歩4分 (309m),False
13,100000323148,1gNS1OSvNvU,ポチャン湖,40.59836089,140.48118219,青森県弘前市駅前町11-12,20758,弘前,479,5,0102006,イタリア料理（イタリアン）,2,JR奥羽本線(新庄〜青森)／弘前駅 徒歩6分 (452m),False
14,100001164012,KfywBfvVAfQ,ノイ カラオケ ラフェスタ,40.60065740669999,140.4713201129,青森県弘前市新鍛冶町46,20709,中央弘前,250,3,0119004,ダイニングバー,1,弘南鉄道大鰐線／中央弘前駅 徒歩3分 (194m),True
15,100000759118,6wfY_JWFGe-,Bar Papa Soul,40.60235531712987,140.46958566535295,青森県弘前市親方町29 みかさの会館2F-B,20709,中央弘前,531,6,0119001,バー,1,弘南鉄道大鰐線／中央弘前駅 徒歩6分 (456m),False
16,100000802390,yr1ohKQRvjk,レストラン ハタゴ,40.60067139017251,140.4684582694946,青森県弘前市本町71-1-2F,20709,中央弘前,418,5,0103001,バイキング,1,弘南鉄道大鰐線／中央弘前駅 徒歩6分 (449m),False
17,100001512179,lJSOYVRTsyA,麺屋 たか木,40.571602658381074,140.46444840827508,青森県弘前市山崎3-5-8,20700,聖愛中高前,1230,15,0106001,ラーメン,1,弘南鉄道大鰐線／聖愛中高前駅 徒歩14分 (1100m),False
18,5489488,kOY1fJAByxw,スタミナ一番・屋台スピリッツ,40.57228078,140.49449375,青森県弘前市 大字泉野5-5-15,20711,千年,1378,17,0106,ラーメン,,,False
19,392000000000080400654295,fA-JrqdOHZw,道とん堀 弘前安原店,40.5764017,140.490997,青森県弘前市泉野1-4-4,20711,千年,1390,17,0101029,お好み焼き、たこ焼き,4,,False
20,100000758784,Bf5xnII73lY,バーデシカ,40.598211,140.48148000000003,青森県弘前市駅前町10-1,20758,弘前,461,5,0119001,バー,1,JR奥羽本線(新庄〜青森)／弘前駅 徒歩6分 (427m),False
21,100000322776,4Nm6XYaSPIQ,やきとり山形屋安原店,40.5705419,140.48992753,青森県弘前市広野1-19-7,20711,千年,907,11,0101025,焼き鳥,1,弘南鉄道大鰐線／小栗山駅 徒歩10分 (782m),False
22,100000039710,jZqEAmTb0_M,仁平寿司,40.5919451,140.46790880000003,青森県弘前市寒沢町9-1,20757,弘高下,141,1,0101,和食,1,弘南鉄道大鰐線／弘高下駅 徒歩2分 (130m),False
