,id,gid,name,latitude,longitude,address,satation_id,station_name,station_distance,station_time,genre_code,genre_name,review_count,access,paypay_flg
0,100001334983,rM_SZ1Ujzmo,星野リゾート 界 津軽,40.5117689,140.57434450000005,青森県南津軽郡大鰐町大鰐上牡丹森36-1,20650,大鰐,1439,17,0101001,懐石料理,49,JR奥羽本線(新庄〜青森)／大鰐温泉駅 徒歩17分 (1351m),False
1,100001203057,Z6c99NeykPw,山崎食堂,40.52125766124473,140.56760182380674,青森県南津軽郡大鰐町大鰐前田34-21,20650,大鰐,73,0,0106001,ラーメン,7,JR奥羽本線(新庄〜青森)／大鰐温泉駅 徒歩1分 (83m),True
2,100000969970,rNWnYvOn2s-,お食事処 花りんご 鰐come,40.52083416663879,140.56490133363877,青森県南津軽郡大鰐町大鰐字川辺11-11,20650,大鰐,191,2,0101018,うどん,3,弘南鉄道大鰐線／大鰐駅 徒歩3分 (226m),False
3,100000806702,OyHVETkLR92,朝日屋 日景食堂,40.52148398023223,140.5723090936807,青森県南津軽郡大鰐町大鰐字大鰐55-2,20650,大鰐,498,6,0106001,ラーメン,2,JR奥羽本線(新庄〜青森)／大鰐温泉駅 徒歩8分 (599m),False
4,100000328097,SydcNInFEtg,いこい食堂,40.521437064286296,140.57556854324542,青森県南津軽郡大鰐町大鰐町蔵館字村岡46,20650,大鰐,777,9,0111,定食、食堂,4,JR奥羽本線(新庄〜青森)／大鰐温泉駅 徒歩12分 (964m),False
5,100001071784,NNwSmzuntrU,ファストフードコーナー うぇるかむ  鰐come,40.520788437921,140.56465922187,青森県南津軽郡大鰐町大鰐字川辺11-11,20650,大鰐,218,2,0118,スイーツ,24,JR奥羽本線(新庄〜青森)／大鰐温泉駅 徒歩4分 (264m),False
6,100001265255,Cj2iUnzT_FU,正観湯温泉旅館,40.511282516176855,140.61052789688108,青森県南津軽郡大鰐町長峰字九十九森135-1,20739,長峰,1077,13,0101003,割ぽう,7,JR奥羽本線(新庄〜青森)／長峰駅 徒歩13分 (984m),True
7,100000963430,VdrnqM9o-KU,青森ロイヤルホテル　フランス料理　ラ・タヴェル,40.49541638458393,140.576375978014,青森県南津軽郡大鰐町島田字滝ノ沢100番9号,,,,,0103001,バイキング,1,JR奥羽本線(新庄〜青森)／大鰐温泉駅 徒歩39分 (3071m),False
8,100000328094,-vKQCMDjD0Q,焼肉ハウスささき,40.521388657564124,140.57359911276126,青森県南津軽郡大鰐町大鰐町蔵館字村岡18-1,20650,大鰐,612,7,0108001,焼肉,6,JR奥羽本線(新庄〜青森)／大鰐温泉駅 徒歩10分 (741m),False
9,100001283773,qIXgxr0OUBc,和食処 大福,40.5196433,140.57588520000002,青森県南津軽郡大鰐町大鰐字湯野川原64-11,20650,大鰐,842,10,0101034,海鮮料理,,JR奥羽本線(新庄〜青森)／大鰐温泉駅 徒歩13分 (1014m),False
10,100001011210,oawPgRhQ6lY,和楽,40.520360386561,140.57641394869,青森県南津軽郡大鰐町大鰐字湯野川原111-1,20650,大鰐,874,10,0110,居酒屋、ビアホール,,JR奥羽本線(新庄〜青森)／大鰐温泉駅 徒歩14分 (1063m),False
11,100001066094,Mu-gOjZthx-,寿司不二,40.519948689994,140.57656977349,青森県南津軽郡大鰐町大鰐湯野川原102-2,20650,大鰐,862,10,0101,和食,,JR奥羽本線(新庄〜青森)／大鰐温泉駅 徒歩14分 (1086m),False
12,100001087925,RaOUtvNERcE,ひばの国迎賓館,40.485461611995,140.557055588,青森県南津軽郡大鰐町早瀬野ひばのくに迎賓館坂本72-1,20650,大鰐,4574,57,0112001,創作料理,,JR奥羽本線(新庄〜青森)／大鰐温泉駅 徒歩52分 (4152m),False
13,100001314585,9DYpVC4srV6,佐々木魚店,40.52183671239352,140.57012310028074,青森県南津軽郡大鰐町大鰐前田45-3,20650,大鰐,311,3,01,グルメ,,JR奥羽本線(新庄〜青森)／大鰐温泉駅 徒歩5分 (358m),False
14,100000328116,Lv5krBFmums,山本酒仕出し店,40.51989527,140.57137101,青森県南津軽郡大鰐町大鰐大鰐87-1,20650,大鰐,457,5,0114001,持ち帰り専門、弁当,,JR奥羽本線(新庄〜青森)／大鰐温泉駅 徒歩7分 (527m),False
15,100001068074,9G6GyGh3a1-,シュバルツバルト,40.521849355148,140.56362714143,青森県南津軽郡大鰐町大鰐町,20650,大鰐,348,4,0115001,カフェ,,弘南鉄道大鰐線／大鰐駅 徒歩5分 (355m),True
16,100000328103,MhBXLG-Iz9Q,丸見屋食堂,40.52019246,140.57141544,青森県南津軽郡大鰐町大鰐大鰐92,20650,大鰐,425,5,0111,定食、食堂,,JR奥羽本線(新庄〜青森)／大鰐温泉駅 徒歩7分 (522m),False
17,100001022375,tAOz58oJG_Y,虎屋,40.521661768478,140.57565624359,青森県南津軽郡大鰐町蔵館村岡48-2,20650,大鰐,797,9,0118,スイーツ,,JR奥羽本線(新庄〜青森)／大鰐温泉駅 徒歩13分 (970m),False
18,100001470654,aiUWV0_RVGU,カフェ タンポポ,40.520652860169726,140.5734854153443,青森県南津軽郡大鰐町大鰐字大鰐118-13,20650,大鰐,616,7,0115001,カフェ,,JR奥羽本線(新庄〜青森)／大鰐温泉駅 徒歩10分 (734m),False
19,100001056434,aUcVjKo_RWs,まみや煎餅店,40.521600426744,140.56880152118,青森県南津軽郡大鰐町大鰐前田37-5,20650,大鰐,194,2,0118,スイーツ,,JR奥羽本線(新庄〜青森)／大鰐温泉駅 徒歩3分 (210m),False
20,100000992839,VKfsd-c8V4k,八木橋菓子餅店,40.520477114642,140.57194904358,青森県南津軽郡大鰐町大鰐大鰐99-3,20650,大鰐,460,5,0118,スイーツ,,JR奥羽本線(新庄〜青森)／大鰐温泉駅 徒歩8分 (571m),False
21,100001092465,f7Yk6vPPs36,森の家,40.513317871649,140.57234644805,青森県南津軽郡大鰐町大鰐上牡丹森3-3,20650,大鰐,1179,14,0111,定食、食堂,,JR奥羽本線(新庄〜青森)／大鰐温泉駅 徒歩14分 (1094m),False
22,100001116029,5AaRvdcPygo,りんごの森,40.525826936278,140.57447156744,青森県南津軽郡大鰐町蔵館金坂45-1,20650,大鰐,970,12,0115001,カフェ,,弘南鉄道大鰐線／大鰐駅 徒歩12分 (959m),False
23,100001018545,TzCpG_ZBFSI,キッチンしゅう,40.52290669313,140.57182120466,青森県南津軽郡大鰐町蔵館宮本68-7,20650,大鰐,553,6,0111,定食、食堂,,JR奥羽本線(新庄〜青森)／大鰐温泉駅 徒歩7分 (565m),False
24,184158946325168130,eNIVCrcy8Lg,龍亭グループ こがねちゃん弁当大鰐店,40.520435,140.567764,青森県南津軽郡大鰐町大字大鰐10,20650,大鰐,137,1,0114001,持ち帰り専門、弁当,,,True
25,20230102173,ierrrjkLR92,日景食堂,40.521367222222,140.572295833333,青森県南津軽郡大鰐町大字大鰐字大鰐５５−２,20650,大鰐,506,6,0101018,うどん,1,,False
26,20230102154,BgZBRjKtTRw,福士舘,40.519914722222,140.572709722222,青森県南津軽郡大鰐町大字大鰐字大鰐１６８,20650,大鰐,571,7,0304002,旅館,1,,False
27,20230221468,V7wrEwRLFx-,居酒屋すまいる,40.520362222222,140.576434444444,青森県南津軽郡大鰐町大字大鰐字湯野川原１１１−１,20650,大鰐,875,10,0110001,和風居酒屋,,,False
28,20230155287,J0I3xbW0PvQ,セカンドブルー,40.519473055556,140.573045833333,青森県南津軽郡大鰐町大字大鰐字大鰐１６５,20650,大鰐,644,7,0115002,喫茶店,,,False
29,20230102317,6SIB514EBKk,ベル,40.520758888889,140.570629444444,青森県南津軽郡大鰐町大字大鰐字前田８２,20650,大鰐,338,4,0115002,喫茶店,,,False
30,20230102207,IN7VSBFmums,山本酒仕出し店別館山忠,40.519895277778,140.571371111111,青森県南津軽郡大鰐町大字大鰐字大鰐８７−１,20650,大鰐,457,5,0114003,仕出し料理,,,False
31,20230102141,5rILvcA7kAg,水野屋和洋菓子店,40.519909166667,140.568263055556,青森県南津軽郡大鰐町大字大鰐字大鰐１９−１,20650,大鰐,214,2,0118002,和菓子、甘味処、たい焼き,,,False
32,20230102804,NAJEYMEb2-g,ヒュッテ銀嶺,40.505813611111,140.570232777778,青森県南津軽郡大鰐町大字虹貝字清川１１３−２５１,,,,,0111001,定食、食堂,,,False
33,20230228905,mew7SzIff6c,喫茶Ｔｅａ倶楽部,40.521094722222,140.561224722222,青森県南津軽郡大鰐町大字虹貝字篠塚４１−３,20650,大鰐,524,6,0115002,喫茶店,,,False
34,20230102119,MgJEYWsfjzQ,ケルン,40.520361944444,140.571768055556,青森県南津軽郡大鰐町大字大鰐字大鰐９７−１,20650,大鰐,480,5,0115002,喫茶店,,,False
35,20230102806,hs44iPOQZ4g,さかえ食堂,40.509385555556,140.569927222222,青森県南津軽郡大鰐町大字虹貝字清川１１３−２６４,20650,大鰐,1520,19,0111001,定食、食堂,,,False
36,20230102907,woOqdOn5yaM,三ツ目内仕出し店,40.518777777778,140.545182222222,青森県南津軽郡大鰐町大字三ツ目内字福清水２６,20690,宿川原,1813,22,0114003,仕出し料理,,,False
37,20230102292,gZCVQzjuUoA,シーハイル,40.523197500000,140.568976666667,青森県南津軽郡大鰐町大字大鰐字前田２３−２５,20650,大鰐,349,4,0115002,喫茶店,,,False
38,20230102756,wEPYpvwzCEw,さきくさ,40.515452500000,140.602796388889,青森県南津軽郡大鰐町大字長峰字前田３５９−９,20739,長峰,57,0,0115002,喫茶店,,,False
39,20230102465,V7wrEoBdFwQ,居酒屋すまいる,40.520773055556,140.575290000000,青森県南津軽郡大鰐町大字大鰐字湯野川原５５−１,20650,大鰐,763,9,0110001,和風居酒屋,,,False
40,20230102153,k-2vqUV17x6,福すし,40.519914722222,140.572709722222,青森県南津軽郡大鰐町大字大鰐字大鰐１６８,20650,大鰐,619,7,0101012,握り寿司,,,False
41,20230162471,nuTCAyDC07o,有限会社大川仕出し店,40.520992777778,140.580911666667,青森県南津軽郡大鰐町大字蔵館字山下２−１５,20650,大鰐,1265,15,0114003,仕出し料理,,,False
0,100001110233,hi4kyMZzK32,ラーメン やまや,40.649251323832,140.55469733296,青森県南津軽郡田舎館村前田屋敷東中野56-36,20685,境松,2057,25,0106001,ラーメン,3,弘南鉄道弘南線／田舎館駅 徒歩28分 (2243m),False
1,100001361209,ufNb9J8TgWU,田さ恋いむら,40.6287028,140.55742140000007,青森県南津軽郡田舎館村田舎館東田160-1,29719,田んぼアート,1652,20,0115001,カフェ,4,弘南鉄道弘南線／田舎館駅 徒歩23分 (1784m),True
2,100001482088,C05px5-Nm6A,cafe kiero,40.636406925256594,140.51858707055226,青森県南津軽郡田舎館村大根子字松森41-1,20665,川部,1962,24,0115001,カフェ,2,JR奥羽本線(新庄〜青森)／川部駅 徒歩15分 (1158m),False
3,100001542563,sbCPqkUdXo2,田舎 cafe green,40.6500146,140.5657682,青森県南津軽郡田舎館村堂野前前川原88-30,20685,境松,1143,14,0115001,カフェ,1,弘南鉄道弘南線／境松駅 徒歩15分 (1152m),False
4,6574,mehzMGMlsBk,道の駅いなかだて 弥生の里,40.6335411,140.57802200000003,青森県南津軽郡田舎館村大字高樋字八幡10,29719,田んぼアート,407,5,0307003,道の駅,3,,False
5,100001033200,G2NTX0_WBUY,かねちゃん,40.6304628345,140.5502516485,青森県南津軽郡田舎館村田舎舘字中辻133-7,29719,田んぼアート,2276,28,0106001,ラーメン,1,弘南鉄道弘南線／田舎館駅 徒歩31分 (2421m),False
6,100001044438,MKGJ2pvLF2I,駅前食堂,40.647445985819,140.51823092945,青森県南津軽郡田舎館村川部上西田25-5,20665,川部,341,4,0111,定食、食堂,3,JR奥羽本線(新庄〜青森)／川部駅 徒歩5分 (355m),False
7,100001050998,Yy1ScK9dsfs,ビクトリー,40.631458707904,140.57792003555,青森県南津軽郡田舎館村高樋字大曲7-1,29719,田んぼアート,670,8,0101018,うどん,,弘南鉄道弘南線／尾上高校前駅 徒歩6分 (442m),False
8,100001046535,YmkTzp5GytI,レストランジャイゴ,40.633500907952,140.5780391242,青森県南津軽郡田舎館村高樋八幡10,29719,田んぼアート,403,5,0102,洋食,,弘南鉄道弘南線／尾上高校前駅 徒歩9分 (665m),False
9,100001058080,DkxaSMISHhc,ニャンニャン,40.6348010397,140.57865350232,青森県南津軽郡田舎館村高樋八幡40,29719,田んぼアート,638,7,0106001,ラーメン,,弘南鉄道弘南線／尾上高校前駅 徒歩11分 (822m),False
10,100001100544,3LjyDiDu3zo,三公末広,40.644249345932,140.51948542864,青森県南津軽郡田舎館村川部亀岡26-1,20665,川部,1129,14,0108001,焼肉,,JR奥羽本線(新庄〜青森)／川部駅 徒歩5分 (358m),False
11,100001068033,ofvptjwJlDQ,酒処もてなし,40.645577832448,140.51829747213,青森県南津軽郡田舎館村川部上西田72-6,20665,川部,405,5,0101025,焼き鳥,,JR奥羽本線(新庄〜青森)／川部駅 徒歩5分 (370m),False
12,100001433115,sjaB81HyTdQ,PINO CoffeeRoaster,40.65780171001644,140.56287520389583,青森県南津軽郡田舎館村東光寺字前田27-4,20685,境松,1619,20,0116001,コーヒー専門店,,弘南鉄道弘南線／境松駅 徒歩22分 (1752m),False
13,100001150844,SJ11AGCAchg,平沢ホルモン 焼鳥店,40.63535195287,140.522303184,青森県南津軽郡田舎館村大根子宮崎1-2,20665,川部,2165,27,0101025,焼き鳥,,JR奥羽本線(新庄〜青森)／川部駅 徒歩16分 (1282m),False
14,101440,oA39CL4Tx6-,レストラン ジャイゴ,40.633996094604775,140.5770027631653,青森県南津軽郡田舎館村大字高槌字八幡10,29719,田んぼアート,387,4,0101017,そば,,,False
15,20230106232,mxJaqqIlzuM,ねぷた,40.646700277778,140.519676111111,青森県南津軽郡田舎館村大字川部字上西田１２５−１,20665,川部,198,2,0110001,和風居酒屋,1,,False
16,20230106411,Ebh0EhrDXXY,居酒屋春,40.630903888889,140.544663611111,青森県南津軽郡田舎館村大字畑中字樋口６８−９,,,,,0110001,和風居酒屋,,,False
17,20230106137,fww-Pswyvyo,株式会社ハラコ企画,40.631131388889,140.535670000000,青森県南津軽郡田舎館村大字大曲字村元１３−１,,,,,0114003,仕出し料理,,,False
18,20230155861,vm-VsZjsuec,有限会社かねちゃんホルモン,40.623783888889,140.510114444444,青森県南津軽郡田舎館村大字大袋字松元１９６−１,,,,,0108001,焼肉,,,False
19,20230106170,zvTmMjFn7e2,居酒屋川,40.646008611111,140.519859444444,青森県南津軽郡田舎館村大字川部字上西田１２０−１１,20665,川部,209,2,0110001,和風居酒屋,,,False
20,20233001049,ZTha5KXGJA-,いわん仕出し店,40.635914444444,140.548204722222,青森県南津軽郡田舎館村大字八反田字古舘１４２−１,,,,,0114003,仕出し料理,,,False
21,20230106101,1s-79GFzxAs,鳥文食堂,40.635965833333,140.521423888889,青森県南津軽郡田舎館村大字大根子字松森１６９−８,,,,,0101018,うどん,,,False
22,20230106284,xi_6aSyZygw,レストランＪＡＩＧＯ,40.633540833333,140.578021944444,青森県南津軽郡田舎館村大字高樋字八幡１０,20632,田舎館,1032,12,0102004,洋食（その他）,,,False
23,20230106064,JzZ4qhM4F0M,寿し駒,40.630379444444,140.550638055556,青森県南津軽郡田舎館村大字田舎舘字中辻１３３−１１,,,,,0101012,握り寿司,,,False
24,20230191111,6ovoywy2qAI,ラバーズドック田舎館本店,40.622414722222,140.511736666667,青森県南津軽郡田舎館村大字大袋字樋田４２−９,,,,,0115001,カフェ,,,False
25,20230217947,M3YTX8di5ng,酒処・こころ,40.646008611111,140.519859444444,青森県南津軽郡田舎館村大字川部字上西田１２０−１０,20665,川部,209,2,0110001,和風居酒屋,,,False
0,100001296015,ZawaKr3TO_c,拉麺 七輪,40.72102069603976,140.4893100528401,青森県北津軽郡板柳町高増前田,20631,板柳,4276,53,0106001,ラーメン,5,JR五能線／板柳駅 徒歩51分 (4056m),False
1,100000938463,vspyyqT02y6,幸楽苑 青森板柳店,40.70740685354435,140.45503911957894,青森県北津軽郡板柳町灰沼字東263-1,20631,板柳,1493,18,0106001,ラーメン,5,JR五能線／板柳駅 徒歩15分 (1182m),False
2,100000328165,bL-JVVqmFYs,高増食堂,40.72190325678043,140.4864590588955,青森県北津軽郡板柳町大俵富永71-1,20631,板柳,4064,50,0106001,ラーメン,1,JR五能線／板柳駅 徒歩49分 (3882m),False
3,100000328186,TQWOIpX6MFE,りんご亭,40.7184272,140.430325,青森県北津軽郡板柳町小幡柳田5-5,20727,鶴泊,3407,42,0111,定食、食堂,2,JR五能線／鶴泊駅 徒歩27分 (2114m),False
4,100001288161,n7A-tNqYxfo,りんごワーク研究所,40.688540908391545,140.46315622597194,青森県北津軽郡板柳町福野田本泉34-6,20631,板柳,1170,14,0118,スイーツ,1,JR五能線／板柳駅 徒歩13分 (1002m),False
5,J000266939,dLSjt-2Glqg,養老乃瀧 板柳店,40.69808214,140.45821261,青森県北津軽郡板柳町大字福野田字実田 97-15,20631,板柳,393,4,0110001,和風居酒屋,,.,True
6,100000328223,rE_mzWVfDZE,ダッグ,40.69554621,140.45709881,青森県北津軽郡板柳町板柳字土井325,20631,板柳,426,5,0115002,喫茶店,1,JR五能線／板柳駅 徒歩7分 (554m),False
7,100000328182,7jUYKuWpigY,翠蘭亭,40.69830988,140.45731822,青森県北津軽郡板柳町福野田字増田1-29,20631,板柳,503,6,0104001,中華料理,1,JR五能線／板柳駅 徒歩7分 (509m),False
8,100000936331,wrWRHY3KXUw,柿崎菓子店,40.699542891213,140.45872009004,青森県北津軽郡板柳町福野田実田89-2,20631,板柳,399,4,0118,スイーツ,,JR五能線／板柳駅 徒歩6分 (424m),False
9,100001150543,Pr6UWTl7fQw,味の道,40.681541338704,140.47574004141,青森県北津軽郡板柳町横沢東宮元12-12,20751,林崎,1481,18,0110,居酒屋、ビアホール,,JR五能線／林崎駅 徒歩11分 (860m),False
10,100000328174,iTPSOFLR2SM,永沢食堂,40.69446573,140.4566294,青森県北津軽郡板柳町板柳字土井 338,20631,板柳,589,7,0106001,ラーメン,,JR五能線／板柳駅 徒歩9分 (651m),False
11,100000328162,GyBLFMJv-NE,寿し藤,40.69538512,140.45737935,青森県北津軽郡板柳町板柳字土井235-2,20631,板柳,402,5,0101,和食,,JR五能線／板柳駅 徒歩7分 (531m),False
12,100001024132,WhKKX0-jn2-,食樂家光樂,40.7117671,140.45216600000003,青森県北津軽郡板柳町灰沼字東306-1,20631,板柳,2041,25,0106001,ラーメン,,JR五能線／板柳駅 徒歩24分 (1898m),False
13,100001024191,0WmMkOF_Mhc,ゑびすや,40.699343738475,140.45891938436,青森県北津軽郡板柳町福野田実田92-14,20631,板柳,365,4,0115002,喫茶店,,JR五能線／板柳駅 徒歩5分 (393m),False
14,100000328197,5b_mhtmf9qo,兜家,40.69469359,140.45980975,青森県北津軽郡板柳町福野田字本泉70-6,20631,板柳,410,5,0101014,天ぷら、揚げ物,,JR五能線／板柳駅 徒歩5分 (359m),False
15,100000328163,kek5DOTM55g,竹寿し,40.69571008,140.45689327,青森県北津軽郡板柳町板柳字土井323,20631,板柳,459,5,0101,和食,,JR五能線／板柳駅 徒歩8分 (570m),False
16,100001505982,G00XWA-eTus,とりいち,40.69519204925988,140.45982104049278,青森県北津軽郡板柳町辻字松元107-9,20631,板柳,343,4,0101025,焼き鳥,,JR五能線／板柳駅 徒歩4分 (303m),False
17,100000328173,AtlGymz8qo2,どんぐり食堂,40.69571864,140.4635067,青森県北津軽郡板柳町辻字福岡62,20631,板柳,419,5,0111,定食、食堂,,JR五能線／板柳駅 徒歩4分 (257m),False
18,100000948585,0LGRs1hVgyk,なら屋,40.71706603295372,140.45302393002476,青森県北津軽郡板柳町石野春日28-1,20631,板柳,2816,35,0118001,洋菓子、ケーキ,,JR五能線／板柳駅 徒歩30分 (2374m),False
19,100000328166,K0kmmG8lrEI,松竹,40.69776001,140.46014859,青森県北津軽郡板柳町福野田実田53-6,20631,板柳,206,2,0108001,焼肉,,JR五能線／板柳駅 徒歩3分 (190m),False
20,100001110584,ZulZnafLEfA,麺倶楽部優,40.69275847080779,140.4656288002799,青森県北津軽郡板柳町辻松元39-1,20631,板柳,919,11,0106001,ラーメン,,JR五能線／板柳駅 徒歩9分 (657m),False
21,100000975785,PXQ7Ay24i7s,天,40.698148941076,140.46008956827,青森県北津軽郡板柳町福野田実田53-28,20631,板柳,182,2,0110,居酒屋、ビアホール,,JR五能線／板柳駅 徒歩3分 (212m),False
22,100000328160,YJ6chGG-B2U,一福,40.69492135,140.45980419,青森県北津軽郡板柳町板柳町辻字松元108-2,20631,板柳,381,4,0101003,割ぽう,,JR五能線／板柳駅 徒歩5分 (340m),False
23,184158946325168131,eNIVCyEbsjY,龍亭グループ こがねちゃん弁当板柳店,40.695484,140.457748,青森県北津軽郡板柳町大字板柳土井235-6,20631,板柳,370,4,0114001,持ち帰り専門、弁当,1,,True
24,100000951210,9qKuNS8WPdE,幡龍,40.696954106447,140.45912580006,青森県北津軽郡板柳町福野田実田56-2,20631,板柳,286,3,0104001,中華料理,,JR五能線／板柳駅 徒歩4分 (297m),False
25,155884854489620483,V2A7cUCUGKY,ラグノオささき マックスバリュ板柳店,40.70644,140.455139,青森県北津軽郡板柳町灰沼字東265-1,20631,板柳,1448,18,0118001,洋菓子、ケーキ,,,True
26,244208163994484737,kVs1rrc6VtY,そば処 北の翔,40.683094,140.474564,青森県北津軽郡板柳町横沢字東宮元 31-7,20751,林崎,1639,20,0101018,うどん,,,True
27,79795037770358785,TwFvtx-2OqE,レスト・バーZ,40.695175,140.459656,青森県北津軽郡板柳町辻字松元 107-9,20631,板柳,355,4,0119001,バー,,,True
28,392000000000106901111325,8GO8paGL-R-,あじまん マックスバリュー板柳店(夏期休業中),40.7067947,140.45504,青森県北津軽郡板柳町灰沼東265-1,20631,板柳,1471,18,0118,スイーツ,,,False
29,20230106864,nA8a-9g4dKk,川口あんぱん,40.697479444444,140.454979444444,青森県北津軽郡板柳町大字板柳字土井１１８,20631,板柳,744,8,0118001,洋菓子、ケーキ,3,,False
30,20230107134,fXgXUFuWGu2,ふくふく亭,40.705376111111,140.464936944444,青森県北津軽郡板柳町大字三千石字木賊６７−６,20631,板柳,1304,16,0111001,定食、食堂,2,,False
31,20230106752,qNvLsG1XnBQ,手打ちそばむらかみ,40.686691388889,140.460293055556,青森県北津軽郡板柳町大字板柳字岡本１５−１３,20631,板柳,1365,16,0101017,そば,4,,False
32,20230195589,TyUsYHC5pmE,松鶴寿司,40.698165555556,140.462326111111,青森県北津軽郡板柳町大字福野田字実田２２−５７,20631,板柳,780,9,0101012,握り寿司,1,,False
33,20230107296,Y3gZKaWfpgw,有限会社福田仕出し店,40.724594166667,140.457678611111,青森県北津軽郡板柳町大字野中字竹田１９６−２,,,,,0114003,仕出し料理,1,,False
34,20230218881,PqSBb7PFU3-,あした,40.699231944444,140.459262500000,青森県北津軽郡板柳町大字福野田字実田７３−２３,20631,板柳,351,4,0108001,焼肉,2,,False
35,20230107509,QpAKfEhisx2,キッチンハウス,40.697296111111,140.459040277778,青森県北津軽郡板柳町大字福野田字実田５７−３,20631,板柳,326,4,0114001,持ち帰り専門、弁当,,,False
36,20230220479,YfpvjpYyL1A,ふるさとセンター　コテージ・リンゴワーク,40.687508333333,140.462823333333,青森県北津軽郡板柳町大字福野田字本泉３４−６,20631,板柳,1193,14,0304007,公共の宿,,,False
37,20230106810,HXO-ZmHTTQo,ラグノオ板柳店,40.695282222222,140.456385000000,青森県北津軽郡板柳町大字板柳字土井３２８,20631,板柳,525,6,0118001,洋菓子、ケーキ,,,False
38,20230218208,zDxQ-Grynr6,ブルーマウンテン,40.696588055556,140.463945555556,青森県北津軽郡板柳町大字福野田字実田１１−５５,20631,板柳,550,6,0115002,喫茶店,,,False
39,20230107562,qIXgxqMHHVo,大福食堂,40.698387777778,140.459234722222,青森県北津軽郡板柳町大字福野田字実田７２−２,20631,板柳,302,3,0108001,焼肉,,,False
40,20230107577,Vxu6yBqk9z2,なにわ食事処,40.698387777778,140.458073611111,青森県北津軽郡板柳町大字福野田字実田９７−１３,20631,板柳,404,5,0110001,和風居酒屋,,,False
41,20230229602,OPXIemAIFdY,ここの味,40.697423888889,140.458709722222,青森県北津軽郡板柳町大字福野田字実田９８−５,20631,板柳,353,4,0110001,和風居酒屋,,,False
42,20230107311,Q5AC40ZH3Zc,ブロッサム,40.701381666667,140.455546111111,青森県北津軽郡板柳町大字灰沼字岩井７４−２,20631,板柳,950,11,0102004,洋食（その他）,,,False
43,20230107090,-hHKcNnSh3k,山水,40.700556944445,140.460934722222,青森県北津軽郡板柳町大字三千石字合吉６０−１５,20631,板柳,694,8,0110001,和風居酒屋,,,False
44,20230222801,egbcXgG_UsU,ビアキッチン・さとよし,40.699368055556,140.456576666667,青森県北津軽郡板柳町大字灰沼字岩井２５,20631,板柳,617,7,0110001,和風居酒屋,,,False
45,20230107264,jsqqbD9Rgxk,都寿司,40.695335277778,140.460243055556,青森県北津軽郡板柳町大字辻字松元８０−９０,20631,板柳,361,4,0101012,握り寿司,,,False
46,20230230264,LJwy07sJwKY,あさひ食堂,40.696332222222,140.459131944444,青森県北津軽郡板柳町大字福野田字実田１０４−３,20631,板柳,223,2,0111001,定食、食堂,,,False
47,20230106764,9HogPxB3qQY,和光,40.697329444444,140.454985000000,青森県北津軽郡板柳町大字板柳字土井１１５−３,20631,板柳,735,9,0114003,仕出し料理,,,False
48,20230107518,drO4MsQ6ozI,楊,40.697721111111,140.459456944444,青森県北津軽郡板柳町大字福野田字実田５３−２７,20631,板柳,244,3,0120001,パブ,,,False
49,20230162437,p8OQUm-jn2-,光樂,40.711767222222,140.452165555556,青森県北津軽郡板柳町大字灰沼字東３０６−１,,,,,0106001,ラーメン,,,False
50,20230226486,PXQ7ApxuT2M,居酒屋天,40.696760000000,140.459284722222,青森県北津軽郡板柳町大字福野田字実田１０５−１,20631,板柳,269,3,0110001,和風居酒屋,,,False
51,20230107695,Xg22LryAij2,かつらぎ御食事処,40.693924166667,140.460065277778,青森県北津軽郡板柳町大字福野田字本泉６７−５,20631,板柳,511,6,0101011,日本料理,,,False
0,100000328246,rfwbVUcE_RI,アンジェリック鶴田店,40.75352177114916,140.4416930514858,青森県北津軽郡鶴田町鶴田字小泉309-1,20783,陸奥鶴田,1415,17,0118001,洋菓子、ケーキ,12,JR五能線／陸奥鶴田駅 徒歩11分 (860m),False
1,100000328243,7z3ISexrMXA,屋台,40.75445968,140.42969581,青森県北津軽郡鶴田町鶴田町,20783,陸奥鶴田,879,10,0111,定食、食堂,2,JR五能線／陸奥鶴田駅 徒歩9分 (708m),False
2,100000942153,T635y10FroQ,やすた食堂,40.758280576481,140.4303637553,青森県北津軽郡鶴田町鶴田早瀬199,20783,陸奥鶴田,478,5,0106001,ラーメン,1,JR五能線／陸奥鶴田駅 徒歩7分 (551m),False
3,100000328249,8zZoPaVczhg,つるた道の駅レストラン幡龍,40.736813658806184,140.44291540859837,青森県北津軽郡鶴田町境字里見176-1,20727,鶴泊,556,6,0106001,ラーメン,1,JR五能線／鶴泊駅 徒歩8分 (631m),False
4,100001027493,YcUfyqVczhg,道の駅つるた 鶴の里あるじゃ,40.73693079810878,140.44273391991385,青森県北津軽郡鶴田町境里見176-1 (国道339号バイパス沿い),20727,鶴泊,528,6,0118,スイーツ,11,JR五能線／鶴泊駅 徒歩8分 (611m),False
5,J000991148,Gu5qadrN11g,一心亭 鶴田店,40.75811539,140.44363629,青森県北津軽郡鶴田町大字山道字忍田54-1,20783,陸奥鶴田,1001,12,0108001,焼肉,1,JR五能線　陸奥鶴田駅から徒歩14分,True
6,100001231600,FbuZ1RYYg_k,ディッパーダン鶴田FC店,40.76473968,140.44191662,青森県北津軽郡鶴田町鶴田字中泉245-1スーパーストア鶴田フットリバーモール店内,20783,陸奥鶴田,1721,21,0118,スイーツ,1,JR五能線／陸奥鶴田駅 徒歩13分 (1003m),False
7,J000737012,dLSjt6vHG8U,養老乃瀧 鶴田店,40.756543466984,140.43201748434,青森県北津軽郡鶴田町大字鶴田字早瀬 216-22,20783,陸奥鶴田,514,6,0110001,和風居酒屋,1,.,False
8,20974811,gM_6hgsTZNA,WANOワイナリー&カフェ,40.757892641203703,140.434104975938,青森県北津軽郡鶴田町鶴田字小泉335-1,20783,陸奥鶴田,159,1,0118001,洋菓子、ケーキ,,,False
9,100001134718,hSRsAgxyA66,珈琲いしむら,40.758415786012414,140.43319186962594,青森県北津軽郡鶴田町鶴田生松127-2,20783,陸奥鶴田,329,4,0115001,カフェ,1,JR五能線／陸奥鶴田駅 徒歩4分 (251m),True
10,113213645729701889,lfykSyqbo_o,やきとり大八 鶴田店,40.758739,140.432144,青森県北津軽郡鶴田町字鶴田生松 126-16,20783,陸奥鶴田,423,5,0101025,焼き鳥,1,,True
11,100001054657,tM6qtGyUimw,丸大食堂,40.75872890,140.43420083,青森県北津軽郡鶴田町鶴田前田41-18,20783,陸奥鶴田,256,3,0111,定食、食堂,,JR五能線／陸奥鶴田駅 徒歩4分 (300m),False
12,100001415638,Qoa8a4LPLwY,つがる富士見荘,40.7540364,140.37749140000005,青森県北津軽郡鶴田町廻堰大沢71-1,,,,,0112001,創作料理,,JR五能線／中田（青森）駅 徒歩50分 (3972m),False
13,100001103800,CnuKTHJsCAM,ぴかいち亭,40.75811779415297,140.44363464340393,青森県北津軽郡鶴田町山道忍田54-1,20783,陸奥鶴田,1001,12,0108001,焼肉,,JR五能線／陸奥鶴田駅 徒歩12分 (930m),False
14,110305265675100161,doAABwY_7UU,WANO Winery,40.757862,140.442108,青森県北津軽郡鶴田町大字鶴田字小泉 335番地1,20783,陸奥鶴田,896,11,0210001,酒店,,,True
15,52506,IPCJO_tDZ8w,鶴田町大豆・米加工施設,40.73714523,140.44270403,青森県北津軽郡鶴田町境字里見176番地1 道の駅つるた内,20727,鶴泊,504,6,0307003,道の駅,,,False
16,107400,q2BXpMXTyc6,大衆食堂 半田屋 鶴田フッドリバーモール店,40.76473968,140.44191662,青森県北津軽郡鶴田町鶴田字中泉245-1 鶴田フッドリバーモール内,20783,陸奥鶴田,1721,21,0101017,そば,,,False
17,392000000000118500678213,6X8_-94KZ9E,半田屋 鶴田フッドリバーモール店,40.764108,140.441669,青森県北津軽郡鶴田町鶴田字中泉245-1,20783,陸奥鶴田,1638,20,0111001,定食、食堂,,,False
18,20230178933,-9Jq-U56wAA,つるのたまご,40.752229722222,140.442450555556,青森県北津軽郡鶴田町大字鶴田字小泉５３７−１,20783,陸奥鶴田,1677,20,0106001,ラーメン,7,,False
19,20230217037,s7P1GfkCae2,幸寿し,40.755948333333,140.428004166667,青森県北津軽郡鶴田町大字鶴田字早瀬１０４−８,20783,陸奥鶴田,930,11,0101012,握り寿司,1,,False
20,20230109695,zJWrlh3j8ck,三上食堂,40.759936944445,140.430481666667,青森県北津軽郡鶴田町大字鶴田字鷹ノ尾４−１１,20783,陸奥鶴田,616,7,0111001,定食、食堂,1,,False
21,20230109879,AxPcY8lW6D2,喰いしん坊,40.756390277778,140.433565000000,青森県北津軽郡鶴田町大字鶴田字前田６２−３,20783,陸奥鶴田,342,4,0101018,うどん,1,,False
22,20230154070,mNxuqCUryyU,お菓子工房ＴＡＴＳＵＹＡ鶴田店,40.757923333333,140.432928611111,青森県北津軽郡鶴田町大字鶴田字生松１２１−２,20783,陸奥鶴田,260,3,0118002,和菓子、甘味処、たい焼き,,,False
23,20230109932,G8dmCIyk0RE,有限会社ハナショウ,40.751314722222,140.401653333333,青森県北津軽郡鶴田町大字野木字上藤森８６−１,,,,,0110001,和風居酒屋,,,False
24,20230109965,RbPoCv-gKb6,泰山庭・自然庭園,40.751441666667,140.373405277778,青森県北津軽郡鶴田町大字廻堰字大沢８１,,,,,0115002,喫茶店,,,False
25,20230109503,i8fi713kEU2,カレッヂ,40.762867222222,140.432592500000,青森県北津軽郡鶴田町大字鶴田字相原５５−３１,20783,陸奥鶴田,874,10,0115002,喫茶店,,,False
26,20230197075,iIfaYBgR_FA,居酒屋さわ,40.757731666667,140.432084444444,青森県北津軽郡鶴田町大字鶴田字生松１１７−２５,20783,陸奥鶴田,383,4,0110001,和風居酒屋,,,False
27,20230109684,KfR0UfOPALw,有限会社一戸仕出し店,40.760384166667,140.430115000000,青森県北津軽郡鶴田町大字鶴田字鷹ノ尾４−５,20783,陸奥鶴田,672,8,0114003,仕出し料理,,,False
28,20230109721,x_l_hZZRWDQ,下山食堂,40.758378888889,140.429940000000,青森県北津軽郡鶴田町大字鶴田字早瀬１９８−１３,20783,陸奥鶴田,524,6,0111001,定食、食堂,,,False
29,20230198994,h0X_WrqGzqU,株式会社岩三,40.737861388889,140.427882777778,青森県北津軽郡鶴田町大字菖蒲川字笹田１３−３,20727,鶴泊,831,10,0114001,持ち帰り専門、弁当,,,False
30,20230109757,R8VglRDK1lM,金山菓子舗,40.756540000000,140.432001111111,青森県北津軽郡鶴田町大字鶴田字早瀬２１６−１４,20783,陸奥鶴田,513,6,0118002,和菓子、甘味処、たい焼き,,,False
0,100000328333,43UyQuDFpC6,はくちょう亭奈良屋,41.03197307,140.4100083,青森県北津軽郡中泊町今泉字唐崎255,,,,,0101003,割ぽう,10,津軽鉄道／津軽中里駅 徒歩103分 (8208m),False
1,100001167585,XaEPcwZ7Fks,やよい寿司,40.96820004,140.43335336,青森県北津軽郡中泊町中里亀山260,20719,津軽中里,870,10,0101,和食,6,津軽鉄道／津軽中里駅 徒歩8分 (610m),False
2,100001177723,3Mwjb3vYKA2,すし定,41.13161662319999,140.30591073999994,青森県北津軽郡中泊町小泊小泊412-1,,,,,0101,和食,1,,False
3,100001297298,nxH1gIndjk-,くつろぎダイニング 哲。,40.96360479248308,140.44014551262794,青森県北津軽郡中泊町中里字紅葉坂48-4,20719,津軽中里,193,2,0101034,海鮮料理,3,津軽鉄道／津軽中里駅 徒歩2分 (143m),False
4,100000328306,EDEB91l2kbo,しじみ亭奈良屋,41.03197307,140.4100083,青森県北津軽郡中泊町今泉唐崎255,,,,,0106001,ラーメン,4,津軽鉄道／津軽中里駅 徒歩103分 (8208m),False
5,100000328304,7t6s7Pb7j9I,ピュア食堂,40.95008,140.42771330000005,青森県北津軽郡中泊町八幡日向,20763,深郷田,1501,18,0111,定食、食堂,2,津軽鉄道／深郷田駅 徒歩19分 (1485m),False
6,100001259691,E7eDS5SMA0A,かもめ寿司,41.130039,140.29939319999994,青森県北津軽郡中泊町小泊字小泊126,,,,,0101,和食,,,False
7,100001121931,s8vwWCVxpsY,レストラン竜泊,41.144881568592,140.32056371674003,青森県北津軽郡中泊町小泊字折腰内45道の駅こどまり2F,,,,,0101034,海鮮料理,1,,False
8,100001239874,h2cW7Pb7j9I,中泊町特産物直売所 ピュア,40.949670886651234,140.42383651733394,青森県北津軽郡中泊町八幡字日向334,20763,深郷田,1795,22,0101033,郷土料理,2,津軽鉄道／大沢内駅 徒歩23分 (1833m),False
9,6559,BVWspxW9VwM,道の駅 こどまり,41.1449049,140.32059579999998,青森県北津軽郡中泊町大字小泊字折腰内45,,,,,0307003,道の駅,,,False
10,100001496086,omKwd611AKA,道の駅 こどまり ポントマリ,41.14509270000001,140.3203684,青森県北津軽郡中泊町小泊折腰内45,,,,,0101034,海鮮料理,13,,True
11,100000328307,rBOBcSa9W6E,韓国料理ソウル,40.96713911,140.43621431,青森県北津軽郡中泊町中里字亀山494,20719,津軽中里,532,6,0105001,韓国料理、朝鮮料理,2,津軽鉄道／津軽中里駅 徒歩8分 (591m),False
12,100000931334,s4AXGWj-rc6,おさかな海岸,41.11162397,140.30009611,青森県北津軽郡中泊町小泊折戸51-34,,,,,0101034,海鮮料理,,,False
13,100001142158,t_BFJxHwxL2,ル・パンドール 松しま分店,40.963988567789,140.4403894501,青森県北津軽郡中泊町中里紅葉坂44-1,20719,津軽中里,158,1,0118001,洋菓子、ケーキ,,津軽鉄道／津軽中里駅 徒歩2分 (118m),False
14,100001076466,cX0ydH7eMyA,磯や,41.121705686539,140.27956145156,青森県北津軽郡中泊町小泊下前227,,,,,0101031,丼もの、牛丼、親子丼,,,False
15,100001077509,PSLvoskAMAA,松しま本店,40.966596962079,140.43686266241,青森県北津軽郡中泊町中里字亀山486-1,20719,津軽中里,485,6,0118001,洋菓子、ケーキ,,津軽鉄道／津軽中里駅 徒歩7分 (501m),False
16,100000328319,aWzOx5H6x4A,居酒屋栄竜,40.96387279,140.4388504,青森県北津軽郡中泊町中里字亀山291-2,20719,津軽中里,218,2,0110,居酒屋、ビアホール,,津軽鉄道／津軽中里駅 徒歩4分 (264m),False
17,100000328295,kSwq6q4e_oA,やまと,40.9710332,140.43512806,青森県北津軽郡中泊町中里字亀山598,20719,津軽中里,1109,13,0101001,懐石料理,,津軽鉄道／津軽中里駅 徒歩12分 (948m),False
18,100001006650,Zwj5fCbFlsI,トリス食堂,40.964778786427,140.44003317193,青森県北津軽郡中泊町中里亀山224-2,20719,津軽中里,79,0,0106001,ラーメン,,津軽鉄道／津軽中里駅 徒歩2分 (110m),False
19,20230108669,EDEB98DFpC6,しじみ亭奈良屋,41.031892500000,140.410358333333,青森県北津軽郡中泊町大字今泉字唐崎２５５−２,,,,,0101011,日本料理,3,,False
20,20230110415,zIvYFWoEI8I,東日流屋,41.130741666667,140.306067222222,青森県北津軽郡中泊町大字小泊字小泊２７５−２,,,,,0111001,定食、食堂,2,,False
21,20230110419,3fgwSZk5Iak,マル清食堂,41.130877777778,140.305911666667,青森県北津軽郡中泊町大字小泊字小泊２７６−１,,,,,0111001,定食、食堂,2,,False
22,20230133419,uFOzLMVoPXk,味仙,41.131105555556,140.306280833333,青森県北津軽郡中泊町大字小泊字小泊２７８−１,,,,,0101029,お好み焼き、たこ焼き,1,,False
23,20230167121,GFS7e1gXzX-,中泊食品加工,41.014778055556,140.428190555556,青森県北津軽郡中泊町大字薄市字玉清水７２−４４,,,,,0114001,持ち帰り専門、弁当,,,False
24,20230227668,2NsIByKW__2,ぷらっと,40.965425277778,140.437522777778,青森県北津軽郡中泊町大字中里字亀山４０８−３,20719,津軽中里,392,4,0110001,和風居酒屋,,,False
25,20230148663,9NEsW3ryB96,アイドル・おやつの店,40.966372500000,140.437536388889,青森県北津軽郡中泊町大字中里字亀山４７０,20719,津軽中里,397,4,0123002,ファストフード,,,False
26,20230171862,Gjt7cFYITLc,仕出し処隆佐,41.126355555556,140.299720555556,青森県北津軽郡中泊町大字小泊字鮫貝１１０−６,,,,,0114001,持ち帰り専門、弁当,,,False
27,20230219847,iB4E0GeHR2U,とよ川,40.955651388889,140.440436944444,青森県北津軽郡中泊町大字深郷田字富森３３−１,20763,深郷田,511,6,0110001,和風居酒屋,,,False
28,20230109014,zOe4XbZb7-U,坂田仕出し店,40.965900277778,140.437219722222,青森県北津軽郡中泊町大字中里字亀山４０９−１,20719,津軽中里,454,5,0114003,仕出し料理,,,False
29,20230108994,OcGYsjsNjSI,チャンコ食堂,40.965883611111,140.438155833333,青森県北津軽郡中泊町大字中里字亀山４６３−１,20719,津軽中里,315,3,0111001,定食、食堂,,,False
30,20230133789,H6uAJCUQKE2,有限会社舘山仕出し店,40.957917777778,140.441808888889,青森県北津軽郡中泊町大字深郷田字富森７６,20763,深郷田,783,9,0114003,仕出し料理,,,False
31,20230218081,4l5Mrz81ros,お食事亭大福,41.122358055556,140.276073055556,青森県北津軽郡中泊町大字小泊字下前２２６,,,,,0111001,定食、食堂,,,False
32,20230110377,7yGbNnvksuw,深海魚,41.131424166667,140.292968333333,青森県北津軽郡中泊町大字小泊字大山長根１１４,,,,,0115002,喫茶店,,,False
33,20230216353,dT3cUzpYDxM,澤田仕出し店,41.011678333333,140.422971666667,青森県北津軽郡中泊町大字薄市字沖原１１７,,,,,0114003,仕出し料理,,,False
0,100001248656,4-pYVMJ9XkU,bloom cafe,40.86385687500248,141.1271438166499,青森県上北郡野辺地町野辺地38-1 さくら2 1号室,20671,北野辺地,1184,14,0115001,カフェ,4,JR大湊線(はまなすベイライン大湊線)／北野辺地駅 徒歩14分 (1123m),True
1,100001178253,MPSZdN9B17-,蔦屋,40.85585698017144,141.12014308465575,青森県上北郡野辺地町上小中野39-19,20747,野辺地,75,0,0101014,天ぷら、揚げ物,7,青い森鉄道／野辺地駅 徒歩2分 (99m),False
2,100000328341,WqYQnNFnGM-,華仙,40.86512467,141.13009931,青森県上北郡野辺地町赤坂5-80,20671,北野辺地,923,11,0101,和食,3,JR大湊線(はまなすベイライン大湊線)／北野辺地駅 徒歩10分 (797m),True
3,100001355279,erocQUIf5l2,そば屋 さいとう,40.86972406567251,141.12033055644872,青森県上北郡野辺地町野辺地442,20671,北野辺地,1547,19,0101017,そば,2,JR大湊線(はまなすベイライン大湊線)／北野辺地駅 徒歩20分 (1538m),False
4,100001163178,QElegE-FZQc,頑固らーめん　やまじゅう,40.8656245,141.11047840000003,青森県上北郡野辺地町二十平93-5,20747,野辺地,1536,19,0106001,ラーメン,3,青い森鉄道／野辺地駅 徒歩20分 (1543m),False
5,100001151343,eDuRQ7z8EVw,ヒロ,40.87016502152,141.1312491037,青森県上北郡野辺地町田名部道18-22,20671,北野辺地,303,3,0102006,イタリア料理（イタリアン）,2,JR大湊線(はまなすベイライン大湊線)／北野辺地駅 徒歩5分 (334m),True
6,100001279318,QF0SAWoK-Bg,ガーデンカフェ,40.8654279020425,141.1291383743286,青森県上北郡野辺地町野辺地162-1,20671,北野辺地,924,11,0115001,カフェ,3,JR大湊線(はまなすベイライン大湊線)／北野辺地駅 徒歩11分 (836m),True
7,100000328386,xJSkR4KsSWA,らーめん中濱屋,40.85507635860225,141.11403145429048,青森県上北郡野辺地町野辺地町字松ノ木111-93,20747,野辺地,720,9,0106002,つけ麺,4,青い森鉄道／野辺地駅 徒歩8分 (640m),False
8,100000328349,5bjHVJA_2pM,炭火焼肉大番,40.86526352,141.12901885,青森県上北郡野辺地町野辺地158-1,20671,北野辺地,951,11,0108001,焼肉,2,JR大湊線(はまなすベイライン大湊線)／北野辺地駅 徒歩11分 (858m),False
9,100001430345,vc5AnrlbhKc,駅そば パクパク 野辺地駅,40.85551397203573,141.11962080704416,青森県上北郡野辺地町上小中野49-2,20747,野辺地,26,0,0101017,そば,1,青い森鉄道／野辺地駅 徒歩1分 (18m),False
10,100001093866,o_7I8qh8K-I,ラーメン麺太,40.855540226887,141.13032853498,青森県上北郡野辺地町上前田7-2,20747,野辺地,1065,13,0106001,ラーメン,3,青い森鉄道／野辺地駅 徒歩15分 (1191m),False
11,100000328449,lSPCSdb8oGc,cafe’R,40.86531204316047,141.13118062331353,青森県上北郡野辺地町赤坂55-42,20671,北野辺地,827,10,0115001,カフェ,2,JR大湊線(はまなすベイライン大湊線)／北野辺地駅 徒歩10分 (738m),False
12,100000328369,J5KdTgxZzUQ,ファミリー食堂,40.86961598817605,141.11183466834322,青森県上北郡野辺地町下御手洗瀬10-2,20747,野辺地,1944,24,0111,定食、食堂,8,青い森鉄道／野辺地駅 徒歩23分 (1796m),False
13,100000328338,3UzxNhIABCk,ぶんぶく,40.8668356,141.12867721,青森県上北郡野辺地町野辺地199-7,20671,北野辺地,879,10,0101003,割ぽう,1,JR大湊線(はまなすベイライン大湊線)／北野辺地駅 徒歩10分 (765m),False
14,J000965101,-f0PoQAu5mg,かっぱ寿司 野辺地店,40.86606860,141.11297833,青森県上北郡野辺地町二本木31-1,20747,野辺地,1507,18,0101053,和食（その他）,,野辺地駅から車で10分。,True
15,100001014101,hvQBZzHOF6Y,佐藤製菓,40.866282472319,141.12755395319,青森県上北郡野辺地町野辺地8-1,20671,北野辺地,913,11,0118001,洋菓子、ケーキ,3,JR大湊線(はまなすベイライン大湊線)／北野辺地駅 徒歩12分 (902m),True
16,100000970972,Tg8lAyspY2-,洋風居酒屋おがわ,40.865319038805,141.12721919784,青森県上北郡野辺地町野辺地170-1,20671,北野辺地,1036,12,0110,居酒屋、ビアホール,1,JR大湊線(はまなすベイライン大湊線)／北野辺地駅 徒歩13分 (997m),False
17,100001512203,sqSSUYAyn4I,BIWANO52 Coffee Factory,40.8516531,141.10972289999995,青森県上北郡野辺地町枇杷野33-95,20747,野辺地,1216,15,0116001,コーヒー専門店,1,青い森鉄道／野辺地駅 徒歩15分 (1196m),True
18,100000328336,ixYDyJ9GrAE,千代,40.8662053,141.13127929999996,青森県上北郡野辺地町助佐小路-5,20671,北野辺地,728,9,0101003,割ぽう,2,JR大湊線(はまなすベイライン大湊線)／北野辺地駅 徒歩8分 (626m),True
19,100000328361,k6eiB47DOaM,おくでら,40.85579198,141.12057244,青森県上北郡野辺地町野辺地町字上小中野38-16,20747,野辺地,93,1,0111,定食、食堂,1,青い森鉄道／野辺地駅 徒歩2分 (130m),False
20,100000328337,XEdtEsQnfXo,華竜,40.86556074,141.1299771,青森県上北郡野辺地町赤坂54-1,20671,北野辺地,869,10,0110,居酒屋、ビアホール,2,JR大湊線(はまなすベイライン大湊線)／北野辺地駅 徒歩10分 (765m),False
21,100000328452,c4K8pn3qJiM,パステル,40.86625227,141.12635517,青森県上北郡野辺地町野辺地272-1,20671,北野辺地,1059,13,0115002,喫茶店,1,JR大湊線(はまなすベイライン大湊線)／北野辺地駅 徒歩13分 (1014m),False
22,100000328340,KPBDuNZYcqg,海幸,40.86507466,141.12947436,青森県上北郡野辺地町野辺地155-1,20671,北野辺地,972,12,0101,和食,1,JR大湊線(はまなすベイライン大湊線)／北野辺地駅 徒歩11分 (842m),False
23,157063749997953025,HoANHXTc5UQ,居酒屋ダイニング まる。,40.865726,141.128342,青森県上北郡野辺地町字野辺地 14-1,20671,北野辺地,991,12,0110001,和風居酒屋,1,,True
24,100000328372,DighNy9Tjt2,マル五食堂,40.86692163,141.12532748,青森県上北郡野辺地町野辺地327-1,20671,北野辺地,1075,13,0111,定食、食堂,,JR大湊線(はまなすベイライン大湊線)／北野辺地駅 徒歩14分 (1079m),False
25,100000328380,e3UkG9V7pE-,和食処しばのや,40.866628046868854,141.13068223376428,青森県上北郡野辺地町助佐小路1-4,20671,北野辺地,716,8,0101,和食,,JR大湊線(はまなすベイライン大湊線)／北野辺地駅 徒歩9分 (650m),True
26,100000328363,o5RdQ_JTRWk,さかもと食堂,40.85577809,141.12043356,青森県上北郡野辺地町上小中野38-17,20747,野辺地,67,0,0111,定食、食堂,,青い森鉄道／野辺地駅 徒歩2分 (116m),False
27,100000972497,iBXdfTv_QPQ,ぽんた,40.866358103753,141.13084862026,青森県上北郡野辺地町助佐小路5-25,20671,北野辺地,730,9,0110,居酒屋、ビアホール,,JR大湊線(はまなすベイライン大湊線)／北野辺地駅 徒歩8分 (637m),False
28,100000328345,63K-lK0Mg5-,みや寿し,40.86686619,141.13010487,青森県上北郡野辺地町石神裏3-1,20671,北野辺地,712,8,0101,和食,,JR大湊線(はまなすベイライン大湊線)／北野辺地駅 徒歩8分 (645m),True
29,100001013181,OoCJsolWyH6,鮨政,40.864619694541,141.12717197762,青森県上北郡野辺地町野辺地31-5,20671,北野辺地,1132,14,0101,和食,,JR大湊線(はまなすベイライン大湊線)／北野辺地駅 徒歩14分 (1052m),False
30,100000991909,6d1JXleNXjU,おいしんぼ,40.866025076649,141.12623554229,青森県上北郡野辺地町野辺地273-1,20671,北野辺地,1083,13,0115001,カフェ,,JR大湊線(はまなすベイライン大湊線)／北野辺地駅 徒歩13分 (1039m),False
31,100000328348,hLBEHfgFysU,山海,40.86574408,141.13099646,青森県上北郡野辺地町野辺地町字赤坂55-8,20671,北野辺地,779,9,0108001,焼肉,,JR大湊線(はまなすベイライン大湊線)／北野辺地駅 徒歩9分 (686m),False
32,100000328350,GAYD7VxxozQ,大同江,40.8671997,141.13037099999997,青森県上北郡野辺地町石神裏6-7,20671,北野辺地,675,8,0108001,焼肉,,JR大湊線(はまなすベイライン大湊線)／北野辺地駅 徒歩8分 (598m),False
33,100000328344,EuEuzpW2L_A,誠鮨,40.86469909468448,141.12622204355125,青森県上北郡野辺地町野辺地285-1,20671,北野辺地,1210,15,0101,和食,,JR大湊線(はまなすベイライン大湊線)／北野辺地駅 徒歩14分 (1126m),False
34,100000328353,9c4Rp38DjK-,源太,40.8566615,141.12095550000004,青森県上北郡野辺地町中小中野40-2,20747,野辺地,188,2,0101025,焼き鳥,,青い森鉄道／野辺地駅 徒歩3分 (226m),False
35,100000328342,ROUuJPIRbOs,寿司と天ぷらの店蔦上,40.86579958,141.12867721,青森県上北郡野辺地町野辺地14-12,20671,北野辺地,977,12,0101,和食,,JR大湊線(はまなすベイライン大湊線)／北野辺地駅 徒歩11分 (841m),False
36,100000955009,CAWqZjWWCqY,紅とんぼ,40.866154300377,141.12859611882,青森県上北郡野辺地町野辺地167-7,20671,北野辺地,902,11,0101025,焼き鳥,,JR大湊線(はまなすベイライン大湊線)／北野辺地駅 徒歩11分 (821m),False
37,100000328379,3YS6KyspY2-,あねっ子,40.86723034254169,141.12524123527612,青森県上北郡野辺地町野辺地331-1,20671,北野辺地,1083,13,0101,和食,,JR大湊線(はまなすベイライン大湊線)／北野辺地駅 徒歩14分 (1079m),False
38,100001053966,RfGwQ0n6Vxw,さくら亭,40.866948036842,141.1329850349,青森県上北郡野辺地町助佐小路12-8,20671,北野辺地,709,8,0101011,日本料理,,JR大湊線(はまなすベイライン大湊線)／北野辺地駅 徒歩6分 (475m),False
39,100000328456,sHylzhW6Yek,一秋,40.86645233,141.12987989,青森県上北郡野辺地町野辺地193-1,20671,北野辺地,769,9,0102,洋食,,JR大湊線(はまなすベイライン大湊線)／北野辺地駅 徒歩9分 (696m),False
40,100000328462,cgn7MT35DR6,よりみち,40.86461077,141.12746064,青森県上北郡野辺地町野辺地31-1,20671,北野辺地,1082,13,0111,定食、食堂,,JR大湊線(はまなすベイライン大湊線)／北野辺地駅 徒歩13分 (1030m),False
41,100000328370,PI2UeqRcT6Y,本町食堂,40.86429135,141.12730788,青森県上北郡野辺地町野辺地34-1,20671,北野辺地,1127,14,0111,定食、食堂,,JR大湊線(はまなすベイライン大湊線)／北野辺地駅 徒歩14分 (1067m),False
42,100000328402,bBkI3VJ8_PY,居酒屋海峡,40.86529685,141.12879386,青森県上北郡野辺地町野辺地164-1,20671,北野辺地,970,12,0110,居酒屋、ビアホール,,JR大湊線(はまなすベイライン大湊線)／北野辺地駅 徒歩11分 (872m),False
43,222405299386556419,3rG_mWPZFqg,ほっかほっか亭 金沢店,40.8681327,141.1287578,青森県上北郡野辺地町字野辺地234,20671,北野辺地,649,8,0114001,持ち帰り専門、弁当,,,True
44,91093,f755zo5s1Cc,駅そばパクパク,40.85547810,141.11971973,青森県上北郡野辺地町字上小中野49-2,20747,野辺地,16,0,0101017,そば,,,False
45,110034,xqInTbrfVTk,常夜燈,40.88011005881283,141.15113888851158,青森県上北郡野辺地町千草橋64-2,20671,北野辺地,2147,26,0101017,そば,,,False
46,20230111211,MfRgvdI_2xY,喫茶レストラン舟宿,40.880298611111,141.150796666667,青森県上北郡野辺地町字干草橋６７−７,,,,,0115002,喫茶店,6,,False
47,20230110948,R65BrK_6qHg,よこはま食事とコーヒー,40.869140555556,141.115091944444,青森県上北郡野辺地町字笹館７２−２,20671,北野辺地,1880,23,0115002,喫茶店,3,,False
48,20230111538,wJpPYALMR4o,大湊屋製菓店,40.865363611111,141.127366111111,青森県上北郡野辺地町字野辺地２２−３,20671,北野辺地,1018,12,0118002,和菓子、甘味処、たい焼き,3,,False
49,20230110872,vPq6AwFBSlg,松浦食堂,40.856164166667,141.119750277778,青森県上北郡野辺地町字上小中野３９−７,20747,野辺地,92,1,0111001,定食、食堂,2,,False
50,20230110667,ioiMrC6b7OY,飛鳥,40.865091388889,141.130896388889,青森県上北郡野辺地町字赤坂８−１０,20671,北野辺地,929,11,0110001,和風居酒屋,1,,False
51,20230175356,ccYUc62m4_-,花梨,40.847756666667,141.125230555556,青森県上北郡野辺地町字松ノ木平２６−８,20747,野辺地,1414,17,0115002,喫茶店,1,,False
52,20230217042,K0kmmQiOiI2,松竹食堂,40.865555277778,141.130915833333,青森県上北郡野辺地町字赤坂５２−２,20671,北野辺地,806,10,0111001,定食、食堂,1,,False
53,20230111920,gIBcmAdjOdA,江戸っ子,40.859008333333,141.127113611111,青森県上北郡野辺地町字坊ノ塚１,20747,野辺地,870,10,0101012,握り寿司,1,,False
54,20230110739,bvEEPcyP-ok,サロン食堂,40.865474722222,141.128743888889,青森県上北郡野辺地町字野辺地１７９−１,20671,北野辺地,958,11,0111001,定食、食堂,1,,False
55,20230189877,pFemacezIBA,佐藤仕出し店,40.869068055556,141.105428888889,青森県上北郡野辺地町字槻ノ木７５−２０６,,,,,0114003,仕出し料理,1,,False
56,20230189120,HFAI9HcoNUU,おおにし食事房,40.865419166667,141.129421666667,青森県上北郡野辺地町字野辺地１６８−１,20671,北野辺地,924,11,0102004,洋食（その他）,1,,False
57,20230110740,N1_iwsyP-ok,笹寿司,40.865474722222,141.128743888889,青森県上北郡野辺地町字野辺地１７９−１,20671,北野辺地,958,11,0101012,握り寿司,1,,False
58,20230222382,JmlcLTl5x4E,中華料理・福家,40.871268055556,141.108073055556,青森県上北郡野辺地町字鳥井平３４−１０,,,,,0104001,中華料理,,,False
59,20230218887,YhBwKq_XwoI,野辺地町　学校給食共同調理場,40.868012777778,141.110278333333,青森県上北郡野辺地町字下御手洗瀬２７,20747,野辺地,1881,23,0114003,仕出し料理,,,False
60,20230110878,K7kWQkux3fY,コマイ旅館,40.856089166667,141.120258611111,青森県上北郡野辺地町字上小中野３９−１４,20747,野辺地,119,1,0304002,旅館,,,False
61,20230110897,X5igyacMedo,パクパク,40.855864166667,141.120111388889,青森県上北郡野辺地町字上小中野３９−２９,20747,野辺地,89,1,0101025,焼き鳥,,,False
62,20230111221,Svj6xeHwFVE,柴崎隆,40.869240555556,141.107109166667,青森県上北郡野辺地町字槻ノ木１８７−１０,,,,,0114001,持ち帰り専門、弁当,,,False
63,20230218889,C5k8ENccj5l,ままや,40.867780000000,141.129549444444,青森県上北郡野辺地町字野辺地２１６−４,20671,北野辺地,602,7,0110001,和風居酒屋,,,False
64,20230163915,NfB0acD8ZtI,ながはま食堂,40.866716111111,141.126210833333,青森県上北郡野辺地町字野辺地３０７,20671,北野辺地,1009,12,0111001,定食、食堂,,,False
65,20230214439,FzxEMi6b7OY,焼鳥串揚げみつのぶ,40.865080277778,141.130896388889,青森県上北郡野辺地町字赤坂８−１０,20671,北野辺地,856,10,0101025,焼き鳥,,,False
66,20230226744,hZA9hGz9NXY,串焼くん　野辺地店,40.866075833333,141.111648888889,青森県上北郡野辺地町字二本木２４−１,20747,野辺地,1603,20,0101025,焼き鳥,,,False
67,20230182081,nMfqFoQ8mxE,焼鳥よっちゃん,40.865560833333,141.129977222222,青森県上北郡野辺地町字赤坂５４−１,20671,北野辺地,869,10,0101025,焼き鳥,,,False
68,20230213657,QSBBXHTc5UQ,ラーメンはやて,40.865755277778,141.128549444444,青森県上北郡野辺地町字野辺地１４−５,20671,北野辺地,980,12,0106001,ラーメン,,,False
69,20230159824,Qu30kE1bOv-,ラーメン餃子ひろ美,40.866383055556,141.130982500000,青森県上北郡野辺地町字助佐小路５−２５,20671,北野辺地,715,8,0106001,ラーメン,,,False
70,20230218398,l-qmDKxePe2,お食事処・和,40.855570000000,141.127558055556,青森県上北郡野辺地町字上川原３−１,20747,野辺地,718,8,0123002,ファストフード,,,False
71,20230110674,9wcd-kgfBqs,モンプテール,40.864849722222,141.131265833333,青森県上北郡野辺地町字赤坂５−１５,20671,北野辺地,888,11,0115002,喫茶店,,,False
72,20230193651,hK8usgez2mw,丸定食堂・食品店,40.856750277778,141.125621944444,青森県上北郡野辺地町字鳴沢８−４,20747,野辺地,632,7,0111001,定食、食堂,,,False
73,20230213024,VqGnnU1bOv-,ふじ屋,40.837182777778,141.128733333333,青森県上北郡野辺地町字一ノ渡３７−５,,,,,0111001,定食、食堂,,,False
74,20230111292,gcSYj_yo-qE,松山旅館,40.856758611111,141.120819722222,青森県上北郡野辺地町字中小中野３９−２,20747,野辺地,204,2,0304002,旅館,,,False
75,20230175278,DRLetfZanq-,パン工房ビリオン,40.862802222222,141.114686666667,青森県上北郡野辺地町字前平１８−１,20747,野辺地,1110,13,0117001,ベーカリー,,,False
76,20230111105,Dw8SaoQ8mxE,カラオケフレンドリー,40.866391388889,141.130968611111,青森県上北郡野辺地町字助佐小路５−２５,20671,北野辺地,802,9,0124002,カラオケボックス,,,False
77,20230111477,neEyenVkSR6,かつ亭,40.866374444444,141.127721666667,青森県上北郡野辺地町字野辺地６−２,20671,北野辺地,888,11,0101015,とんかつ,,,False
78,20230170712,Yf9Uoxe2XVo,野辺地町観光協会売店部,40.855944722222,141.119089166667,青森県上北郡野辺地町字中小中野１７−１７,20747,野辺地,88,1,0307002,観光案内,,,False
79,1561605721763,EDWd-44VDmc,自遊木民族珈琲,40.87257608,141.09809581,青森県上北郡野辺地町字家ノ上90,20747,野辺地,2853,35,0115001,カフェ,,,False
0,100000748010,POVhS1RPoBg,手作りジェラート店 ナミキ,40.709377744540234,141.16787074234526,青森県上北郡七戸町立野頭69,29388,七戸十和田,2701,33,0118,スイーツ,12,青い森鉄道／乙供駅 徒歩117分 (9300m),False
1,100000828905,qcFGI1wG5hQ,ナラビ,40.70949516681519,141.16811243527613,青森県上北郡七戸町立野頭69,29388,七戸十和田,2673,33,0102001,ステーキ、ハンバーグ,10,青い森鉄道／乙供駅 徒歩116分 (9277m),False
2,100000802112,MPvArk4yYpo,お食事処 絵馬,40.7165323466355,141.1555521925079,青森県上北郡七戸町荒熊内67-94,29388,七戸十和田,559,6,0106001,ラーメン,10,青い森鉄道／乙供駅 徒歩120分 (9532m),False
3,100000328473,pRZxfG4c2Ws,松雪庵,40.69943863307921,141.1531238945369,青森県上北郡七戸町上町野12,29388,七戸十和田,2700,33,0101017,そば,9,,True
4,100001114151,4g94sVmONAI,婆古石そば,40.691569411626,141.09283727942,青森県上北郡七戸町山屋119-2,,,,,0101017,そば,3,,False
5,100001361915,abg5kV5TkTY,道の駅しちのへ 七戸町文化村,40.71682479,141.15525022,青森県上北郡七戸町荒熊内67-94,29388,七戸十和田,572,7,0111,定食、食堂,17,青い森鉄道／乙供駅 徒歩120分 (9529m),True
6,100001247829,EbvytcOlrrs,七戸町観光交流センター,40.71968319530703,141.15309283835552,青森県上北郡七戸町荒熊内67番地49,29388,七戸十和田,110,1,0114001,持ち帰り専門、弁当,2,青い森鉄道／千曳駅 徒歩118分 (9402m),False
7,100000940991,koyXFTNvZrw,手打ち蕎麦,40.716855062666,141.15528279633,青森県上北郡七戸町荒熊内道の駅しちのへ 七菜館67-94,29388,七戸十和田,481,6,0101017,そば,3,青い森鉄道／乙供駅 徒歩119分 (9526m),False
8,100000924574,EKsR4Ya0GYA,支那そば　ちから,40.7490799,141.1533435,青森県上北郡七戸町森ケ沢215-3,29388,七戸十和田,3872,48,0106001,ラーメン,2,青い森鉄道／千曳駅 徒歩78分 (6170m),False
9,100001157610,QF3_ajPG8-E,ラーメンショップ　天間林店,40.78440837282804,141.14668058302004,青森県上北郡七戸町後平150-207,,,,,0106001,ラーメン,2,青い森鉄道／千曳駅 徒歩30分 (2351m),False
10,EAP0000001288,EYqeHWq03bo,天間屋,40.7456888,141.1564101,青森県上北郡七戸町森ノ上209-3,29388,七戸十和田,3570,44,0118001,洋菓子、ケーキ,3,青い森鉄道／千曳駅 徒歩82分 (6530m),True
11,100001400265,pq-29tOuffc,らーめん大龍 七戸店,40.71551855366261,141.1560672573836,青森県上北郡七戸町荒熊内159,29388,七戸十和田,723,9,0106001,ラーメン,2,青い森鉄道／乙供駅 徒歩120分 (9546m),False
12,100001009943,pAgZQDCgqB-,そば茶房といち,40.706613594518,141.15463202278,青森県上北郡七戸町上町野141-3,29388,七戸十和田,1897,23,0101017,そば,2,,True
13,100001103830,xzSNeeiKoIs,お菓子のみやきん 本店,40.695619274658,141.15616593544,青森県上北郡七戸町七戸329-1,29388,七戸十和田,3042,38,0118,スイーツ,1,,False
14,100001287965,-L9cEmtR7js,ビストロらあく,40.69994290129097,141.1591893398985,青森県上北郡七戸町影津内34-10,29388,七戸十和田,2564,32,0102,洋食,5,,False
15,100000543242,d_i5cfkBO-Q,焼肉 大昌園,40.6994826,141.15875900000003,青森県上北郡七戸町影津内33-14,29388,七戸十和田,2645,33,0108001,焼肉,4,,False
16,100001040644,yCF6lz9Ctn-,タベルナ,40.704894067932,141.15707934119,青森県上北郡七戸町倉越39-15,29388,七戸十和田,1930,24,0102,洋食,1,,False
17,100001490466,xMvrqt3l6YA,居酒屋 ふじと,40.69748292450909,141.1562731257776,青森県上北郡七戸町寺裏13-40,29388,七戸十和田,2807,35,0110,居酒屋、ビアホール,1,,True
18,100001287934,1Qngw8EfU9s,寿司 割烹 まきば,40.6990548,141.1569508,青森県上北郡七戸町寺裏10-3,29388,七戸十和田,2646,33,0101,和食,1,,True
19,100001480798,zVOr_zHlMy-,KEY’S CAF 七戸十和田店,40.71974035673483,141.15310487576892,青森県上北郡七戸町荒熊内207 七戸町観光交流センター2,29388,七戸十和田,116,1,0115001,カフェ,,青い森鉄道／千曳駅 徒歩118分 (9396m),False
20,128776008756658177,dQREAwpRYeY,杉屋敷  奥山,40.697491,141.15744,青森県上北郡七戸町字影津内 111番地,29388,七戸十和田,2950,36,0101011,日本料理,2,,True
21,100001377200,R6K_GlJv0Hg,和食レストラン まるまつ イオン七戸店,40.718778642895685,141.15450380784773,青森県上北郡七戸町荒熊内67-990 イオン七戸SC内,29388,七戸十和田,202,2,0101,和食,,青い森鉄道／乙供駅 徒歩118分 (9397m),False
22,100000976232,oc1aclh_ovw,パン工場 七戸十和田駅前店,40.71891096,141.15529125,青森県上北郡七戸町荒熊内67-990 イオン七戸ショッピングセンター1F,29388,七戸十和田,184,2,0117,パン、サンドイッチ,,青い森鉄道／乙供駅 徒歩118分 (9430m),False
23,100001524161,vgiUK99n2d-,居酒屋 絵里,40.6965974780741,141.15410971932022,青森県上北郡七戸町七戸281-2,29388,七戸十和田,3032,37,0110,居酒屋、ビアホール,,,False
24,100000988927,WKebwom-02c,焼きそば　すずめ,40.697970314421,141.15365013261,青森県上北郡七戸町七戸126-6,29388,七戸十和田,2916,36,0101017,そば,,,False
25,100001461582,mxZsuSeN98k,居酒屋 凪や,40.7438779,141.15884890000007,青森県上北郡七戸町森ノ上265-9-1階,29388,七戸十和田,3372,42,0110,居酒屋、ビアホール,,青い森鉄道／千曳駅 徒歩85分 (6744m),False
26,100001349512,C73qfSs_yeg,東八甲田ローズカントリー カフェコーナー,40.69673687199034,141.09933973914792,青森県上北郡七戸町山舘25-1,,,,,0115001,カフェ,,,False
27,100001003857,mspRIa1Asoo,茶房 ひまわり,40.790967882813,141.09359606916,青森県上北郡七戸町志茂川原93-7,,,,,0115001,カフェ,,青い森鉄道／千曳駅 徒歩85分 (6753m),False
28,100001103395,xcQ1FDoDdFs,サムシング,40.697731943054,141.15601683296,青森県上北郡七戸町寺裏13-1,29388,七戸十和田,2788,34,0102,洋食,,,False
29,100000328466,s7-dlOB9fSE,かおる寿司,40.6963801,141.15661769999997,青森県上北郡七戸町影津内-114,29388,七戸十和田,2993,37,0101,和食,,,False
30,153317073931771905,7OWWtrLu0bQ,ダイニング らぱん,40.697075,141.155914,青森県上北郡七戸町字寺裏 13-1,29388,七戸十和田,2853,35,0119004,ダイニングバー,,,True
31,30304,QF3_aho8qi6,ラーメンショップ 天間林店,40.78425549,141.14687475,青森県上北郡七戸町後平150-207,,,,,0106001,ラーメン,1,,False
32,20230116904,3z2chwXSI1k,天間林仕出しセンター,40.746515833333,141.162431388889,青森県上北郡七戸町字森ノ上２８２−２,,,,,0114001,持ち帰り専門、弁当,1,,False
33,20230207504,3GNHRkbyNEk,寿司御食事処・割烹まきば,40.697479722222,141.156631388889,青森県上北郡七戸町字寺裏１０−３,,,,,0101003,割ぽう,2,,False
34,20230170775,zauIumOYIhc,ジュノンレストラン,40.696729722222,141.156870277778,青森県上北郡七戸町字影津内１１１−６,,,,,0102004,洋食（その他）,2,,False
35,20230220973,nHeonBrGZ0A,赤牛,40.697943333333,141.153067777778,青森県上北郡七戸町字七戸１２６−１,,,,,0111001,定食、食堂,2,,False
36,20230112755,WnKd4uXoZhw,まこちゃん,40.697823888889,141.155806388889,青森県上北郡七戸町字寺裏１４−１,,,,,0106001,ラーメン,1,,False
37,20230203190,kZJVuPbNNXQ,食事処大吉,40.706225833333,141.157358888889,青森県上北郡七戸町字立野頭１−３,29388,七戸十和田,1772,22,0101018,うどん,,,False
38,20230112557,X1a3JgXPGwQ,中村旅館,40.696046388889,141.153015000000,青森県上北郡七戸町字七戸２３６,,,,,0304002,旅館,,,False
39,20230215798,QfKAccSHXok,はんぶまん,40.698298888889,141.155456388889,青森県上北郡七戸町字寺裏１８−３,,,,,0110001,和風居酒屋,,,False
40,20230112555,wLwAQZydyT6,ベーカリーあぜりあ,40.693899444444,141.150679166667,青森県上北郡七戸町字東上川原２０−７,,,,,0115002,喫茶店,,,False
41,20230116850,rcSa1hsCZLo,やきとり蓮,40.746715833333,141.158551388889,青森県上北郡七戸町字森ノ上２８５−１３,,,,,0101025,焼き鳥,,,False
42,20230112339,VXORSGT4MC-,有限会社興南商事,40.697288055556,141.159167222222,青森県上北郡七戸町字笊田川久保９０,,,,,0114001,持ち帰り専門、弁当,,,False
43,20230112194,xSu_rCUXlU6,盛田旅館,40.699135000000,141.158275555556,青森県上北郡七戸町字影津内３２−１,,,,,0304002,旅館,,,False
44,20230116872,aY-lTp6_7ZA,アカシア食堂,40.745838055556,141.156179444444,青森県上北郡七戸町字森ノ上２０７−１０,,,,,0111001,定食、食堂,,,False
45,20230112358,wTD8tjlrgxs,しょうらく,40.698540833333,141.163922500000,青森県上北郡七戸町字笊田川久保２７−２,,,,,0123002,ファストフード,,,False
46,20230112579,HICWd5p1bNQ,ういち,40.696288055556,141.152684444444,青森県上北郡七戸町字七戸２３７−２,,,,,0110001,和風居酒屋,,,False
47,20230116905,nXwKq-xDzXk,天楽,40.747688055556,141.158387500000,青森県上北郡七戸町字森ノ上２８５−１,,,,,0101012,握り寿司,,,False
48,20230228082,vj6RaPTtnjQ,かだる処　和,40.696460277778,141.156725833333,青森県上北郡七戸町字影津内１１４−４,,,,,0110001,和風居酒屋,,,False
0,100001223648,ynZelaS4A7E,星野リゾート青森屋,40.66129097154613,141.35582795143125,青森県三沢市古間木山56番地,20771,三沢(青森県),955,11,0304002,旅館,230,青い森鉄道／三沢（青森）駅 徒歩13分 (968m),False
1,100000328544,qUrFzLXcEtE,水無月,40.60433751,141.32784626,青森県上北郡六戸町犬落瀬字後田32-4,,,,,0111,定食、食堂,3,十和田観光電鉄／柳沢駅 徒歩55分 (4358m),False
2,100001098047,67P9p2r5aGk,麺屋 一代,40.642773797706,141.33288329084,青森県上北郡六戸町犬落瀬字柳沢90-648,20775,向山,3965,49,0106001,ラーメン,3,十和田観光電鉄／大曲（青森）駅 徒歩16分 (1271m),False
3,100000919470,9mIhZMkY0iY,のれそれ食堂ぬくもり亭,40.66130968493965,141.35578249927596,青森県三沢市古間木山50青森屋 西館1階,20771,三沢(青森県),952,11,0103001,バイキング,4,青い森鉄道／三沢（青森）駅 徒歩12分 (920m),False
4,100000328542,YsZxclFmUUU,ひまわり亭三沢通り店,40.63804461708304,141.27427518220907,青森県上北郡六戸町折茂字今熊248-278,,,,,0106001,ラーメン,3,青い森鉄道／小川原駅 徒歩106分 (8474m),False
5,100001245680,UxwN04_JbUA,とりぷる,40.607513702803026,141.32491817474363,青森県上北郡六戸町犬落瀬字後田55-1,,,,,0106001,ラーメン,5,十和田観光電鉄／柳沢駅 徒歩50分 (3961m),False
6,100001502102,P8es4ZFE5TA,ヨッテマレ酒場,40.66112120681953,141.35580361170878,青森県三沢市古間木山56 星野リゾート 青森屋 1F,20771,三沢(青森県),971,12,0110,居酒屋、ビアホール,1,青い森鉄道／三沢（青森）駅 徒歩12分 (941m),False
7,100001235377,MIunvwwcvY-,小向製菓,40.65630180857615,141.34440710544584,青森県上北郡六戸町犬落瀬柳沢91-643,20771,三沢(青森県),1847,23,0118,スイーツ,1,十和田観光電鉄／大曲（青森）駅 徒歩12分 (926m),False
8,6568,WGUpYfyYF2E,道の駅 ろくのへ,40.6064042,141.32472710000002,青森県上北郡六戸町大字犬落瀬字後田87,,,,,0307003,道の駅,8,,False
9,100000965987,nGj2_kjaIHg,だいこくどー,40.60970725772,141.28285221971,青森県上北郡六戸町折茂畑刈下63-36,,,,,0106001,ラーメン,4,十和田観光電鉄／古里（青森）駅 徒歩41分 (3234m),False
10,100000328545,P0Dr9gwcvY-,ニコケークス,40.65630481,141.34440657,青森県上北郡六戸町犬落瀬字柳沢91-643,20771,三沢(青森県),1847,23,0118001,洋菓子、ケーキ,2,十和田観光電鉄／大曲（青森）駅 徒歩12分 (927m),False
11,100000328539,wk_aaG2GOu2,焼肉たかし,40.6073844,141.32775169,青森県上北郡六戸町犬落瀬字前谷地4-1,,,,,0108001,焼肉,2,十和田観光電鉄／柳沢駅 徒歩51分 (4023m),False
12,100001403742,eSIhjQg9YWo,ツボカフェ,40.66244270893394,141.33712937532425,青森県上北郡六戸町小松ケ丘5-77,20771,三沢(青森県),2250,28,0115001,カフェ,,青い森鉄道／千曳駅 徒歩53分 (4193m),False
13,100001524162,com_RSeRioQ,白樺食堂,40.60475460793869,141.32652601196264,青森県上北郡六戸町犬落瀬字後田19-9,,,,,0111,定食、食堂,,青い森鉄道／向山駅 徒歩70分 (5593m),False
14,100001040982,PR6w0RNo2H2,みちのく祭りや,40.661270140419,141.35586972222995,青森県三沢市古間木山星野リゾート青森屋56,20771,三沢(青森県),959,11,0102,洋食,,青い森鉄道／三沢（青森）駅 徒歩12分 (926m),False
15,100001040362,bmA44-_EguY,ゲンコツラーメン,40.60655189018107,141.3018099006117,青森県上北郡六戸町折茂鳥喰谷地34-3,,,,,0106001,ラーメン,,青い森鉄道／向山駅 徒歩110分 (8751m),False
16,100000328557,i8ZFLZOEDRI,えいこ一品料理,40.60586784,141.32526585,青森県上北郡六戸町犬落瀬字後田51-1,,,,,0101003,割ぽう,,十和田観光電鉄／柳沢駅 徒歩52分 (4147m),False
17,20230114185,dV1FnnOGb_g,焼鳥そふらん,40.603704166667,141.324802222222,青森県上北郡六戸町大字犬落瀬字明土１−１７,,,,,0101025,焼き鳥,,,False
18,20230114217,TKRrmtI-S7w,旅館たなか,40.606106666667,141.325929722222,青森県上北郡六戸町大字犬落瀬字後田５２−５,,,,,0304002,旅館,,,False
0,100000800611,2JwNrr2A15M,道の駅よこはま,41.08372590183044,141.25654950554053,青森県上北郡横浜町林の脇79-12,20787,陸奥横浜,1056,13,0106001,ラーメン,51,JR大湊線(はまなすベイライン大湊線)／陸奥横浜駅 徒歩11分 (816m),False
1,100000328584,c8RYFIcya0E,頑固どうふ 湧水亭,41.02793976,141.24642375,青森県上北郡横浜町吹越97-1,20761,吹越,818,10,01,グルメ,5,JR大湊線(はまなすベイライン大湊線)／吹越駅 徒歩9分 (655m),False
2,100000328575,C6fcOYAVQbw,はまなすドライブイン,40.99607433,141.23238513,青森県上北郡横浜町横浜町字雲雀平1-30,20761,吹越,3483,43,0111,定食、食堂,1,JR大湊線(はまなすベイライン大湊線)／吹越駅 徒歩41分 (3283m),True
3,100001481391,g-V7gg5-7mE,檜屋,41.10272449946008,141.25310112975353,青森県上北郡横浜町茅平8-1,20787,陸奥横浜,2006,25,0101017,そば,2,JR大湊線(はまなすベイライン大湊線)／陸奥横浜駅 徒歩24分 (1873m),False
4,100000328567,1Qngw1ffSRk,まきば食堂,41.02845742685606,141.246929691996,青森県上北郡横浜町横浜町字吹越125-1,20761,吹越,874,10,0111,定食、食堂,2,JR大湊線(はまなすベイライン大湊線)／吹越駅 徒歩9分 (674m),False
5,3022218,s70JR4we_WQ,鮮菜,41.08366037,141.25715359,青森県上北郡横浜町 字林の脇79-12,20787,陸奥横浜,1115,13,0101,和食,,,False
6,100000328577,cNgVJf9fGIo,御食事処はまなす,41.0869493,141.2487764,青森県上北郡横浜町舘の後67,20787,陸奥横浜,55,0,0110,居酒屋、ビアホール,,JR大湊線(はまなすベイライン大湊線)／陸奥横浜駅 徒歩2分 (118m),True
7,20230115165,SBV451U8Pzg,やまじゅ,41.056189722222,141.250777500000,青森県上北郡横浜町字向平２０−１,,,,,0106001,ラーメン,1,,False
8,20230115053,eQCVbO_MbPM,道の駅よこはま　レストラン鮮菜,41.084021388889,141.255192500000,青森県上北郡横浜町字林ノ脇７９−１２,20787,陸奥横浜,911,11,0102004,洋食（その他）,1,,False
9,20230145492,U2oQFMtD9fo,サンシャイン,41.124298888889,141.259991666667,青森県上北郡横浜町字大豆田１２７,,,,,0307005,ドライブイン,,,False
10,20230114975,CPevl456hbA,まとい,41.082421388889,141.247620555556,青森県上北郡横浜町字寺下９,20787,陸奥横浜,547,6,0110001,和風居酒屋,,,False
11,20230115185,HXO-Znoph_o,ラグノオ横浜店,41.083293611111,141.246426111111,青森県上北郡横浜町字横浜７０,20787,陸奥横浜,543,6,0118001,洋菓子、ケーキ,,,False
12,20230115059,YlCQzu_MbPM,道の駅よこはま　事務室,41.084021388889,141.255192500000,青森県上北郡横浜町字林ノ脇７９−１２,20787,陸奥横浜,911,11,0102004,洋食（その他）,,,False
13,20230115163,com_RMqMEsE,白樺ラーメン,41.049490277778,141.250305555556,青森県上北郡横浜町字向平２４２−１,,,,,0106001,ラーメン,,,False
0,100000328604,ndtLzyNUiXU,味処たなか,40.779647995782625,141.21288383804608,青森県上北郡東北町上笹橋3-35,20653,乙供,61,0,0111,定食、食堂,2,青い森鉄道／乙供駅 徒歩1分 (37m),False
1,100000328616,LOSke6YJ8aw,OGA‐YA,40.72985898,141.2607956,青森県上北郡東北町上北南2-32-343,20661,上北町,584,7,0102001,ステーキ、ハンバーグ,4,青い森鉄道／上北町駅 徒歩7分 (565m),True
2,100001210369,MArXm_o7Wcc,ファーマレストラン ポロトピア,40.728303255502574,141.27480378150938,青森県上北郡東北町上野南谷地122番,20661,上北町,1184,14,0106001,ラーメン,9,青い森鉄道／上北町駅 徒歩16分 (1226m),False
3,100000328596,kHHvs7Bd1aE,富士・居食処,40.780977324003416,141.22383089999994,青森県上北郡東北町塔ノ沢山68-1,20653,乙供,1309,16,0111,定食、食堂,3,青い森鉄道／乙供駅 徒歩15分 (1203m),True
4,100001159757,mSlynOeRQu6,ファミリーレストラン町重,40.73087301,141.26849752,青森県上北郡東北町旭南1-31-469,20661,上北町,456,5,0123001,ファミレス,6,青い森鉄道／上北町駅 徒歩7分 (494m),True
5,100000328589,T9wrRcd1xRE,おがた,40.72833992,141.26838374,青森県上北郡東北町上北南2-31-355,20661,上北町,725,9,0101,和食,1,青い森鉄道／上北町駅 徒歩9分 (652m),True
6,100000328634,Jr7asMd1xRE,いざかや蔵楽,40.72833992,141.26838374,青森県上北郡東北町上北南2-31-355,20661,上北町,725,9,0110,居酒屋、ビアホール,,青い森鉄道／上北町駅 徒歩9分 (652m),False
7,100000328614,fM8SRtON3nU,焼肉食堂しるや,40.7802966,141.21360289,青森県上北郡東北町上笹橋27-10,20653,乙供,559,6,0106001,ラーメン,2,青い森鉄道／乙供駅 徒歩1分 (63m),False
8,100000328599,m1fa7GUSQT2,郷土料理蔵,40.77627484,141.21744206,青森県上北郡東北町塔ノ沢山94-1,20653,乙供,813,10,0101018,うどん,1,青い森鉄道／乙供駅 徒歩9分 (664m),False
9,100000328600,B9cSNr1z0RE,みちのくドライブイン,40.83507468,141.12909461,青森県上北郡東北町石坂66-3,20747,野辺地,2838,35,0111,定食、食堂,1,青い森鉄道／野辺地駅 徒歩31分 (2464m),False
10,100001151664,7hfcPSVfcYI,麺家だいち,40.72446769244,141.27758368242,青森県上北郡東北町大浦立野66-2,20661,上北町,1626,20,0106001,ラーメン,1,青い森鉄道／上北町駅 徒歩22分 (1705m),False
11,100000328585,yLCHJ63Dmoc,きんいち,40.72292131,141.2792134,青森県上北郡東北町大浦字立野24,20661,上北町,1881,23,0101,和食,1,青い森鉄道／上北町駅 徒歩25分 (1952m),True
12,100000328621,X9nOttBOKNg,中国料理とワインの店　春華飯店,40.72996162,141.2567238,青森県上北郡東北町上北北2-33-265,20661,上北町,850,10,0104001,中華料理,5,青い森鉄道／上北町駅 徒歩12分 (958m),True
13,100000328670,Qw8s1X-VAT6,遊山海居酒屋,40.73040077,141.26640331,青森県上北郡東北町上北南1-31-528,20661,上北町,435,5,0110,居酒屋、ビアホール,2,青い森鉄道／上北町駅 徒歩5分 (338m),False
14,100000328644,h9t0Yk7Ilzc,西遊記,40.77988554,141.2143807,青森県上北郡東北町上笹橋30-4,20653,乙供,491,6,0111,定食、食堂,2,青い森鉄道／乙供駅 徒歩2分 (157m),False
15,100000328602,PczZhSfe9-2,えび蔵,40.72722312,141.26016522,青森県上北郡東北町上北南4-32-542,20661,上北町,954,11,0110,居酒屋、ビアホール,1,青い森鉄道／上北町駅 徒歩11分 (822m),True
16,100000328629,0PvBZcd1xRE,あかね,40.72833992,141.26838374,青森県上北郡東北町上北南2-31-355,20661,上北町,725,9,0110,居酒屋、ビアホール,1,青い森鉄道／上北町駅 徒歩9分 (652m),False
17,100000328622,9RXWSKsnlh-,八甲ドライブイン,40.74149103,141.25798434,青森県上北郡東北町上野字北谷地39-186,20661,上北町,1455,18,0111,定食、食堂,1,青い森鉄道／上北町駅 徒歩16分 (1209m),False
18,100000328586,KbqCmFJSbbs,市川寿し,40.73284486,141.26294247,青森県上北郡東北町上北北1-34-125,20661,上北町,210,2,0101,和食,1,青い森鉄道／上北町駅 徒歩3分 (207m),False
19,100000328615,CyNwQqg_A12,わたべや上北店,40.7308531,141.25395183,青森県上北郡東北町上北北2-29-10,20661,上北町,1157,14,0111,定食、食堂,,青い森鉄道／上北町駅 徒歩16分 (1227m),False
20,100000328587,KTLvSPQdjYs,一楽寿司,40.73264214,141.26398404,青森県上北郡東北町上北北1-22-19,20661,上北町,84,1,0101,和食,,青い森鉄道／上北町駅 徒歩2分 (99m),False
21,6569,a49HmmHCzRs,道の駅 おがわら湖,40.7282907,141.2747031,青森県上北郡東北町大字上野字南谷地122,20661,上北町,1172,14,0307003,道の駅,1,,False
22,100001117819,Z0v_ZbuUYYM,徳,40.7298654,141.26738969999997,青森県上北郡東北町上北南1-31-280,20661,上北町,550,6,0110,居酒屋、ビアホール,,青い森鉄道／上北町駅 徒歩6分 (451m),False
23,100000328591,7_PVMAzs0h2,寿司康,40.729829,141.25863500000003,青森県上北郡東北町上北北2丁目-32,20661,上北町,639,7,0101,和食,,青い森鉄道／上北町駅 徒歩10分 (769m),False
24,100001250771,O08u2ToK1sg,炙りと日本酒 小福,40.728472451533115,141.26773867277996,青森県上北郡東北町上北南2-31-323,20661,上北町,702,8,0110,居酒屋、ビアホール,,青い森鉄道／上北町駅 徒歩8分 (596m),True
25,100000328618,oqGshypFZ8E,なみ木,40.73019806,141.2679226,青森県上北郡東北町上北南1-31-1064,20661,上北町,616,7,0101003,割ぽう,,青い森鉄道／上北町駅 徒歩6分 (465m),False
26,100000328633,yGdqiAe72Mg,居酒屋,40.73141991,141.26004283,青森県上北郡東北町上北北1-30-7,20661,上北町,499,6,0110,居酒屋、ビアホール,,青い森鉄道／上北町駅 徒歩7分 (556m),False
27,100000328635,uejR8loWVyE,居酒屋一心,40.72866489,141.26822541,青森県上北郡東北町上北南2-31-321,20661,上北町,674,8,0110,居酒屋、ビアホール,,青い森鉄道／上北町駅 徒歩8分 (613m),False
28,100000328625,rGS46il8nSM,大崎ストアー,40.77410286551123,141.28035172406612,青森県上北郡東北町往来ノ下40-6,,,,,0114001,持ち帰り専門、弁当,,青い森鉄道／上北町駅 徒歩61分 (4879m),False
29,100000328632,R2RL6_oAUWE,粋や,40.73023675,141.26155106,青森県上北郡東北町上北南2-30-89,20661,上北町,450,5,0110,居酒屋、ビアホール,,青い森鉄道／上北町駅 徒歩6分 (473m),False
30,100000328627,ZlSYLD6S8H2,和幸,40.72794271,141.26726998,青森県上北郡東北町上北南2-31-1265,20661,上北町,783,9,0101034,海鮮料理,,青い森鉄道／上北町駅 徒歩8分 (624m),True
31,100000328676,IsSGVd0VF-w,食事処季楽園,40.77856071,141.21698633,青森県上北郡東北町上笹橋21-18,20653,乙供,575,7,0102,洋食,,青い森鉄道／乙供駅 徒歩6分 (480m),False
32,100001020963,6yPjcPed_5I,香都屋,40.778874241409,141.21657327273,青森県上北郡東北町上笹橋21-2,20653,乙供,523,6,0115001,カフェ,,青い森鉄道／乙供駅 徒歩6分 (424m),False
33,100000328620,oDOzzH-VAT6,チャイニーズゲート神龍,40.72967864,141.26723103,青森県上北郡東北町上北南1-31-354,20661,上北町,530,6,0104001,中華料理,,青い森鉄道／上北町駅 徒歩6分 (456m),False
34,100000328607,nJZ2ZumMRUI,エクセンハウス,40.73161166,141.26327304,青森県上北郡東北町上北南2-24-25,20661,上北町,196,2,0111,定食、食堂,,青い森鉄道／上北町駅 徒歩3分 (229m),False
35,100001067287,9-KCkCNHnrI,やきとりしらはま,40.728757559067,141.26743281947,青森県上北郡東北町上北南2-31-257,20661,上北町,711,8,0101025,焼き鳥,,青い森鉄道／上北町駅 徒歩7分 (554m),False
36,100000328605,_nj-kSYU4Vk,味美,40.7284646,141.25838758,青森県上北郡東北町上北南3-32-164,20661,上北町,883,11,0106001,ラーメン,,青い森鉄道／上北町駅 徒歩11分 (871m),False
37,100000328588,aOV48p7WjQ2,いろは寿司,40.77875234,141.21544745,青森県上北郡東北町上笹橋21-75,20653,乙供,403,5,0101,和食,,青い森鉄道／乙供駅 徒歩4分 (319m),False
38,100000328611,NK1rHAKtlqY,高田屋食堂,40.72865342,141.25688495,青森県上北郡東北町上北南4-32-310,20661,上北町,843,10,0111,定食、食堂,,青い森鉄道／上北町駅 徒歩13分 (1002m),False
39,100000328593,Ao7RmZuJY6I,福寿し,40.73049494,141.25796531,青森県上北郡東北町上北北2-33-69,20661,上北町,707,8,0101,和食,,青い森鉄道／上北町駅 徒歩11分 (808m),False
40,100000328656,Ju3v2GB6OFE,とと菜,40.7293009,141.26728104,青森県上北郡東北町上北南2-31-1278,20661,上北町,571,7,0110,居酒屋、ビアホール,,青い森鉄道／上北町駅 徒歩7分 (494m),False
41,100000328590,YU9K5ya7KCg,想い出寿司,40.77884118,141.21321692,青森県上北郡東北町上笹橋3-19,20653,乙供,159,1,0101,和食,,青い森鉄道／乙供駅 徒歩2分 (166m),False
42,100000328598,3i39PMJW4NQ,やきとりみなみ,40.73119788,141.26550893,青森県上北郡東北町上北南1-31-520,20661,上北町,345,4,0101025,焼き鳥,,青い森鉄道／上北町駅 徒歩3分 (214m),False
43,100000328601,4oyKz5ggyzY,パンジー,40.72649815,141.25862375,青森県上北郡東北町上野字新堤向75-6,20661,上北町,1072,13,0101029,お好み焼き、たこ焼き,,青い森鉄道／上北町駅 徒歩13分 (995m),False
44,100001082552,_2aBsN2SNAI,王将,40.776301560622,141.21403106044,青森県上北郡東北町下笹橋21-34,20653,乙供,505,6,0110,居酒屋、ビアホール,,青い森鉄道／乙供駅 徒歩6分 (460m),False
45,194558462308999169,ccztVYso9FQ,R.,40.729279,141.267441,青森県上北郡東北町上北南2丁目 31-1280 プラザミナミA号,20661,上北町,575,7,0119001,バー,,,True
46,20230116256,wZ_NCFZ4JUw,伊賀食堂,40.777438611111,141.214072500000,青森県上北郡東北町字下笹橋２１,20653,乙供,411,4,0111001,定食、食堂,1,,False
47,20230115588,srn77CP3IL2,フランセ大湊屋,40.730170000000,141.259484722222,青森県上北郡東北町上北北２丁目３２−５８６,20661,上北町,553,6,0118001,洋菓子、ケーキ,,,False
48,20230115371,SopZqktfOjU,ぎんなん寮喫茶ハンズ,40.694757500000,141.268849166667,青森県上北郡東北町大字大浦字南平１０−１,,,,,0115002,喫茶店,,,False
49,20230115947,K3JAS_5hmFI,蛯重会館,40.731811944444,141.271733333333,青森県上北郡東北町旭南２丁目４５６−２,20661,上北町,782,9,0114003,仕出し料理,,,False
50,20230115754,vwYtcLZ9TRA,バー舞,40.729248055556,141.266731111111,青森県上北郡東北町上北南２丁目３１−１０６０,20661,上北町,577,7,0119001,バー,,,False
51,20230116162,g4jCoo6eqlY,味処たなか,40.779621666667,141.212825277778,青森県上北郡東北町字上笹橋３−３５,20653,乙供,77,0,0111001,定食、食堂,,,False
52,20230217356,XUyj-V0zTrA,穂寿美寿司・仕出し店,40.732431111111,141.264383888889,青森県上北郡東北町上北南１丁目２２−９,20661,上北町,67,0,0101012,握り寿司,,,False
53,20230217808,rK56urKMeZ-,味処真徳,40.729325555556,141.260331666667,青森県上北郡東北町上北南３丁目３２−１８０,20661,上北町,682,8,0110001,和風居酒屋,,,False
54,20230227675,Xul7ND2gBAk,食事処のり坊,40.731339444444,141.259906666667,青森県上北郡東北町上北北１丁目３４−２８５,20661,上北町,512,6,0111001,定食、食堂,,,False
55,20230147364,_NVUy-3lY4g,リンゴ,40.722921388889,141.279213333333,青森県上北郡東北町大字大浦字立野２４,20661,上北町,1881,23,0115002,喫茶店,,,False
