,id,gid,name,latitude,longitude,address,satation_id,station_name,station_distance,station_time,genre_code,genre_name,review_count,access,paypay_flg
0,100000030848,EOhT1Mr6ONM,–΅‚ΜD–y ‘εΌ,40.824772,140.73677999999995,ΒX§ΒXsΓμ1-15-6 Γμƒp[ƒNƒrƒ‹ 1F,20619,ΒX,664,8,0106001,ƒ‰[ƒƒ“,45,Β‚ΆX“S“Ή^ΒX‰w “k•ΰ7• (488m),True
1,100000448610,Dz9vkstkayQ,’ί‹T‰®H“°,40.894331,140.861082,ΒX§ΒXsσ’u’J293-14,20622,σ’‰·ς,419,5,0111,’θHAH“°,40,Β‚ΆX“S“Ή^σ’‰·ς‰w “k•ΰ5• (393m),False
2,100000453232,PGe3Q-DvgZc,H– ‚¨‚³‚Θ‚Ά,40.827977927921225,140.7359803113336,ΒX§ΒXsV’¬1-1-17,20619,ΒX,247,3,0111,’θHAH“°,31,Β‚ΆX“S“Ή^ΒX‰w “k•ΰ3• (173m),True
3,100000453233,AxBARMqiCvM,‹i’ƒ ƒ}ƒƒ“,40.827134338629406,140.74151833466442,ΒX§ΒXsΐ•ϋ2-6-7,20619,ΒX,752,9,0107001,ƒJƒ[,29,Β‚ΆX“S“Ή^ΒX‰w “k•ΰ10• (780m),False
4,100000874704,39KxnRWtW9w,Cξt,40.8897566104452,140.86144458279887,ΒX§ΒXsσ’u’J31,20622,σ’‰·ς,170,2,0101034,C‘N—Ώ—,67,Β‚ΆX“S“Ή^σ’‰·ς‰w “k•ΰ2• (160m),True
5,100000068956,fK2v8-0mXR2,’·”φ’†‰Ψ‚»‚Ξ@ΌƒoƒCƒpƒX–{“X,40.832623,140.70163200000002,ΒX§ΒXsOD2-3-5 ƒK[ƒ‰ƒ^ƒEƒ““ΰ,20698,VΒX,1186,14,0106001,ƒ‰[ƒƒ“,26,JR‰‰H–{ό(V―`ΒX)^VΒX‰w “k•ΰ14• (1072m),False
6,100000237283,XeJoCK5yMHw,κ”υ‚µ,40.82733841864841,140.7396360058284,ΒX§ΒXsV’¬1-10-11,20619,ΒX,514,6,0101,aH,25,Β‚ΆX“S“Ή^ΒX‰w “k•ΰ8• (574m),False
7,100000752795,yfSVG9PEods,‚Π‚η‚±‰®,40.8328021,140.66947529999993,ΒX§ΒXsVιR“c588-16,20718,’ΓyVι,708,8,0106001,ƒ‰[ƒƒ“,23,JR‰‰H–{ό(V―`ΒX)^’ΓyVι‰w “k•ΰ8• (601m),False
8,100000838737,Rl4Wh6ExBek,‚ά‚ι‚©‚Άƒ‰[ƒƒ“,40.82857233976833,140.74085905459629,ΒX§ΒXsΐ•ϋ2-2-16,20619,ΒX,646,8,0106001,ƒ‰[ƒƒ“,22,Β‚ΆX“S“Ή^ΒX‰w “k•ΰ9• (687m),False
9,100000012705,as3cj7Rk6_A,–΅‚ΜD–y •“X σ—,40.827425049581,140.73862105607998,ΒX§ΒXsV’¬1-11-23 ¬—Ρ‘ζ“ρƒrƒ‹ 1F,20619,ΒX,446,5,0106001,ƒ‰[ƒƒ“,22,Β‚ΆX“S“Ή^ΒX‰w “k•ΰ6• (453m),False
10,100000735681,D6AZxdG7UbY,CH’ΰ ‚ή‚Β‚ν‚ρ,40.807857,140.73643400000003,ΒX§ΒXs‘ε–μR‰Ί146-40,20619,ΒX,2597,32,0101034,C‘N—Ώ—,22,Β‚ΆX“S“Ή^ΒX‰w “k•ΰ29• (2318m),True
11,100000849130,pnSkZZ7FOT-,‚ ‚³—,40.8245249,140.7664271,ΒX§ΒXs‰h’¬1-6-8,20752,“ΒX,2332,29,0106001,ƒ‰[ƒƒ“,22,Β‚ΆX“S“Ή^“ΒX‰w “k•ΰ30• (2345m),False
12,100000832966,ki2es94JSmE,o‚µ‰®άδ¬,40.801816784187416,140.7474692490738,ΒX§ΒXs•l“c1-10-15,29725,“›δ(ΒX§),2560,32,0106001,ƒ‰[ƒƒ“,22,Β‚ΆX“S“Ή^“›δiΒXj‰w “k•ΰ33• (2590m),True
13,100001416756,ZXzZ-VrH086,’†‰Ψ‚»‚Ξ ‚Π‚η‚±‰® ‚Ϊ‚µ,40.8055287537545,140.74115214509789,ΒX§ΒXsΒ—t1-5-35,20619,ΒX,2952,36,0106001,ƒ‰[ƒƒ“,21,Β‚ΆX“S“Ή^ΒX‰w “k•ΰ34• (2686m),True
14,100000924221,0JJvywGO3C6,’Γy‚¶‚ε‚Α‚Ο‚θ‹™‰®πκ,40.82571223664215,140.74672998062385,ΒX§ΒXs–{’¬2-5-14,20619,ΒX,1213,15,0110,‹π‰®AƒrƒAƒz[ƒ‹,20,Β‚ΆX“S“Ή^ΒX‰w “k•ΰ18• (1371m),False
15,100000746176,lJcJ4za-2Do,πζ{ OƒbΞ,40.8270686,140.74195940000004,ΒX§ΒXsΐ•ϋ2-7-36 ƒƒCƒ„ƒ‹‘P’m’Ήƒrƒ‹ 2F,20619,ΒX,765,9,0101034,C‘N—Ώ—,20,Β‚ΆX“S“Ή^ΒX‰w “k•ΰ11• (821m),True
16,100001344219,aMHnmSx2ukQ,’·”φ’†‰Ψ‚»‚Ξ ΒX‰w‘O“X,40.82734264,140.73393193,ΒX§ΒXs–φμ1-2-3 ΒX‰wƒrƒ‹¥ƒ‰ƒrƒiP1F,20619,ΒX,187,2,0106001,ƒ‰[ƒƒ“,20,Β‚ΆX“S“Ή^ΒX‰w “k•ΰ3• (217m),False
17,100000700947,K9WB1jXD0J-,‚·‚µ‹π‰®’M,40.8268084435217,140.739673804894,ΒX§ΒXsV’¬1-11-13,20619,ΒX,600,7,0101,aH,19,Β‚ΆX“S“Ή^ΒX‰w “k•ΰ8• (585m),False
18,100000762215,kTLNMQtoxAQ,C–V~,40.8257106569604,140.73678588161465,ΒX§ΒXsΓμ1-13-12,20619,ΒX,493,6,0101034,C‘N—Ώ—,19,Β‚ΆX“S“Ή^ΒX‰w “k•ΰ5• (399m),True
19,100000050605,EMcjr0BWBvA,Z•Ί‰q,40.8254742,140.73793739999996,ΒX§ΒXsΓμ1-17-2,20619,ΒX,586,7,0110,‹π‰®AƒrƒAƒz[ƒ‹,18,Β‚ΆX“S“Ή^ΒX‰w “k•ΰ7• (502m),False
20,100000710755,kseUEWFsUjU,ƒVƒ…ƒgƒ‰ƒEƒX,40.82655211183157,140.73884337301638,ΒX§ΒXsV’¬1-13-21,20619,ΒX,540,6,0118,ƒXƒC[ƒc,18,Β‚ΆX“S“Ή^ΒX‰w “k•ΰ7• (513m),True
21,100000739207,3WcPcVNEk6o,–Λ‚β ƒ[ƒbƒgƒ“,40.80582526804189,140.74822943527613,ΒX§ΒXs—Ξ2-7-19,29725,“›δ(ΒX§),2227,27,0106001,ƒ‰[ƒƒ“,17,Β‚ΆX“S“Ή^“›δiΒXj‰w “k•ΰ31• (2472m),False
22,100000799642,ZCDEGaXVsi6,•l—Ώ—Eπζ ‚³‚Ζ‚β,40.825225329352115,140.75128464434624,ΒX§ΒXs‹΄–{1-1-6 ƒ[ƒXƒgƒ‰ƒNƒ`ƒƒ[1F,20619,ΒX,1638,20,0110,‹π‰®AƒrƒAƒz[ƒ‹,18,Β‚ΆX“S“Ή^ΒX‰w “k•ΰ24• (1876m),True
23,100000940360,T0O_QqXVsi6,ζƒ_ƒCƒjƒ“ƒO S,40.827301813539,140.75233010896,ΒX§ΒXs–{’¬5-7-21 –{’¬VILLA 1F,20619,ΒX,1607,20,0119004,ƒ_ƒCƒjƒ“ƒOƒo[,16,Β‚ΆX“S“Ή^ΒX‰w “k•ΰ25• (1959m),True
24,100000922812,R4fX-fR6qTA,–Λ‰®‚η‚Ά‚Ό‚¤,40.818137041933,140.79120576382002,ΒX§ΒXs¬–φ5-19-5,20681,¬–φ(ΒX§),770,9,0106001,ƒ‰[ƒƒ“,16,Β‚ΆX“S“Ή^¬–φiΒXj‰w “k•ΰ10• (771m),False
25,100001162769,40pIqqVDtHo,¬‹Π’ΰ “ƒoƒCƒpƒX“X,40.83024973,140.81495822,ΒX§ΒXs•½V“cX‰z11-8,20790,–ξ“c‘O,897,11,0101017,‚»‚Ξ,16,Β‚ΆX“S“Ή^–ξ“c‘O‰w “k•ΰ12• (917m),True
26,100000920591,jMwZGP9TZ0s,‚·‚µO ,40.82738565173977,140.7358315156555,ΒX§ΒXsV’¬1-3-7 ƒtƒFƒXƒeƒBƒoƒ‹ƒVƒeƒB ƒAƒEƒK B1F,20619,ΒX,304,3,0101,aH,16,Β‚ΆX“S“Ή^ΒX‰w “k•ΰ3• (224m),False
27,100000450708,X_eNNXE5opA,’ΓyC‹¬‘N‹›“X,40.82561,140.74993599999993,ΒX§ΒXs–{’¬2-11-12,20619,ΒX,1491,18,0110,‹π‰®AƒrƒAƒz[ƒ‹,15,Β‚ΆX“S“Ή^ΒX‰w “k•ΰ22• (1721m),False
28,100000799656,2iBDQRC7Hvw,’|—Ρ–V,40.82570954777671,140.7512792519326,ΒX§ΒXs–{’¬5-4-17,20619,ΒX,1613,20,0112001,‘nμ—Ώ—,16,Β‚ΆX“S“Ή^ΒX‰w “k•ΰ24• (1865m),True
29,100000919810,XdlxzkGmGVQ,δ—Ώ— ‚Ν‚½‘P,40.82646189535581,140.74445780652968,ΒX§ΒXsΐ•ϋ2-17-15,20619,ΒX,1001,12,0101034,C‘N—Ώ—,14,Β‚ΆX“S“Ή^ΒX‰w “k•ΰ14• (1116m),True
30,100001167450,rRnD5gridK6,aH‚β ‚¶‚ρ‚·‚―,40.825442556284,140.74483366625452,ΒX§ΒXsV’¬2-8-5,20619,ΒX,1055,13,0110,‹π‰®AƒrƒAƒz[ƒ‹,15,Β‚ΆX“S“Ή^ΒX‰w “k•ΰ15• (1188m),True
31,100000799645,vh8dlg7p02E,ι‚¶‚ά,40.82619578644161,140.7524606573155,ΒX§ΒXs–{’¬5-5-2,20619,ΒX,1679,20,0110,‹π‰®AƒrƒAƒz[ƒ‹,15,Β‚ΆX“S“Ή^ΒX‰w “k•ΰ25• (1986m),True
32,100000818118,OfPowtYkNLQ,––Aƒ‰[ƒƒ“–{•ά ΒX–{’¬“X,40.8257284470049,140.74591943098994,ΒX§ΒXs–{’¬2-4-9•“Ώ‘ζκƒrƒ‹1A,20619,ΒX,1139,14,0106001,ƒ‰[ƒƒ“,15,Β‚ΆX“S“Ή^ΒX‰w “k•ΰ16• (1283m),False
33,100000718777,HxjlPlITbyc,‘ΎΙ‚η‚¤‚ί‚ρ‚Ζ’Γy‚Μ‚ί‚µ‚βE‚ί‚¥,40.828348,140.693489,ΒX§ΒXsΞ]‚Τ140-2,20698,VΒX,59,0,0106001,ƒ‰[ƒƒ“,14,JR‰‰H–{ό(V―`ΒX)^VΒX‰w “k•ΰ2• (95m),False
34,100000699480,6fe_Y1y5szA,ΒX‘ε¬,40.828196285431,140.76831579208,ΒX§ΒXs’ƒ‰®’¬32-15,20752,“ΒX,2514,31,0106001,ƒ‰[ƒƒ“,14,Β‚ΆX“S“Ή^“ΒX‰w “k•ΰ32• (2501m),False
35,100000787988,-SsGc7FCjLo,“υi,40.82531,140.75105699999995,ΒX§ΒXs‹΄–{1-1-7ƒAƒ‹ƒtƒ@ƒzƒeƒ‹ΒX 1F,20619,ΒX,1588,19,0101,aH,14,Β‚ΆX“S“Ή^ΒX‰w “k•ΰ24• (1849m),True
36,100000852006,czkbw49ChGg,κ‚Α•,40.824246981292106,140.74580992453684,ΒX§ΒXs–{’¬1-1-25,20619,ΒX,1257,15,0101034,C‘N—Ώ—,14,Β‚ΆX“S“Ή^ΒX‰w “k•ΰ22• (1706m),True
37,100001203100,5F-hWTZ4hns,‚»‚Ξ ³—’,40.82654911797924,140.73478755339033,ΒX§ΒXsΓμ1-2-1,20619,ΒX,291,3,0101017,‚»‚Ξ,13,Β‚ΆX“S“Ή^ΒX‰w “k•ΰ4• (261m),True
38,100000832136,Fq9no3LUWwc,‹›κ‰ο,40.8252496,140.748609,ΒX§ΒXs–{’¬1-5-6,20619,ΒX,1388,17,0110,‹π‰®AƒrƒAƒz[ƒ‹,13,Β‚ΆX“S“Ή^ΒX‰w “k•ΰ20• (1586m),True
39,100000027147,8hI0kwee8fY,υiκ,40.82835999999998,140.75202267055226,ΒX§ΒXs–{’¬4-4-15,20619,ΒX,1621,20,0101,aH,13,Β‚ΆX“S“Ή^ΒX‰w “k•ΰ24• (1919m),False
40,100000994694,4KPirbvLmGk,Ξ‚Ζζ ’n—‹–η,40.825686019195,140.74679711133,ΒX§ΒXs–{’¬2-5-14 2F,20619,ΒX,1216,15,0110,‹π‰®AƒrƒAƒz[ƒ‹,13,Β‚ΆX“S“Ή^ΒX‰w “k•ΰ18• (1379m),True
41,100001176074,pQEHlV-mr0k,ƒƒXƒgƒ‰ƒ“ƒeƒ{[ƒm,40.828433334408395,140.7414594792648,ΒX§ΒXsΐ•ϋ2-2-12ƒp[ƒNƒnƒCƒcΐ•ϋ2,20619,ΒX,694,8,0102006,ƒCƒ^ƒƒA—Ώ—iƒCƒ^ƒƒAƒ“j,12,Β‚ΆX“S“Ή^ΒX‰w “k•ΰ10• (747m),True
42,100001254232,LwxuMKDCznk,©‰Ζ»–ΛΔ‚«‚»‚Ξ‰®‚µ‚ε‚¤‘Ύ,40.80037433683444,140.7316560423278,ΒX§ΒXs‘ε–μ‘O“c68-134,20619,ΒX,3593,44,01,ƒOƒ‹ƒ,12,Β‚ΆX“S“Ή^ΒX‰w “k•ΰ40• (3179m),True
43,100000321824,Co8Pzfmk43E,—m‚β,40.82636525,140.7512199,ΒX§ΒXs–{’¬5-3-17,20619,ΒX,1580,19,0101025,Δ‚«’Ή,12,Β‚ΆX“S“Ή^ΒX‰w “k•ΰ23• (1847m),False
44,100000883876,OL_Q26V3s5E,’Y‰ΞΔ“χ ‚Ύ‚Ά‚¶‚γ‚ρ,40.8235258263337,140.75967066577482,ΒX§ΒXs’η’¬2-22-32,20619,ΒX,2521,31,0108001,Δ“χ,12,Β‚ΆX“S“Ή^“›δiΒXj‰w “k•ΰ30• (2328m),False
45,100001433588,E2SntT2t6w6,’Y‰Ξ‹ψΔ‚« \μ,40.82589919999999,140.73810130000004,ΒX§ΒXsV’¬1-12-8,20619,ΒX,584,7,0101025,Δ‚«’Ή,11,Β‚ΆX“S“Ή^ΒX‰w “k•ΰ7• (501m),True
46,100000790078,Aw8TSA0eY2Q,‚δ‚¤‚¬‚θ,40.827014,140.73683400000004,ΒX§ΒXsV’¬1-8-23,20619,ΒX,405,5,0101034,C‘N—Ώ—,13,Β‚ΆX“S“Ή^ΒX‰w “k•ΰ4• (296m),False
47,100001175395,9XvurKX0buE,‚«‚½‘q,40.828436605742446,140.75574332925248,ΒX§ΒXsΒ–φ1-7-29,20619,ΒX,1914,23,0106001,ƒ‰[ƒƒ“,11,Β‚ΆX“S“Ή^ΒX‰w “k•ΰ30• (2332m),True
48,100000320787,BoouWy9DPiY,‹π‰®•ΩcΒX‰w‘O“X,40.82728713,140.73659568,ΒX§ΒXsV’¬1-8-1,20619,ΒX,341,4,0110,‹π‰®AƒrƒAƒz[ƒ‹,11,Β‚ΆX“S“Ή^ΒX‰w “k•ΰ4• (257m),True
49,100001281585,2qDzVgzRk86,‹½“y„–B‚©‚ν‚Ξ‚½,40.8265964,140.74116500000002,ΒX§ΒXsV’¬2-1-11,20619,ΒX,703,8,0101003,„‚Ϋ‚¤,13,Β‚ΆX“S“Ή^ΒX‰w “k•ΰ10• (761m),False
50,100001302406,WHrlDPOMckI,‚η[‚ί‚ρ »¬‰®,40.827088,140.73982060000003,ΒX§ΒXsV’¬1-11-9 2F,20619,ΒX,559,6,0106001,ƒ‰[ƒƒ“,11,Β‚ΆX“S“Ή^ΒX‰w “k•ΰ8• (602m),True
51,100001186265,FDooboZcP8A,‰¤–΅,40.82468227,140.75999165,ΒX§ΒXs’η’¬1-10-8,20619,ΒX,2445,30,0106001,ƒ‰[ƒƒ“,18,Β‚ΆX“S“Ή^ΒX‰w “k•ΰ36• (2845m),False
52,100000827362,240nPcZ6wZg,™‘  ‚Μ‚η‚­‚λ,40.827586602514614,140.74005402624607,ΒX§ΒXsΐ•ϋ1-11-9,20619,ΒX,584,7,0110,‹π‰®AƒrƒAƒz[ƒ‹,13,Β‚ΆX“S“Ή^ΒX‰w “k•ΰ8• (612m),False
53,100000991501,7sj8h5qU4pI,ΒX”Ώ—§¬‰®,40.829127691838,140.73551518704994,ΒX§ΒXsΐ•ϋΒXƒrƒ‹ 1F1-3-2,20619,ΒX,99,1,0101034,C‘N—Ώ—,11,Β‚ΆX“S“Ή^ΒX‰w “k•ΰ2• (100m),True
54,100000818014,sGyjYahsrEo,‹π‰®‚Σ‚­Y,40.8280372631302,140.739988983878,ΒX§ΒXsΐ•ϋ1-10-12,20619,ΒX,535,6,0110,‹π‰®AƒrƒAƒz[ƒ‹,12,Β‚ΆX“S“Ή^ΒX‰w “k•ΰ8• (587m),False
55,100000883099,bY3XR7f087c,‚Θ‚έ‚¨‚©‚¤‚Η‚ρ,40.806782768058795,140.73999258513027,ΒX§ΒXs‘ε–μα‹{183-2,20619,ΒX,2737,34,0101018,‚¤‚Η‚ρ,11,Β‚ΆX“S“Ή^ΒX‰w “k•ΰ32• (2498m),False
56,100001251659,rnj7cqCrZlY,{ζ ‚Π‚Ε‚©,40.82623637769836,140.73625162474937,ΒX§ΒXsV’¬1-5-8,20619,ΒX,423,5,0101034,C‘N—Ώ—,11,Β‚ΆX“S“Ή^ΒX‰w “k•ΰ4• (318m),True
57,100000847541,IsA6b-KrFL-,‚·‚Έ‚ί,40.824593598931,140.75054960215994,ΒX§ΒXs‹΄–{κ’–Ϊ2-11,20619,ΒX,1615,20,0101,aH,9,Β‚ΆX“S“Ή^ΒX‰w “k•ΰ23• (1812m),True
58,100000050973,45YXhoaSApM,Γμsκ ‚Μ‚Α‚―¥ ΒX‹›ΨƒZƒ“ƒ^[–{“X,40.825871,140.735949,ΒX§ΒXsΓμ1-11-16 uΒX‹›ΨƒZƒ“ƒ^[–{“Xv“ΰ,20619,ΒX,438,5,0101034,C‘N—Ώ—,10,Β‚ΆX“S“Ή^ΒX‰w “k•ΰ5• (338m),True
59,100000726606,3oxYjTLhhwE,•ZΒX‰w‘OƒAƒEƒK—Χ“X,40.8270136131357,140.73644594171617,ΒX§ΒXsV’¬1-6-25,20619,ΒX,376,4,0110,‹π‰®AƒrƒAƒz[ƒ‹,10,Β‚ΆX“S“Ή^ΒX‰w “k•ΰ4• (282m),False
60,100001319449,R553CERhB7Y,–Λ‰®‚Ζ‚λ‚ΰ,40.7948070509143,140.7576159638237,ΒX§ΒXs‘ζ“ρ–β‰®’¬2-1-23,29725,“›δ(ΒX§),1992,24,0106001,ƒ‰[ƒƒ“,10,Β‚ΆX“S“Ή^“›δiΒXj‰w “k•ΰ24• (1865m),False
61,100000004423,aBu6HO0XrEA,‹›‚Α‹ς‚Ά‚Μ“c,40.8274659102199,140.69363264698802,ΒX§ΒXsΞ]‚‰140-2 ‚ ‚¨‚ΰ‚θ{–΅Ω 1F,20698,VΒX,21,0,0101034,C‘N—Ώ—,10,JR‰‰H–{ό(V―`ΒX)^VΒX‰w “k•ΰ1• (21m),False
62,100000612311,ZZJyo76JrH2,ƒ}ƒ‹ƒ~EƒTƒ“ƒ‰ƒCƒYH“°,40.70583965214958,140.58018804349513,ΒX§ΒXsQ‰—­‘ςΌν–{13-1,20740,Q‰,753,9,0111,’θHAH“°,10,JR‰‰H–{ό(V―`ΒX)^Q‰‰w “k•ΰ7• (488m),False
63,100001254560,X83Vw5YGSjM,‚ ‚Τ‚θ“V¥ “V‚¶‚γ‚ρ,40.8289216,140.73582769999996,ΒX§ΒXsΐ•ϋ1-3 κ“ρOƒrƒ‹,20619,ΒX,128,1,0101014,“V‚Υ‚ηA—g‚°•¨,10,Β‚ΆX“S“Ή^ΒX‰w “k•ΰ2• (124m),True
64,100000832362,YW1WD2DylHM,‹½“y—Ώ— ’ΓyO–΅ό ‚θ‚ρ‚²” ,40.8272889395032,140.73599272844353,ΒX§ΒXsV’¬1-3-7 ƒAƒEƒKB1F,20619,ΒX,387,4,0101034,C‘N—Ώ—,10,Β‚ΆX“S“Ή^ΒX‰w “k•ΰ3• (207m),True
65,100000321680,Dwa0t7UWaoE,‘ ”,40.8182703150941,140.7099573435686,ΒX§ΒXs—Ά©1-14-1,20698,VΒX,2055,25,0110,‹π‰®AƒrƒAƒz[ƒ‹,15,JR‰‰H–{ό(V―`ΒX)^VΒX‰w “k•ΰ26• (2054m),False
66,100001286473,CMaKZxK736E,‹π‰® ’n³‰Ζ ΒX“X,40.8259275,140.74831470000004,ΒX§ΒXs–{’¬2-6-4 ƒtƒFƒjƒbƒNƒXƒrƒ‹ 105,20619,ΒX,1340,16,0110,‹π‰®AƒrƒAƒz[ƒ‹,10,Β‚ΆX“S“Ή^ΒX‰w “k•ΰ20• (1547m),False
67,100001019148,euuDnCTLWb-,‚ ‚Ύ‚Ώ,40.82390788685842,140.7457909472107,ΒX§ΒXs–{’¬1-1-34,20619,ΒX,1312,16,0110,‹π‰®AƒrƒAƒz[ƒ‹,10,,True
68,100001175585,ij6eTYBbTQE,¬‚³‚Θπκ‚Ω‚ρ‚Μ‚θ,40.82645015747009,140.7459672883433,ΒX§ΒXs–{’¬2-2-14 –{’¬Ω1F,20619,ΒX,1102,13,0110,‹π‰®AƒrƒAƒz[ƒ‹,10,Β‚ΆX“S“Ή^ΒX‰w “k•ΰ16• (1280m),True
69,100001160095,iZzZsuJ3Acc,‰V μ‚ζ‚µ,40.828587,140.74655000000007,ΒX§ΒXs–{’¬3-2-4,20619,ΒX,1170,14,0101023,‚¤‚Θ‚¬,10,Β‚ΆX“S“Ή^ΒX‰w “k•ΰ17• (1311m),False
70,100001316554,LrhRs3zyzwI,‚¤‚Α‚©‚θ‹π‰® •l,40.82513375188752,140.75156946502966,ΒX§ΒXs‹΄–{1-6-13 KS7†Ω1F2†,20619,ΒX,1652,20,0110,‹π‰®AƒrƒAƒz[ƒ‹,10,Β‚ΆX“S“Ή^ΒX‰w “k•ΰ24• (1918m),False
71,100001250770,IWUKCZHg8gA,ζƒ_ƒCƒjƒ“ƒO ƒoƒ‹COCO,40.82591278521231,140.7482992772982,ΒX§ΒXs–{’¬2-6-4 ƒtƒFƒjƒbƒNƒXƒrƒ‹ 1F,20619,ΒX,1341,16,0119004,ƒ_ƒCƒjƒ“ƒOƒo[,10,Β‚ΆX“S“Ή^ΒX‰w “k•ΰ20• (1545m),True
72,100001144124,nVkL8hpBtHk,ι½ ‚ ‚·‚© V’¬“X,40.827314799505,140.73874181165,ΒX§ΒXsV’¬ƒAƒ‰ƒXƒJ‰οΩ 1F1-11-22,20619,ΒX,469,5,0101,aH,10,Β‚ΆX“S“Ή^ΒX‰w “k•ΰ6• (469m),True
73,100000755584,c7RLB95I2-o,π‘  ^•—,40.8259356,140.74808959999996,ΒX§ΒXs–{’¬2-6-3 ƒuƒ‰ƒbƒNƒrƒ‹ƒAƒlƒbƒNƒX 1F,20619,ΒX,1321,16,0101025,Δ‚«’Ή,10,Β‚ΆX“S“Ή^ΒX‰w “k•ΰ19• (1513m),False
74,100001042428,4j4k1LC4EEQ,ƒvƒ`ƒƒXƒgƒ‰ƒ“ ƒu[ƒPEƒhEƒtƒ‰ƒ“ƒX,40.811529678877,140.79347491465,ΒX§ΒXs“ψƒP‹u1-10-7,20681,¬–φ(ΒX§),1173,14,0102005,ƒtƒ‰ƒ“ƒX—Ώ—iƒtƒƒ“ƒ`j,9,Β‚ΆX“S“Ή^¬–φiΒXj‰w “k•ΰ12• (906m),True
75,100001437069,Lr-XTWZcRZ6,_ƒ–“’‰·ς—·Ω –{Ω2KH“°,40.65015420807521,140.85068444812157,ΒX§ΒXsrμ“μrμR‘—L—Ρ_ƒP“’‘ς59,,,,,0101011,“ϊ–{—Ώ—,8,,False
76,100000320738,WdR9KQTY4xM,’Y‰ΞΔ~°,40.82739834,140.74423694,ΒX§ΒXsΐ•ϋ2-10-8 ƒ\ƒVƒAƒ‹3”ΤΩ1F,20619,ΒX,937,11,0101025,Δ‚«’Ή,8,Β‚ΆX“S“Ή^ΒX‰w “k•ΰ14• (1064m),False
77,100001296324,UlG3uFRVbp2,F&#39;s table,40.8252243,140.73903459999997,ΒX§ΒXsΓμ1-19-2,20619,ΒX,682,8,0110002,—m•—‹π‰®,7,Β‚ΆX“S“Ή^ΒX‰w “k•ΰ8• (628m),False
78,100000749522,kw7ymLuZIM2,ƒAƒ‹ƒ`ƒFƒ“ƒgƒ,40.821911,140.74221,ΒX§ΒXs’·“‡2-15-2,20619,ΒX,1328,16,0102006,ƒCƒ^ƒƒA—Ώ—iƒCƒ^ƒƒAƒ“j,7,Β‚ΆX“S“Ή^ΒX‰w “k•ΰ14• (1118m),True
79,100001529774,JjgPildwL7Q,ι½~“S”ΒΔ •A,40.825357540805456,140.7523610938658,ΒX§ΒXs‹΄–{1-7-1 YOU&Iƒrƒ‹101,20619,ΒX,1699,21,0101045,“S”ΒΔ‚«,6,Β‚ΆX“S“Ή^ΒX‰w “k•ΰ25• (1997m),True
80,100000066546,jtHnUFp0ikk,‚η[‚ί‚ρ‘ε’n,40.83369670532674,140.7004481435165,ΒX§ΒXsΞ]OD46-1,20698,VΒX,1281,16,0106001,ƒ‰[ƒƒ“,26,JR‰‰H–{ό(V―`ΒX)^VΒX‰w “k•ΰ13• (1038m),False
81,100000874542,xxsuYfgpMyE,¶ƒ‰ƒ€ƒWƒ“ƒMƒXƒJƒ“@—Ρη‰Ζ,40.82577690637548,140.7450051620949,ΒX§ΒXsV’¬2-7-12,20619,ΒX,1057,13,0108002,ƒWƒ“ƒMƒXƒJƒ“,16,Β‚ΆX“S“Ή^ΒX‰w “k•ΰ15• (1195m),True
82,100001153914,12Lusrzyw4I,‰΄‚ΜƒCƒP–Λ,40.82546162099592,140.75413358647268,ΒX§ΒXs‹΄–{1-8-5 ‚ζ‚Ά‚Η‚κΩ1†Ω1K,20619,ΒX,1854,23,0106001,ƒ‰[ƒƒ“,10,Β‚ΆX“S“Ή^ΒX‰w “k•ΰ28• (2182m),False
83,100001186316,TEG5hucknog,‚’·‚ά‚ι‚µ‚°,40.7892652150941,140.76258390307578,ΒX§ΒXs–­©3-1-5,29725,“›δ(ΒX§),2502,31,0106001,ƒ‰[ƒƒ“,15,Β‚ΆX“S“Ή^“›δiΒXj‰w “k•ΰ26• (2014m),False
84,100000869958,e_4Le2uHGZ-,΄H“°,40.82150456488053,140.76217705030444,ΒX§ΒXsΌ΄1-14-6,29725,“›δ(ΒX§),2243,28,0111,’θHAH“°,15,Β‚ΆX“S“Ή^“ΒX‰w “k•ΰ32• (2536m),False
85,100000759822,T2BiaXL9ZBo,ƒ_ƒCƒjƒ“ƒOƒ”ƒBƒ‰,40.82800084956018,140.74863024813885,ΒX§ΒXs–{’¬3-4-11 ‚Ν‚ά‚ά‚Ώ’c’n 1F,20619,ΒX,1313,16,0102005,ƒtƒ‰ƒ“ƒX—Ώ—iƒtƒƒ“ƒ`j,17,Β‚ΆX“S“Ή^ΒX‰w “k•ΰ20• (1550m),True
86,100000799638,llEBnznI1Aw,‰ΨΫƒ‰[ƒƒ“,40.78697196182536,140.7493725504546,ΒX§ΒXs”ƒc–π°’J231-3,29725,“›δ(ΒX§),3077,38,0106001,ƒ‰[ƒƒ“,14,Β‚ΆX“S“Ή^“ΒX‰w “k•ΰ56• (4472m),False
87,100000882375,3yx1agdYGPU,‘ε•υi,40.8278878,140.7354792,ΒX§ΒXsV’¬1-2-6,20619,ΒX,216,2,0101,aH,14,Β‚ΆX“S“Ή^ΒX‰w “k•ΰ2• (119m),True
88,100000874276,H9tX02OOLUI,Pent House,40.825222191603295,140.73752090334892,ΒX§ΒXsΓμ1-17-21 ƒXƒm[ƒ‰ƒ“ƒhƒrƒ‹3K,20619,ΒX,607,7,0115001,ƒJƒtƒF,11,Β‚ΆX“S“Ή^ΒX‰w “k•ΰ7• (492m),True
89,100000034880,QuaG-GPHUfc,•Ξ‚β ‚ ‚¨‚ΰ‚θ{–΅Ω,40.82832396995652,140.6935025574993,ΒX§ΒXsΞ]‚Τ140-2 ‚ ‚¨‚ΰ‚θ{–΅Ω,20698,VΒX,62,0,0128001,‚»‚Μ‘Ό,10,JR‰‰H–{ό(V―`ΒX)^VΒX‰w “k•ΰ2• (93m),False
90,100000960534,NEfbaG7xTts,‚ί‚ρ‚­‚Ά‚β ΒXΌ΄“X,40.817452236781,140.76308098465,ΒX§ΒXsΌ΄3-9-18,29725,“›δ(ΒX§),1824,22,0106001,ƒ‰[ƒƒ“,10,Β‚ΆX“S“Ή^“ΒX‰w “k•ΰ29• (2256m),False
91,100000817376,iuoRbXtO-R-,D–yΩ,40.82770867082547,140.7072059809857,ΒX§ΒXsΞ]‰•”56-3,20698,VΒX,1582,19,0106001,ƒ‰[ƒƒ“,22,JR‰‰H–{ό(V―`ΒX)^VΒX‰w “k•ΰ19• (1469m),False
92,100000321314,UwbCvatBACg,ƒWƒFƒ‰[ƒgEƒiƒ`ƒ…ƒ,40.8266516184145,140.73623682944776,ΒX§ΒXsV’¬1-6-22,20619,ΒX,420,5,0118,ƒXƒC[ƒc,13,Β‚ΆX“S“Ή^ΒX‰w “k•ΰ4• (299m),True
93,100000817380,OE5e491-ixs,‚©‚ν‚η,40.7963501,140.7728634,ΒX§ΒXs“›δ”ƒc‹΄40-5,29725,“›δ(ΒX§),1401,17,0106001,ƒ‰[ƒƒ“,11,Β‚ΆX“S“Ή^“ΒX‰w “k•ΰ24• (1869m),False
94,100001052485,xkWH6NYkNLQ,‹π‰® ‚Ζ‚θ‚Α‚Υ,40.825744548649,140.74595891615,ΒX§ΒXs–{’¬2-4-9 •“Ώ‘ζκƒrƒ‹ 1F,20619,ΒX,1145,14,0119001,ƒo[,9,Β‚ΆX“S“Ή^ΒX‰w “k•ΰ16• (1287m),True
95,100000321241,tCOSB3M78gI,ά”Τ¬,40.82572617,140.73532914,ΒX§ΒXsΓμ1-8-7,20619,ΒX,463,5,0104001,’†‰Ψ—Ώ—,14,Β‚ΆX“S“Ή^ΒX‰w “k•ΰ5• (333m),False
96,100000321204,fGci20bUhJ6,ƒ‰[ƒƒ“–Λ‰λ,40.82072123,140.73982910999996,ΒX§ΒXs’·“‡3-4-11,20619,ΒX,1250,15,0106001,ƒ‰[ƒƒ“,19,Β‚ΆX“S“Ή^ΒX‰w “k•ΰ14• (1048m),False
97,100000831808,EblZbl0_PJQ,ι½H–[‚ν‚³‚Ρ,40.82598910324238,140.7486766216757,ΒX§ΒXs–{’¬2-6-8 ƒXƒ^[ƒrƒ‹102,20619,ΒX,1364,17,0101,aH,10,Β‚ΆX“S“Ή^ΒX‰w “k•ΰ20• (1576m),False
98,100001439528,Lr-XTbI8llQ,H– ‹S–ΛΑ _ƒ–“’‰·ς,40.650049849154215,140.85056207026378,ΒX§ΒXsrμ“μrμR‘—L—Ρ_ƒP“’‘ς59 _ƒ–“’‰·ς“ΰ,,,,,0101017,‚»‚Ξ,151,,False
99,100001275873,zRscpyr9gFU,’†‰Ψ‚»‚Ξ ‚ά‚³,40.780777029073455,140.76284408569336,ΒX§ΒXs‰΅“ΰ_“c39-4,29725,“›δ(ΒX§),3420,42,0106001,ƒ‰[ƒƒ“,11,Β‚ΆX“S“Ή^“›δiΒXj‰w “k•ΰ36• (2883m),False
0,100000852172,yeRJlCURZjc,’Y‰ΞΔ ’Ή‚¤‚¨,40.824894810131696,140.73893208987442,ΒX§ΒXsΓμ1-19-6,20619,ΒX,734,9,0101025,Δ‚«’Ή,11,Β‚ΆX“S“Ή^ΒX‰w “k•ΰ8• (626m),False
1,100000813862,42fGnxROUKI,‘o—t,40.8331746357446,140.710578935762,ΒX§ΒXs•x“c3-16-7,20698,VΒX,2039,25,0106001,ƒ‰[ƒƒ“,15,JR‰‰H–{ό(V―`ΒX)^VΒX‰w “k•ΰ25• (2003m),False
2,100000999695,3sbRUEUnwgI,“ϊ–{—Ώ—@ι,40.809383064774,140.72453323467,ΒX§ΒXsQΩ‘O“c4-30-27,20619,ΒX,2626,32,0101014,“V‚Υ‚ηA—g‚°•¨,2,Β‚ΆX“S“Ή^ΒX‰w “k•ΰ31• (2422m),False
3,100000451026,QBzWiGV_OsI,’†‘—Ώ—LB‹΄–{“X,40.82091180808,140.75208306312993,ΒX§ΒXs‹΄–{3-2-4,20619,ΒX,2119,26,0104001,’†‰Ψ—Ώ—,20,Β‚ΆX“S“Ή^ΒX‰w “k•ΰ27• (2109m),True
4,100000870249,zhiRoRHVdLw,lμ’RX–Λ’·”φ chilldining,40.80340092,140.74119619,ΒX§ΒXs“‘ε–μ1-4-28,29725,“›δ(ΒX§),3025,37,0106001,ƒ‰[ƒƒ“,11,Β‚ΆX“S“Ή^“›δiΒXj‰w “k•ΰ24• (1920m),False
5,t100313196,ALWiv2kVEHU,‚Λ‚Τ‚½‚Μ‘@‚½‚©‹v,40.8267829,140.7534809,ΒX§ΒXs–{’¬5-6-11 ,20619,ΒX,1721,21,0110001,a•—‹π‰®,16,Β‚ΆX“S“Ή^ΒX‰w “k•ΰ27• (2091m),True
6,100000738473,XLoRKLiD7F2,ƒ`ƒƒƒ“ƒhƒ‰,40.8263686,140.73950119999995,ΒX§ΒXsV’¬1-13-5 2F,20619,ΒX,605,7,0115001,ƒJƒtƒF,20,Β‚ΆX“S“Ή^ΒX‰w “k•ΰ8• (587m),True
7,t100321634,XAb7kf0Ialo,—΄–Pt,40.8267909,140.7412706,ΒX§ΒXsΐ•ϋ2-6-11 ,20619,ΒX,701,8,0104001,’†‰Ψ—Ώ—,13,Β‚ΆX“S“Ή^ΒX‰w “k•ΰ10• (778m),True
8,t100456294,ICSujR2ZBZM,’YΔ‹ψ‰Ξ‘V ‹ξο,40.8218015,140.7521499,ΒX§ΒXs‹΄–{1-6-6 ‚έ‚β‚άƒrƒ‹,20619,ΒX,2030,25,0110001,a•—‹π‰®,10,,True
9,100000744478,HA2_PmY6NHs,’δ–έ“X,40.8279497,140.7787925,ΒX§ΒXs‡‰Y2-14-23,20752,“ΒX,2206,27,0106001,ƒ‰[ƒƒ“,10,Β‚ΆX“S“Ή^“ΒX‰w “k•ΰ25• (1983m),False
10,100000711168,iH4flcJ0Je6,‰Ν―,40.8232694,140.75723531196263,ΒX§ΒXs’η’¬2-12-5,20619,ΒX,2352,29,0101,aH,15,Β‚ΆX“S“Ή^“›δiΒXj‰w “k•ΰ31• (2453m),True
11,100000322158,IZBiWXiwOhE,–‚Μ‰ξ,40.82827034,140.73566513,ΒX§ΒXsV’¬1-1-20,20619,ΒX,186,2,0110,‹π‰®AƒrƒAƒz[ƒ‹,14,Β‚ΆX“S“Ή^ΒX‰w “k•ΰ2• (112m),False
12,100000021527,fPXpq2-yn9E,\OΞ–{‰Ζ‚µ‚¶‚έ‚η[‚ί‚ρ,40.82671678861764,140.7478432711639,ΒX§ΒXs–{’¬2-7-23 Prime–{’¬ΩA‹ζ‰ζ,20619,ΒX,1229,15,0106001,ƒ‰[ƒƒ“,13,Β‚ΆX“S“Ή^ΒX‰w “k•ΰ19• (1472m),True
13,100001135669,xI7U6Ou8R6c,‹S–ΚΑ,40.65006672888408,140.8502679341459,ΒX§ΒXsrμ“μrμR‘—L—Ρ_“’‘ς50,,,,,0101017,‚»‚Ξ,11,,False
14,t100376066,9-Ngl2BbTQE,‚Ώ‚α‚¨‚Έ,40.8264605,140.7459647,ΒX§ΒXs–{’¬2-2-14 –{’¬Ω1F.2F,20619,ΒX,1100,13,0112002,–³‘Π—Ώ—,6,Β‚ΆX“S“Ή^ΒX‰w “k•ΰ16• (1270m),True
15,100001050285,nI-lyfexp0Q,ƒoƒ‹hachi,40.82568737772046,140.74591929417159,ΒX§ΒXs–{’¬•“Ώ‘ζ1ƒrƒ‹ 2F2-4-9,20619,ΒX,1135,14,0110,‹π‰®AƒrƒAƒz[ƒ‹,5,Β‚ΆX“S“Ή^ΒX‰w “k•ΰ17• (1295m),True
16,100000759866,PhXTEoR9Syo,ƒTƒCƒSƒ“ ΒX,40.82511185007121,140.73930999999993,ΒX§ΒXsΓμ1-20-3,20619,ΒX,733,9,0105004,ƒxƒgƒiƒ€—Ώ—,17,Β‚ΆX“S“Ή^ΒX‰w “k•ΰ9• (660m),True
17,t100062936,e2WnNlM6gcg,ƒ}ƒ^ƒnƒ,40.8260023,140.750095,ΒX§ΒXs–{’¬2-11-7 ›“ƒrƒ‹3F,20619,ΒX,1482,18,0110002,—m•—‹π‰®,2,,True
18,t100492986,S4OglonkEis,ΒX{”’“’‘–{R –P,40.8058002,140.7522436,ΒX§ΒXs—Ξ3-8-7 ƒOƒ‰ƒ“ƒh-ƒ‹‚¨‚­–μA101,29725,“›δ(ΒX§),1923,24,0106001,ƒ‰[ƒƒ“,1,Β‚ΆX“S“Ή^“›δiΒXj‰w “k•ΰ25• (2007m),True
19,100001165938,UKqJP2oS_Ho,‰Ν“¶’ΰMASAYUKI,40.812468841074576,140.79293588095095,ΒX§ΒXs“ψƒP‹u1-2-7,20681,¬–φ(ΒX§),1092,13,0102,—mH,15,Β‚ΆX“S“Ή^¬–φiΒXj‰w “k•ΰ11• (862m),False
20,100001400262,zn_H2ltffvc,‚¨—z‚³‚ά‚©‚Δ‚ι‚ζ,40.826911628919326,140.73709155704307,ΒX§ ΒXs V’¬ 1-8-5,20619,ΒX,431,5,0102006,ƒCƒ^ƒƒA—Ώ—iƒCƒ^ƒƒAƒ“j,10,Β‚ΆX“S“Ή^ΒX‰w “k•ΰ5• (343m),True
21,100000757939,z1a_SLcI2FI,ΒX‘Ϋƒzƒeƒ‹@‹gc,40.826589,140.736866,ΒX§ΒXsV’¬1-6-18 ΒX‘Ϋƒzƒeƒ‹,20619,ΒX,454,5,0104001,’†‰Ψ—Ώ—,10,Β‚ΆX“S“Ή^ΒX‰w “k•ΰ5• (330m),True
22,t100479482,etPqfMTcEic,‚έ‚Ώ‚Μ‚­—Ώ—Ό‚ή‚η ƒAƒXƒpƒ€“X,40.829786,140.7411415,ΒX§ΒXsΐ•ϋ1’–Ϊ1-40 ΒX§Ου•¨YΩƒAƒXƒpƒ€10K,20619,ΒX,759,9,0101033,‹½“y—Ώ—,8,Β‚ΆX“S“Ή^ΒX‰w “k•ΰ9• (708m),True
23,t100376306,S_SgDf0psnA,ι½dining ‚Ά‚Α‚Ο‚Ώ,40.8252689,140.7471785,ΒX§ΒXs–{’¬1-1-8 ‚©‚Ζ‚¤ƒrƒ‹1F,20619,ΒX,1264,15,0101012,¬‚θυi,1,Β‚ΆX“S“Ή^ΒX‰w “k•ΰ18• (1432m),False
24,100001324592,WsqWqtt8stA,aπΨ Oƒc―,40.8265254,140.74525600000004,ΒX§ΒXsΐ•ϋ2-17-11 2F,20619,ΒX,1068,13,0112001,‘nμ—Ώ—,7,Β‚ΆX“S“Ή^ΒX‰w “k•ΰ15• (1201m),True
25,100000320704,L0pOcX9-Vc-,ƒzƒ‹ƒ‚ƒ“Δ‚«@“V‹η,40.82571802,140.74698963,ΒX§ΒXs–{’¬2-5-13,20619,ΒX,1237,15,0108003,ƒzƒ‹ƒ‚ƒ“,6,Β‚ΆX“S“Ή^ΒX‰w “k•ΰ18• (1399m),True
26,100001429267,BAIAZFAjVcM,‚Β‚¶»–Λ,40.82500408240973,140.73589477823305,ΒX§ΒXsΓμ1-10-9-1 ΒXƒZƒ“ƒ^[ƒzƒeƒ‹1F,20619,ΒX,562,7,0106001,ƒ‰[ƒƒ“,10,Β‚ΆX“S“Ή^ΒX‰w “k•ΰ6• (448m),True
27,100001332716,dCod_sbcr22,ƒNƒ‰ƒbƒ`[ƒm,40.825333948634324,140.74952520055967,ΒX§ΒXs–{’¬1-7-5,20619,ΒX,1455,18,0102006,ƒCƒ^ƒƒA—Ώ—iƒCƒ^ƒƒAƒ“j,4,Β‚ΆX“S“Ή^ΒX‰w “k•ΰ22• (1692m),False
28,100001204762,pi1gWeQUbSs,Ό’†‰Ψ‚»‚Ξ“X,40.822187737921254,140.74958299994466,ΒX§ΒXs’†‰›1-25-17,20619,ΒX,1778,22,0106001,ƒ‰[ƒƒ“,10,Β‚ΆX“S“Ή^ΒX‰w “k•ΰ23• (1798m),False
29,100000321774,tu23YmqkLqo,µ•Ί‰q‚β,40.82615132545123,140.75349197063906,ΒX§ΒXs–{’¬5-5-11,20619,ΒX,1795,22,0101034,C‘N—Ώ—,23,Β‚ΆX“S“Ή^ΒX‰w “k•ΰ27• (2108m),True
30,100000321502,Iw53GMwSuTE,ƒA[ƒ‹,40.82530425,140.75105052000004,ΒX§ΒXs‹΄–{1-1-7 ƒAƒ‹ƒtƒ@ƒzƒeƒ‹ΒX 1F,20619,ΒX,1588,19,0119001,ƒo[,10,Β‚ΆX“S“Ή^ΒX‰w “k•ΰ24• (1849m),False
31,100000264456,nPjuCQFRDsU,A-FACTORY,40.82942212606099,140.73581814766362,ΒX§ΒXs–φμ1-4-2 A-Factory,20619,ΒX,152,1,0128001,‚»‚Μ‘Ό,14,Β‚ΆX“S“Ή^ΒX‰w “k•ΰ2• (146m),False
32,100000799672,GNDJR4DOlDw,Ξη’ΰ ΒX“X,40.82394699852441,140.7500686934037,ΒX§ΒXs–{’¬1-6-9,20619,ΒX,1679,20,0110,‹π‰®AƒrƒAƒz[ƒ‹,12,Β‚ΆX“S“Ή^ΒX‰w “k•ΰ23• (1781m),True
33,100000828454,bcsGjQCfruo,‚Ά‚ν‚µ‰®,40.8278516736258,140.73690897044003,ΒX§ΒXsV’¬1-9-37,20619,ΒX,309,3,0101,aH,6,Β‚ΆX“S“Ή^ΒX‰w “k•ΰ4• (257m),False
34,100001327012,hsokRvfrqiQ,‘ε·‚θƒoƒJ‚Μ“X‚ΰ‚θ‚ΰ‚θ•Ω“–,40.81874019849921,140.7836853411045,ΒX§ΒXs’†’Ο3-4-7,20752,“ΒX,1260,15,0114001,‚Ώ‹A‚θκ–εA•Ω“–,11,Β‚ΆX“S“Ή^“ΒX‰w “k•ΰ12• (955m),True
35,100001394044,WBf9DH-1ap2,Δ“χ ‚«‚ρ‚¬‚ε,40.826097324082106,140.73596964079866,ΒX§ΒXsΓμ1-11-1,20619,ΒX,405,5,0108001,Δ“χ,6,Β‚ΆX“S“Ή^ΒX‰w “k•ΰ5• (337m),True
36,100000019800,e3Vr0tpjPEM,piccolo,40.8268991,140.73935400000005,ΒX§ΒXsV’¬1-11-15,20619,ΒX,574,7,0102006,ƒCƒ^ƒƒA—Ώ—iƒCƒ^ƒƒAƒ“j,11,Β‚ΆX“S“Ή^ΒX‰w “k•ΰ7• (549m),True
37,100000724055,RElyJau9txw,Sweets Factory pampam,40.8296378,140.74104269999998,ΒX§ΒXsΐ•ϋ1-1-40 ƒAƒXƒpƒ€1F,20619,ΒX,735,9,0118,ƒXƒC[ƒc,11,Β‚ΆX“S“Ή^ΒX‰w “k•ΰ9• (708m),False
38,100001262129,hJDrXBuVfLY,ƒWƒFƒ‰[ƒg ƒiƒ`ƒ…ƒ ƒhƒD[ƒG,40.8303178,140.73510169999997,ΒX§ΒXs–φμ1-4-2 A-FACTORY,20619,ΒX,262,3,0118,ƒXƒC[ƒc,10,Β‚ΆX“S“Ή^ΒX‰w “k•ΰ3• (188m),True
39,100000715735,pyZrLEleZHk,λ”T•,40.82876,140.73758180000004,ΒX§ΒXsΐ•ϋ1-5-19,20619,ΒX,315,3,0110,‹π‰®AƒrƒAƒz[ƒ‹,9,Β‚ΆX“S“Ή^ΒX‰w “k•ΰ4• (316m),True
40,100000840255,BXhsAAFSnUY,‚Β‚‚ιH,40.82909116151928,140.73442452024608,ΒX§ΒXs–φμ1-1-1,20619,ΒX,85,1,0101,aH,9,Β‚ΆX“S“Ή^ΒX‰w “k•ΰ1• (58m),False
41,100000870579,_dWIL_8DfD6,ƒgƒj[ƒ[ƒ} ƒNƒƒXƒ^ƒ[A-BAYΒX“X,40.823275741,140.74467862619997,ΒX§ΒXs’·“‡1-6-6ƒNƒƒXƒ^ƒ[A-BAY2F,20619,ΒX,1301,16,0101045,“S”ΒΔ‚«,12,Β‚ΆX“S“Ή^ΒX‰w “k•ΰ16• (1255m),True
42,100000817051,Lz5h4fCFrlY,ƒAƒbƒvƒ‹ƒqƒ‹ ƒƒXƒgƒ‰ƒ“,40.718084091631,140.58015333465198,ΒX§ΒXsQ‰—­‘ς–μK2-3,20740,Q‰,1585,19,0111,’θHAH“°,5,JR‰‰H–{ό(V―`ΒX)^Q‰‰w “k•ΰ11• (876m),True
43,100001379939,u-7DXj9m3AM,‹›‚Ζ‚ν‚ηΔ‚« ’n—‹–η,40.82522366,140.74850623,ΒX§ΒXs–{’¬1-5-5,20619,ΒX,1383,17,0110,‹π‰®AƒrƒAƒz[ƒ‹,3,Β‚ΆX“S“Ή^ΒX‰w “k•ΰ20• (1562m),True
44,100001279704,JEcH4nBXVuc,ΒXΟ±‚η[‚ί‚ρ ‚«‚ή‚η‚β,40.833975070619175,140.6874436527612,ΒX§ΒXsVι•“c265-17,20698,VΒX,1202,15,0106001,ƒ‰[ƒƒ“,9,JR‰‰H–{ό(V―`ΒX)^VΒX‰w “k•ΰ11• (881m),False
45,100001141362,2BZhSByH1qE,y“VH“°,40.79580040144309,140.757642717791,ΒX§ΒXs”ƒc–π–ξμ75-7,29725,“›δ(ΒX§),1979,24,0106001,ƒ‰[ƒƒ“,8,Β‚ΆX“S“Ή^“›δiΒXj‰w “k•ΰ23• (1794m),True
46,100000322656,-oUJN0guuOU,‚δ[‚³σ’,40.89168894,140.86139872,ΒX§ΒXsσ’u’J341-19,20622,σ’‰·ς,309,3,0118,ƒXƒC[ƒc,67,Β‚ΆX“S“Ή^σ’‰·ς‰w “k•ΰ2• (121m),True
47,s000243915,rTxQTYwWqvw,••‰®@ΒXV’¬“X,40.8267349999,140.7379459999,ΒX§ΒXsV’¬1-8-10 ΒX“‰fƒvƒ‰ƒU 2K,20619,ΒX,472,5,0110001,a•—‹π‰®,7,,True
48,100001161591,Zyp4bbb75vU,`Ή,40.82686220,140.73785396,ΒX§ΒXsV’¬1-8-9,20619,ΒX,449,5,0111,’θHAH“°,6,Β‚ΆX“S“Ή^ΒX‰w “k•ΰ6• (468m),False
49,100000832140,DAlaKBDDB5I,‚Ά‚θ‚µ‚ί,40.828392791910744,140.75764216102561,ΒX§ΒXsΒ–φ1-12-22,20619,ΒX,2069,25,0101017,‚»‚Ξ,18,Β‚ΆX“S“Ή^ΒX‰w “k•ΰ32• (2543m),False
50,100000827366,E_oIMYGxRmc,’Γy„–B–Ά—,40.8279379008,140.74082247399997,ΒX§ΒXsΐ•ϋ2-3-16,20619,ΒX,612,7,0101003,„‚Ϋ‚¤,3,Β‚ΆX“S“Ή^ΒX‰w “k•ΰ9• (680m),False
51,100000803384,T7hHcPXMQCc,’†‰Ψ‚»‚Ξ@ƒ}ƒ^ƒxƒC,40.83819953970866,140.82374537301632,ΒX§ΒXs”n‰®K΄…—¬624,20790,–ξ“c‘O,1950,24,0106001,ƒ‰[ƒƒ“,20,Β‚ΆX“S“Ή^–ξ“c‘O‰w “k•ΰ24• (1907m),False
52,100000320941,dnH0Reu8Okw,ƒRƒRƒbƒg,40.81543403,140.78497556,ΒX§ΒXs“μ’Ο2-9-15,20752,“ΒX,851,10,0104001,’†‰Ψ—Ώ—,20,Β‚ΆX“S“Ή^“ΒX‰w “k•ΰ8• (641m),False
53,100001129038,_wk3r854FXU,ƒKƒƒbƒeƒƒA ƒ_EƒTƒXƒB[ƒm,40.830356909446,140.73511631566,ΒX§ΒXs–φμ1-4-2A-Factory2F,20619,ΒX,266,3,0115001,ƒJƒtƒF,6,Β‚ΆX“S“Ή^ΒX‰w “k•ΰ3• (192m),False
54,100000785035,Emd_8MbmrSY,ƒeƒBƒtƒ@ƒj[,40.826571,140.738499,ΒX§ΒXsV’¬1’–Ϊ12-3,20619,ΒX,532,6,0102,—mH,17,Β‚ΆX“S“Ή^ΒX‰w “k•ΰ6• (478m),False
55,t100113392,l-_i18kt87Q,ƒJƒ[‰®@ƒCƒ“ƒfƒBj–Ψ,40.8133144,140.743968,ΒX§ΒXsj–Ψ2’–Ϊ1-13 ,20619,ΒX,2454,30,0107001,ƒJƒ[,28,Β‚ΆX“S“Ή^ΒX‰w “k•ΰ26• (2008m),True
56,100001388652,e9FqXWRtpDk,’n•¨‚¨‚Ξ‚ρ‚΄‚Ά ’nππκ Τ–L,40.8291683,140.7370651,ΒX§ΒXsΐ•ϋ1-2-4 1F,20619,ΒX,310,3,0101003,„‚Ϋ‚¤,5,Β‚ΆX“S“Ή^ΒX‰w “k•ΰ4• (266m),True
57,100001446262,TKS6wfunnu6,a•—ƒ_ƒCƒjƒ“ƒO ‘½κ,40.81742389338605,140.76295391899703,ΒX§ΒXsΌ΄3-9-18,29725,“›δ(ΒX§),1837,22,0101034,C‘N—Ώ—,3,Β‚ΆX“S“Ή^“›δiΒXj‰w “k•ΰ20• (1557m),True
58,100001164623,YTEOgRuXsBU,η‹v–H“°,40.81293041572864,140.78115577582412,ΒX§ΒXs“μ’Ο1-17-28,20752,“ΒX,379,4,0111,’θHAH“°,10,Β‚ΆX“S“Ή^“ΒX‰w “k•ΰ4• (301m),False
59,100000870605,PZ1OyR2JCct,’δH“°,40.794525,140.78000599999996,ΒX§ΒXsK”¨“‚θ53-5,29725,“›δ(ΒX§),1714,21,0106001,ƒ‰[ƒƒ“,9,Β‚ΆX“S“Ή^“ΒX‰w “k•ΰ23• (1778m),False
60,100000936735,2LJnpb5FSlo,•S‘γ,40.826515298558,140.7473406216,ΒX§ΒXs–{’¬2-3-11,20619,ΒX,1264,15,0101011,“ϊ–{—Ώ—,8,Β‚ΆX“S“Ή^ΒX‰w “k•ΰ18• (1419m),True
61,100000759823,g0Y5WkfUmKx,ƒƒXƒgƒ‰ƒ“ ƒeƒ‰ Tera,40.823761,140.746787,ΒX§ΒXs–{’¬1-2-13,20619,ΒX,1399,17,0109001,“η—Ώ—,9,Β‚ΆX“S“Ή^ΒX‰w “k•ΰ18• (1444m),True
62,100001077128,SidWowrekH6,ƒ‰EƒZ[ƒ‰,40.827717004777,140.74041631095,ΒX§ΒXsΐ•ϋƒzƒeƒ‹JALƒVƒeƒBΒX2-4-12,20619,ΒX,571,7,0103001,ƒoƒCƒLƒ“ƒO,7,Β‚ΆX“S“Ή^ΒX‰w “k•ΰ8• (639m),False
63,100001177778,90k7gMHLeqw,‚ί‚ρ‚βμκ,40.791842407834245,140.7905298462623,ΒX§ΒXsK”¨’Je181-6,29725,“›δ(ΒX§),2659,33,0106001,ƒ‰[ƒƒ“,6,Β‚ΆX“S“Ή^“ΒX‰w “k•ΰ29• (2261m),False
64,100000832641,-gkSRf10usY,‚»‚ΞH–[Ί,40.825809335757064,140.73798675498824,ΒX§ΒXsV’¬1-12-12,20619,ΒX,588,7,0101,aH,6,Β‚ΆX“S“Ή^ΒX‰w “k•ΰ7• (498m),True
65,100001361992,Q5XOw5evjKE,Oeuf,40.78398372559472,140.77766138360596,ΒX§ΒXs‘ε–ξ‘ς—Ά©88-6,29725,“›δ(ΒX§),3155,39,0118,ƒXƒC[ƒc,5,Β‚ΆX“S“Ή^“›δiΒXj‰w “k•ΰ32• (2527m),True
66,100001167558,K8mbaiwpCXA,“ό‚θ‚ά‚·’ΰ,40.82339747803475,140.74755713995182,ΒX§ΒXs–{’¬1-3-11,20619,ΒX,1504,18,0101034,C‘N—Ώ—,11,Β‚ΆX“S“Ή^ΒX‰w “k•ΰ20• (1538m),False
67,100001168568,nVkL8cJqz32,‰ρ“]ι½‚ ‚·‚©“‘ε–μ“X,40.79822793559639,140.74466266514787,ΒX§ΒXs“‘ε–μ2-7-4,29725,“›δ(ΒX§),3143,39,0101013,‰ρ“]υi,10,Β‚ΆX“S“Ή^“›δiΒXj‰w “k•ΰ38• (2982m),True
68,100001329744,g-fEiWtwcT2,–Λ‰® ¬“V,40.82163791,140.74707591,ΒX§ΒXs’†‰›1-21-20,20619,ΒX,1663,20,0106001,ƒ‰[ƒƒ“,7,Β‚ΆX“S“Ή^ΒX‰w “k•ΰ20• (1584m),False
69,100001356643,ICp6auNl2eE,ι½‚Ζ’nπ ’n—‹–η,40.823392224755914,140.7473335932541,ΒX§ΒXs–{’¬1-3-12 1F,20619,ΒX,1484,18,0101,aH,2,Β‚ΆX“S“Ή^ΒX‰w “k•ΰ20• (1529m),True
70,100001342566,cQ8-KbKnscg,ƒJƒ[‚ΖƒR[ƒq[ king,40.81441096525327,140.71320347285578,ΒX§ΒXsQΩ‘O“c3-27-27,20698,VΒX,2605,32,0115001,ƒJƒtƒF,8,JR‰‰H–{ό(V―`ΒX)^VΒX‰w “k•ΰ33• (2584m),False
71,100001248525,a_SfUtZSeB-,ƒo[ƒ‰ƒEƒ“ƒW ƒvƒ‰ƒbƒg,40.648241971201585,140.85093356440063,ΒX§ΒXsrμ“μrμR1-1,,,,,0119001,ƒo[,1,,False
72,100000852607,pet1CESE2s-,‚¨H–@l‹G‚Μη¬,40.82581515,140.74182324,ΒX§ΒXsV’¬2-5-3η¬ƒrƒ‹,20619,ΒX,831,10,0101,aH,13,Β‚ΆX“S“Ή^ΒX‰w “k•ΰ11• (846m),True
73,100000320729,GNDJR16qdaI,‹ψΔ‚«‚Ζ‚¨‚Ε‚ρΞη’ΰ–{’¬“X,40.82791223,140.74753395,ΒX§ΒXs–{’¬3-3-9,20619,ΒX,1233,15,0101025,Δ‚«’Ή,8,Β‚ΆX“S“Ή^ΒX‰w “k•ΰ18• (1423m),True
74,100000787981,GKKGC5HwrUQ,ε£‚Μ ‚Ω‚Μ‚© honoca,40.825080749551184,140.74940854232784,ΒX§ΒXs–{’¬1-7-14,20619,ΒX,1470,18,0119001,ƒo[,8,Β‚ΆX“S“Ή^ΒX‰w “k•ΰ21• (1676m),True
75,100000877944,i1FcaJeCbVs,ƒRƒ“ƒLƒbƒ`ƒ“,40.78271813123591,140.78050551304705,ΒX§ΒXsK”¨2-1-2,29725,“›δ(ΒX§),3335,41,0102002,ƒpƒXƒ^AƒsƒU,5,Β‚ΆX“S“Ή^“ΒX‰w “k•ΰ39• (3078m),True
76,100000066558,pdOdvt2GymY,‚©‚Β”ό’ΰ,40.800369292779,140.74050664902006,ΒX§ΒXs“‘ε–μ2-1-28,29725,“›δ(ΒX§),3346,41,0101015,‚Ζ‚ρ‚©‚Β,17,Β‚ΆX“S“Ή^ΒX‰w “k•ΰ40• (3206m),False
77,100000695915,_YSux7qDYm2,ά‘γ–ΪƒJƒlƒVƒ‹Ό”@`θ,40.82365964079146,140.74483558399197,ΒX§ΒXs’·“‡1-6-5,20619,ΒX,1264,15,0101017,‚»‚Ξ,17,Β‚ΆX“S“Ή^ΒX‰w “k•ΰ16• (1251m),True
78,100000320701,p67PRr1KGm-,“μ‘ε–ε V’¬“X,40.82717882,140.73697067,ΒX§ΒXsV’¬1-8-3,20619,ΒX,374,4,0108001,Δ“χ,8,Β‚ΆX“S“Ή^ΒX‰w “k•ΰ4• (298m),True
79,100000321011,xEVl6Fz5Rr6,•ιZ‚Β,40.82660124,140.74610354,ΒX§ΒXs–{’¬2-2-15 ƒiƒCƒgƒpƒƒX2F,20619,ΒX,1096,13,0101034,C‘N—Ώ—,7,Β‚ΆX“S“Ή^ΒX‰w “k•ΰ16• (1282m),False
80,100000321129,bBkI3gr9RCE,C‹¬ƒ‰[ƒƒ“Vι“X,40.83339134,140.68767891,ΒX§ΒXsVι•“c273-5,20698,VΒX,1162,14,0106001,ƒ‰[ƒƒ“,8,JR‰‰H–{ό(V―`ΒX)^VΒX‰w “k•ΰ12• (916m),False
81,100001272193,cLYQdgYW3Wc,‚¨—z‚³‚ά‚©‚Δ‚ι‚ζ 2†“X ‚Ν‚Θ‚κ,40.82514754039751,140.75127681493757,ΒX§ΒXs‹΄–{1-1-6,20619,ΒX,1648,20,0110002,—m•—‹π‰®,8,Β‚ΆX“S“Ή^ΒX‰w “k•ΰ24• (1877m),False
82,100000861532,8S6XqGOnXX6,Δ“χ”όH’ΰ‚Ά‚ν‚β,40.7974825,140.74147700000003,ΒX§ΒXs“‘ε–μ2-4-6,29725,“›δ(ΒX§),3494,43,0108001,Δ“χ,5,Β‚ΆX“S“Ή^ΒX‰w “k•ΰ45• (3541m),True
83,100000320813,vSp2KvPxsrs,¬‹Π’ΰΌƒoƒCƒpƒX“X,40.8329557,140.69642246,ΒX§ΒXsΞ]‚Τ38-1,20698,VΒX,780,9,0101017,‚»‚Ξ,18,JR‰‰H–{ό(V―`ΒX)^VΒX‰w “k•ΰ9• (691m),False
84,t100376046,F0UbJsLifmw,πΨ‚β@‚Ά‚µ”T,40.8253552,140.7523838,ΒX§ΒXs‹΄–{1’–Ϊ7-1 You&Iƒrƒ‹102,20619,ΒX,1701,21,0110001,a•—‹π‰®,9,,True
85,100000715312,IqMpBowkROY,Ϋ‘ε‚µ‚η‚Ν‚ι,40.8228104827599,140.74962174249094,ΒX§ΒXs’†‰›1-25-1 ƒZƒ“ƒgƒ‰ƒ‹ƒnƒEƒX1F,20619,ΒX,1718,21,0106001,ƒ‰[ƒƒ“,13,Β‚ΆX“S“Ή^ΒX‰w “k•ΰ23• (1775m),False
86,100001264974,K6e2BINqhvI,ƒCƒ^ƒƒAH“° la fonte,40.7173867,140.57922459999997,ΒX§ΒXsQ‰—­‘ς–μK4-2,20740,Q‰,1690,21,0102006,ƒCƒ^ƒƒA—Ώ—iƒCƒ^ƒƒAƒ“j,7,JR‰‰H–{ό(V―`ΒX)^Q‰‰w “k•ΰ11• (812m),False
87,100001305885,eOtSTGGW8X-,’Y‰ΞΔ“χ χ—΄,40.82923388,140.70287785,ΒX§ΒXsΞ]‰•”39-6,20698,VΒX,1144,14,0108001,Δ“χ,6,JR‰‰H–{ό(V―`ΒX)^VΒX‰w “k•ΰ10• (789m),False
88,100000448436,Ibxj6i8xfys,‚Β‚Λ‚½H“°,40.71112265148795,140.5991992957008,ΒX§ΒXsQ‰–k’†–μ“V‰¤1-1,20740,Q‰,1662,20,0111,’θHAH“°,19,JR‰‰H–{ό(V―`ΒX)^Q‰‰w “k•ΰ25• (1970m),False
89,100001202870,UXrsIo0nwt-,‚»‚Ξ ”b“c,40.82868715471862,140.73459615707395,ΒX§ΒXs–φμ1-1-1 ΒX‰w“ϋ‰όDO,20619,ΒX,39,0,0101017,‚»‚Ξ,5,Β‚ΆX“S“Ή^ΒX‰w “k•ΰ1• (16m),False
90,100001077713,1HTjeR4B48U,ƒhƒ‰ƒSƒ“ƒJƒtƒF,40.805167320212,140.78271285530002,ΒX§ΒXs•lΩ6-1-8,20752,“ΒX,1291,16,0115001,ƒJƒtƒF,5,Β‚ΆX“S“Ή^“ΒX‰w “k•ΰ8• (584m),True
91,100000320841,jLdBy7dFCcg,ΒXΖ”n,40.81062069,140.7842369,ΒX§ΒXs•lΩ2-11-34,20752,“ΒX,1734,21,0101017,‚»‚Ξ,11,Β‚ΆX“S“Ή^“ΒX‰w “k•ΰ3• (234m),True
92,100001254261,Qy5NcMf0Yws,ζ‚Ζπ g‹g,40.82550575767448,140.75390385105175,ΒX§ΒXs‹΄–{1-8-4ƒ‰ƒCƒIƒ“ƒrƒ‹3†Ω102†,20619,ΒX,1829,22,0110,‹π‰®AƒrƒAƒz[ƒ‹,5,Β‚ΆX“S“Ή^ΒX‰w “k•ΰ27• (2156m),False
93,100001362055,LAExKtZj6b-,F‚Ξ‚½ ’Y‚Ξ‚©κ‘γ,40.82528913668246,140.74740893690955,ΒX§ΒXs–{’¬1-1‚Μ9,20619,ΒX,1279,15,0110,‹π‰®AƒrƒAƒz[ƒ‹,4,Β‚ΆX“S“Ή^ΒX‰w “k•ΰ19• (1466m),True
94,100001451883,er_JarJWPXg,’·”φ’†‰Ψ‚»‚Ξ “ƒoƒCƒpƒX“X,40.826428,140.79741309999997,ΒX§ΒXs‚Ν‚ά‚Θ‚·2-5-8,20681,¬–φ(ΒX§),1155,14,0106001,ƒ‰[ƒƒ“,3,Β‚ΆX“S“Ή^¬–φiΒXj‰w “k•ΰ12• (949m),False
95,100000320659,6BJ0UFjaPhE,”‘ΎYΒX’Ο“X,40.81630897,140.78702254999996,ΒX§ΒXs“μ’Ο2-27-17,20752,“ΒX,1019,12,0101,aH,16,Β‚ΆX“S“Ή^“ΒX‰w “k•ΰ11• (850m),True
96,100000880548,DLGtY22RLQE,‘ε‹g‰®,40.82614835116719,140.74527011811733,ΒX§ΒXsV’¬2-7-7,20619,ΒX,1078,13,0106001,ƒ‰[ƒƒ“,15,Β‚ΆX“S“Ή^ΒX‰w “k•ΰ15• (1202m),False
97,100001248620,yVgR07ZSeB-,aH ¦…,40.64819659,140.85103696,ΒX§ΒXsrμ“μrμR1-1 ”b“cƒzƒeƒ‹,,,,,0101014,“V‚Υ‚ηA—g‚°•¨,1,,False
98,100000930277,2Yxanr5FSlo,ƒsƒGƒ‚ƒ“ƒe,40.82634129407,140.74755266721,ΒX§ΒXs–{’¬•S‘γƒrƒ‹ 1F2-3-15,20619,ΒX,1266,15,0102006,ƒCƒ^ƒƒA—Ώ—iƒCƒ^ƒƒAƒ“j,7,Β‚ΆX“S“Ή^ΒX‰w “k•ΰ18• (1446m),True
99,100001494442,wLRIRi2fKgs,Bar Z,40.8247779,140.75083100000006,ΒX§ΒXs‹΄–{1-2-3,20619,ΒX,1618,20,0119001,ƒo[,1,Β‚ΆX“S“Ή^ΒX‰w “k•ΰ24• (1848m),False
0,100000844210,AE4gGjbBFys,‰Ν“¶’ΰ‚Θ‚¨,40.798641,140.75327700000003,ΒX§ΒXs•l“c–L“c124-21,29725,“›δ(ΒX§),2457,30,0102,—mH,13,Β‚ΆX“S“Ή^“ΒX‰w “k•ΰ44• (3460m),False
1,100000832142,GAYD7WWHV96,Δ“χ‘ε“―],40.823661262441846,140.75112279999996,ΒX§ΒXs‹΄–{1-3-11,20619,ΒX,1770,22,0108001,Δ“χ,19,Β‚ΆX“S“Ή^ΒX‰w “k•ΰ24• (1902m),False
2,100000831809,FIwXY1ZB9kY,‚ ‚¨‹S,40.81426894277883,140.776353640112,ΒX§ΒXs’†’Ο1-4-31,20752,“ΒX,851,10,0106001,ƒ‰[ƒƒ“,18,Β‚ΆX“S“Ή^“ΒX‰w “k•ΰ10• (773m),False
3,100001195077,Bqw4G1-zssk,έ–ϋ‰®‚¨T“c,40.828768430153445,140.77117929999997,ΒX§ΒXs‡‰Y1-8-7,20752,“ΒX,2687,33,0106001,ƒ‰[ƒƒ“,26,Β‚ΆX“S“Ή^“ΒX‰w “k•ΰ30• (2374m),False
4,s000198999,sBlVO7z_4jI,‹p@ΒX“X,40.82576522,140.74632023,ΒX§ΒXs–{’¬2-4-10 “cΐƒrƒ‹1F,20619,ΒX,1183,14,0108001,Δ“χ,80,,True
5,100001075825,sAnQ4BWtkfc,Rest Space TOKO,40.82527616633294,140.74743101723993,ΒX§ΒXs–{’¬1-1-9,20619,ΒX,1321,16,0110,‹π‰®AƒrƒAƒz[ƒ‹,4,Β‚ΆX“S“Ή^ΒX‰w “k•ΰ19• (1469m),True
6,100001000031,aZ_udRo4TI6,‚©‚¦‚ι,40.824915729808346,140.73932138438636,ΒX§ΒXsΓμ1-20-5,20619,ΒX,748,9,0110,‹π‰®AƒrƒAƒz[ƒ‹,4,Β‚ΆX“S“Ή^ΒX‰w “k•ΰ9• (675m),True
7,100000763155,ugJrJGv2LpM,‚½‚©u,40.815654970809334,140.76800785429054,ΒX§ΒXsχμ2-17-5,29725,“›δ(ΒX§),1344,16,0102001,ƒXƒe[ƒLAƒnƒ“ƒo[ƒO,10,Β‚ΆX“S“Ή^“›δiΒXj‰w “k•ΰ15• (1150m),True
8,100000963637,UnNc92vokHw,‘ε’J»–ΛHκ ’Ό”„ ’Γy‘ε’J‚»‚Ξ,40.826095507288024,140.7360207116741,ΒX§ΒXsΓμ1-11-1,20619,ΒX,408,5,0101017,‚»‚Ξ,2,Β‚ΆX“S“Ή^ΒX‰w “k•ΰ5• (340m),False
9,100001104234,48a8dSYjMs2,‚Π‚Θ‚½,40.826519988211096,140.74526365387237,ΒX§ΒXsΐ•ϋ2-17-11,20619,ΒX,1068,13,0110,‹π‰®AƒrƒAƒz[ƒ‹,2,,True
10,100000711305,mf1vpsx06HM,ƒVƒƒƒ‹ƒ€,40.891960248433065,140.86176177546304,ΒX§ΒXsσ’u’J5-2,20622,σ’‰·ς,137,1,0102002,ƒpƒXƒ^AƒsƒU,20,Β‚ΆX“S“Ή^σ’‰·ς‰w “k•ΰ2• (121m),False
11,100000321577,d2L1ILjfXU6,‚¤‚ά‚Ά‚ΰ‚Μ‹π‰®η‚β,40.825945915045736,140.74444706805343,ΒX§ΒXsV’¬2-7-19,20619,ΒX,1017,12,0110,‹π‰®AƒrƒAƒz[ƒ‹,6,Β‚ΆX“S“Ή^ΒX‰w “k•ΰ14• (1119m),True
12,100000778350,k39wfc1I11s,‚Θ‚θ‚βE‚Β‚―‚»‚Ξ,40.80592636935871,140.7522231781984,ΒX§ΒXs—Ξ3-8-7,29725,“›δ(ΒX§),1959,24,0106002,‚Β‚―–Λ,11,Β‚ΆX“S“Ή^“›δiΒXj‰w “k•ΰ26• (2029m),True
13,100000925321,wDdG9_Lvpnk,‹υ,40.82572922,140.75169491,ΒX§ΒXs–{’¬5-4-15,20619,ΒX,1648,20,0108001,Δ“χ,4,Β‚ΆX“S“Ή^ΒX‰w “k•ΰ23• (1827m),True
14,100001530376,RgpOSw9wcc2,―”T•,40.827253834854446,140.73777143569183,ΒX§ΒXsV’¬1-9-19,20619,ΒX,422,5,0110,‹π‰®AƒrƒAƒz[ƒ‹,4,Β‚ΆX“S“Ή^ΒX‰w “k•ΰ5• (385m),False
15,100000882856,pUW2ICiWc3g,ƒPƒC,40.82406103270001,140.75175982270014,ΒX§ΒXs‹΄–{1-5-16,20619,ΒX,1786,22,0110002,—m•—‹π‰®,3,Β‚ΆX“S“Ή^ΒX‰w “k•ΰ25• (1957m),False
16,s000199006,wFiOBP5Zg0Y,‹p@ΒX’†‰›ƒCƒ“ƒ^[“X,40.803526,140.74576254,ΒX§ΒXs•l“c1-1-9  ,29725,“›δ(ΒX§),2594,32,0108001,Δ“χ,63,,True
17,100000032706,oiSInLuNQ2s,cafe bar BLUCE,40.823373884504,140.74473381042003,ΒX§ΒXs’·“‡1-6-6 CROSS TOWER A-BAY 2,20619,ΒX,1291,16,0115001,ƒJƒtƒF,9,Β‚ΆX“S“Ή^ΒX‰w “k•ΰ16• (1256m),True
18,t000541561,gP-iA0R7MMA,{Ψ—Ώ— ’—–ƒ,40.8285107,140.741089,ΒX§ΒXsΐ•ϋ2-2-15 ,20619,ΒX,664,8,0101011,“ϊ–{—Ώ—,8,JReόuΒXv‰w‚©‚η“k•ΰ10•BƒAƒXƒpƒ€‚©‚η“μ‚Φ“k•ΰ2•‚®‚η‚Ά‚Ε‚·B,True
19,100001016590,DBvmlrEzj6o,‚³‚ρ,40.825529247106,140.73779993851,ΒX§ΒXsΓμ‚ ‚©‚Ζ‚ρ‚Ϊƒrƒ‹ 2F1-17-1,20619,ΒX,570,7,0110,‹π‰®AƒrƒAƒz[ƒ‹,5,Β‚ΆX“S“Ή^ΒX‰w “k•ΰ6• (487m),True
20,100000050859,A-YQYwl2yBs,uG•},40.826854,140.745116,ΒX§ΒXsΐ•ϋ2-17-4 ƒƒCƒ“ƒ{[‰οΩ1F,20619,ΒX,986,12,0110,‹π‰®AƒrƒAƒz[ƒ‹,18,Β‚ΆX“S“Ή^ΒX‰w “k•ΰ15• (1169m),True
21,100001136032,gV4_50BKHx6,³—§H“°,40.90198863074524,140.85624056633014,ΒX§ΒXsσ’β–{9-30,20622,σ’‰·ς,1516,18,0101031,¥‚ΰ‚ΜA‹¥Aeq¥,4,Β‚ΆX“S“Ή^σ’‰·ς‰w “k•ΰ18• (1391m),False
22,100000799633,w-UUsGx7KqY,κ’Ό,40.8279587221,140.740512875,ΒX§ΒXsΐ•ϋ2-3-17,20619,ΒX,585,7,0110,‹π‰®AƒrƒAƒz[ƒ‹,17,Β‚ΆX“S“Ή^ΒX‰w “k•ΰ8• (646m),False
23,100000320832,WGU7Pbr1a6I,“»‚Μ’ƒ‰®,40.76862067,140.59304635,ΒX§ΒXsQ‰‘εί‰ή‘ς“c50-1,20708,‘εί‰ή,1639,20,0101017,‚»‚Ξ,7,JR‰‰H–{ό(V―`ΒX)^‘εί‰ή‰w “k•ΰ18• (1443m),False
24,100000852147,v2tvq6Lifmw,‹g–μι½,40.82535054807838,140.75237050815053,ΒX§ΒXs‹΄–{1-7-1 YOU&Iƒrƒ‹,20619,ΒX,1701,21,0101,aH,9,Β‚ΆX“S“Ή^ΒX‰w “k•ΰ25• (2000m),False
25,100000835496,Cd7pfk8plRg,‚Ζ‚ρ‚©‚Β‚³‚Ά‚Ζ‚¤,40.817101,140.78787809999994,ΒX§ΒXs¬–φ5-1-1 ƒnƒCƒcO‹¦ 1F,20681,¬–φ(ΒX§),1072,13,0101015,‚Ζ‚ρ‚©‚Β,14,Β‚ΆX“S“Ή^“ΒX‰w “k•ΰ13• (979m),False
26,t100475562,rJUohyA79xU,©—R‘nμ@‚έ‚‚Ζ@‹ΐ‰®,40.8268812,140.750627,ΒX§ΒXs–{’¬5-3-1 ‚υƒrƒ‹1F,20619,ΒX,1451,18,0101033,‹½“y—Ώ—,2,ΒX‰w‚ζ‚θ–{’¬•ϋ–Κ‚ΦV’¬’Κ‚θ‚πi‚έu–{’¬ά’–Ϊvπ·“_ƒ[ƒ\ƒ“‚³‚ρ‚π¶‚Ι“ρ‚Β–Ϊ‚ΜM†‚Μ¶‘¤‚Ι‚ ‚θ‚ά‚·,True
27,100000322369,R5AkT4JksVU,ƒJƒtƒFƒJƒgƒ‹,40.8247402,140.73737908,ΒX§ΒXsΓμ1-16-2,20619,ΒX,659,8,0115001,ƒJƒtƒF,13,Β‚ΆX“S“Ή^ΒX‰w “k•ΰ7• (525m),True
28,100000451351,XJ7A8tLOw62,–Λ–[ \•Ί‰q,40.8060403,140.7538176,ΒX§ΒXs—Ξ3-10-26 ƒC[ƒOƒ‹ƒrƒ‹ƒfƒBƒ“ƒO 1F,29725,“›δ(ΒX§),1708,21,0106001,ƒ‰[ƒƒ“,12,Β‚ΆX“S“Ή^“ΒX‰w “k•ΰ40• (3181m),True
29,100001424140,LqhBjbdBCDQ,ƒtƒƒA[ƒWƒ… ƒXƒEƒB[ƒg,40.798693237701436,140.74935565641408,ΒX§ΒXs•l“c3-1-1,29725,“›δ(ΒX§),2719,33,0102005,ƒtƒ‰ƒ“ƒX—Ώ—iƒtƒƒ“ƒ`j,11,Β‚ΆX“S“Ή^“›δiΒXj‰w “k•ΰ31• (2469m),False
30,100001111454,0hUcvkK2ZRA,’†‰Ψ”Ρ“X@”¦—΄ Q‰“X,40.71891653777007,140.58203544549045,ΒX§ΒXsQ‰™‘ςR³324-3,20740,Q‰,1338,16,0106001,ƒ‰[ƒƒ“,5,JR‰‰H–{ό(V―`ΒX)^Q‰‰w “k•ΰ12• (912m),True
31,100000797474,xJ43rW-qcts,‚ ‚¨‚ΰ‚θ{–΅Ω,40.8283548129267,140.69342018126997,ΒX§ΒXsΞ]‚Τ140-2,20698,VΒX,54,0,01,ƒOƒ‹ƒ,41,JR‰‰H–{ό(V―`ΒX)^VΒX‰w “k•ΰ2• (96m),False
32,100000698672,x5cnksIPUzY,–Ό‘γ‚ΰ‚ΒΔ‚«E‚ΰ‚ΒΟ δΛ’[,40.82897128187051,140.73596762883608,ΒX§ΒXsΐ•ϋ1-3-24,20619,ΒX,182,2,0108003,ƒzƒ‹ƒ‚ƒ“,10,Β‚ΆX“S“Ή^ΒX‰w “k•ΰ2• (141m),False
33,100000866122,uFJZ9s15U4E,‚»‚Ξ@‹g“c‰®,40.82249330,140.74221225,ΒX§ΒXs’·“‡2-13-19,20619,ΒX,1264,15,0101017,‚»‚Ξ,10,Β‚ΆX“S“Ή^ΒX‰w “k•ΰ14• (1060m),False
34,100001136055,_-P4f2XawdA,‚¨‚θ,40.82556500231,140.73930305779004,ΒX§ΒXsV’¬‘ε•ƒrƒ‹ 1F1-15-7,20619,ΒX,696,8,0106001,ƒ‰[ƒƒ“,10,Β‚ΆX“S“Ή^ΒX‰w “k•ΰ8• (613m),False
35,100000832137,-25gPmJjRes,•Zy,40.8258802,140.75537800000006,ΒX§ΒXsΒ–φ2-3-15,20619,ΒX,1953,24,0101011,“ϊ–{—Ώ—,4,Β‚ΆX“S“Ή^ΒX‰w “k•ΰ29• (2312m),False
36,100001297037,enSTS3zWNoY,–Λ‰® ‚Ω‚½‚ι,40.79941775834682,140.76626097559927,ΒX§ΒXs“›δ”ƒc‹΄1377-1,29725,“›δ(ΒX§),949,11,0106001,ƒ‰[ƒƒ“,3,Β‚ΆX“S“Ή^“›δiΒXj‰w “k•ΰ11• (831m),False
37,100000322275,XYnKpIcdd46,‚θ‚ρ‚²’ƒ‰®,40.82604574,140.74613134,ΒX§ΒXs–{’¬2-4-2 O‰Y‰οΩ,20619,ΒX,1154,14,0101011,“ϊ–{—Ώ—,8,Β‚ΆX“S“Ή^ΒX‰w “k•ΰ17• (1298m),False
38,100000832622,TK2kWbAYQCY,“V‚Υ‚ηE‚Ζ‚ρ‚©‚Β “VS,40.81668326,140.76320275,ΒX§ΒXsΌ΄3-9-2 §–―¶‹¦‚ ‚¶‚³‚ΆΩ’“Τκ“ΰ,29725,“›δ(ΒX§),1700,21,0101015,‚Ζ‚ρ‚©‚Β,10,Β‚ΆX“S“Ή^“ΒX‰w “k•ΰ28• (2191m),False
39,100001540012,-6qz_bYa9vQ,‰ΤG@,40.8274721,140.7392373,ΒX§ΒXsV’¬1-10-4,20619,ΒX,475,5,0102005,ƒtƒ‰ƒ“ƒX—Ώ—iƒtƒƒ“ƒ`j,1,Β‚ΆX“S“Ή^ΒX‰w “k•ΰ7• (527m),False
40,100001172904,UqsgQwYLArE,–ΛR ‹ξ–{“X,40.79836440970404,140.7808402883893,ΒX§ΒXs‹ξ‹Λ‚Μ‘ς8-1,29725,“›δ(ΒX§),1595,19,0106001,ƒ‰[ƒƒ“,30,Β‚ΆX“S“Ή^“ΒX‰w “k•ΰ17• (1344m),True
41,100000698964,jFat5KKra5s,Ϋ‹T»–Λ  ΒX“X,40.794131587367644,140.75987219810395,ΒX§ΒXs‘ζ“ρ–β‰®’¬2-3-25,29725,“›δ(ΒX§),1837,22,0101018,‚¤‚Η‚ρ,6,Β‚ΆX“S“Ή^“ΒX‰w “k•ΰ39• (3061m),False
42,100000869332,FBnyrNZSeB-,ƒƒXƒgƒ‰ƒ“ ƒƒh[,40.64819659,140.85103696,ΒX§ΒXsrμ“μrμR1-1 ”b“cƒzƒeƒ‹,,,,,0102006,ƒCƒ^ƒƒA—Ώ—iƒCƒ^ƒƒAƒ“j,4,,False
43,100000742876,jmn4G4Z_ZRU,ΫC–ΒC’†‰Ψ‚»‚Ξ“X,40.823044,140.741732,ΒX§ΒXs’·“‡2-12-3,20619,ΒX,1194,14,0106001,ƒ‰[ƒƒ“,12,Β‚ΆX“S“Ή^ΒX‰w “k•ΰ13• (996m),False
44,100000833640,JtB8_pFcRQM,κ–ν ‚Ά‚Ώ‚Έ‚β,40.8304288072958,140.76999860707906,ΒX§ΒXs`’¬3-7-32,20752,“ΒX,2832,35,0106001,ƒ‰[ƒƒ“,5,Β‚ΆX“S“Ή^“ΒX‰w “k•ΰ33• (2600m),False
45,100001054194,N_bt2sCx4YU,’†‰Ψ‚»‚Ξ‰΅R,40.826276150986,140.74820244822,ΒX§ΒXs–{’¬2-7-18,20619,ΒX,1318,16,0106001,ƒ‰[ƒƒ“,5,Β‚ΆX“S“Ή^ΒX‰w “k•ΰ19• (1518m),False
46,100000722997,IIFE0kdVBEo,”ZϊΒXƒ^ƒ“ƒƒ“ ‚Σ‚½‚²‚β,40.8325548,140.7901052,ΒX§ΒXs‘Ά“Ή1-16-1,20790,–ξ“c‘O,1643,20,0106001,ƒ‰[ƒƒ“,5,Β‚ΆX“S“Ή^¬–φiΒXj‰w “k•ΰ23• (1824m),True
47,100001494422,ukOwaaoRNOw,ι½‹π‰® ‹›‚‚µ,40.8272015,140.74703699999998,ΒX§ΒXs–{’¬2-1-18,20619,ΒX,1157,14,0101,aH,3,Β‚ΆX“S“Ή^ΒX‰w “k•ΰ18• (1383m),True
48,100001277364,JBZ8hLTITGU,‚κ‚·‚Ζ‚η‚ρ άη”N‚Μ―,40.8085973,140.6971132,ΒX§ΒXsO“ΰΫR305,20698,VΒX,2676,33,0111,’θHAH“°,4,JR‰‰H–{ό(V―`ΒX)^VΒX‰w “k•ΰ27• (2136m),True
49,100000320915,xyAaKP9TZ0s,“χ‚Μƒiƒƒ^’Ό‰c“X sκH“°,40.82726768,140.7358985,ΒX§ΒXsV’¬1-3-7 ƒtƒFƒXƒeƒBƒoƒ‹ƒVƒeƒB ƒAƒEƒK V‘Nsκ“ΰ,20619,ΒX,325,4,0101031,¥‚ΰ‚ΜA‹¥Aeq¥,8,Β‚ΆX“S“Ή^ΒX‰w “k•ΰ3• (202m),False
50,100001326218,L70mBsvSfNw,ƒtƒW ƒ^ƒJ ƒiƒXƒr,40.8223997,140.74577869999996,ΒX§ΒXs’†‰›1-1-6,20619,ΒX,1487,18,0101014,“V‚Υ‚ηA—g‚°•¨,2,Β‚ΆX“S“Ή^ΒX‰w “k•ΰ18• (1424m),False
51,100001347525,zOVA9oBbTQE,‹ψƒ_ƒCƒjƒ“ƒO ‚½‚―‚Ό‚¤,40.8264565,140.74596930000007,ΒX§ΒXs–{’¬2-2-14 –{’¬Ω,20619,ΒX,1101,13,0110,‹π‰®AƒrƒAƒz[ƒ‹,9,Β‚ΆX“S“Ή^ΒX‰w “k•ΰ16• (1280m),True
52,100001409120,BDrIVbDMeaI,‚ί‚ρQ,40.81051878374401,140.76178354570948,ΒX§ΒXs‰–μ4-14-23,29725,“›δ(ΒX§),1022,12,0106001,ƒ‰[ƒƒ“,7,Β‚ΆX“S“Ή^“›δiΒXj‰w “k•ΰ14• (1111m),False
53,100001361963,xbB-pPBZad6,‹π‰® S‰q–ε,40.82501437973514,140.74944249447742,ΒX§ΒXs–{’¬1-7-14ƒnƒCƒfƒBƒ“ƒOƒvƒƒCƒX1F,20619,ΒX,1499,18,0110,‹π‰®AƒrƒAƒz[ƒ‹,6,Β‚ΆX“S“Ή^ΒX‰w “k•ΰ22• (1692m),True
54,100000320584,ovE6laZLXNQ,’©sυi,40.82769265,140.73689843,ΒX§ΒXsV’¬1-9-23,20619,ΒX,335,4,0101,aH,21,Β‚ΆX“S“Ή^ΒX‰w “k•ΰ4• (263m),False
55,100000854622,_PmoaXjHOxE,σ,40.8267182735,140.74009810400003,ΒX§ΒXsV’¬2-1-16,20619,ΒX,624,7,0102,—mH,12,Β‚ΆX“S“Ή^ΒX‰w “k•ΰ8• (633m),False
56,100001053341,6x8aVJVNxqo,ƒsƒ\ƒ[ƒm ΒX“X,40.80135037089552,140.74057950000002,ΒX§ΒXs“‘ε–μ1-7-12,29725,“›δ(ΒX§),3236,40,0103001,ƒoƒCƒLƒ“ƒO,6,Β‚ΆX“S“Ή^ΒX‰w “k•ΰ39• (3127m),True
57,t100479470,rFv6ns_SQ_6,–²—‚Μ‚β,40.8254943,140.7576283,ΒX§ΒXs’η’¬κ’–Ϊ6-1 ,20619,ΒX,2145,26,0108001,Δ“χ,,,True
58,100001337411,XCCMU9JMDGo,θ‘Ε‚»‚Ξ φ,40.82623791846515,140.74301563579024,ΒX§ΒXsV’¬2-6-21,20619,ΒX,865,10,0101017,‚»‚Ξ,4,Β‚ΆX“S“Ή^ΒX‰w “k•ΰ13• (968m),False
59,100000524123,8nNHU0RCg3g,–Λ‰® ‚µ‚γ‚Ν‚θ,40.81612034655482,140.76486882128756,ΒX§ΒXsΌ΄3-15,29725,“›δ(ΒX§),1611,20,0106001,ƒ‰[ƒƒ“,11,Β‚ΆX“S“Ή^“ΒX‰w “k•ΰ26• (2020m),False
60,100000817781,hO4x4c7TRcI,‚Ζ‚θ­,40.8212998968544,140.75409673354204,ΒX§ΒXs‹΄–{3-20-1,20619,ΒX,2221,27,0101025,Δ‚«’Ή,9,Β‚ΆX“S“Ή^ΒX‰w “k•ΰ29• (2299m),False
61,s000232830,P7G0KmcgxO2,ƒJƒ‰ƒIƒP ƒWƒ‡ƒCƒTƒEƒ“ƒh ΒXV’¬“X,40.82547079,140.74506753,ΒX§ΒXsV’¬2-8-7 ‚P‚e,20619,ΒX,1067,13,0124002,ƒJƒ‰ƒIƒPƒ{ƒbƒNƒX,8,,True
62,100001481965,HVVTAPIvM_c,Δ‚«’Ή‚Ν‚ά‚Ώ‚α‚ρ,40.8225149,140.74039849999997,ΒX§ΒXs’·“‡2-4-12,20619,ΒX,1143,14,0101025,Δ‚«’Ή,3,Β‚ΆX“S“Ή^ΒX‰w “k•ΰ12• (947m),False
63,100000799678,987OxkOC0_E,‚Ν‚Ώ‚ΰ‚θ‚η[‚ί‚ρ,40.7882952031,140.75987288,ΒX§ΒXs–β‰®’¬2-10-3,29725,“›δ(ΒX§),2671,33,0106001,ƒ‰[ƒƒ“,8,Β‚ΆX“S“Ή^“ΒX‰w “k•ΰ44• (3483m),False
64,100001179071,EJZXGkGy7uE,΄“c»–Λ ©‰Ζ»–Λ‚β‚«‚»‚Ξ“X,40.798643108598114,140.7895438366986,ΒX§ΒXs‹ξ©‹g169-1,29725,“›δ(ΒX§),2032,25,0128001,‚»‚Μ‘Ό,9,Β‚ΆX“S“Ή^“ΒX‰w “k•ΰ19• (1454m),False
65,100000037177,dvBOGCg8Cug,‚ά‚ι‚Θ‚¨,40.8186566850992,140.718024373051,ΒX§ΒXsΌ‘κ2-18-12,20619,ΒX,2081,26,0101018,‚¤‚Η‚ρ,15,Β‚ΆX“S“Ή^ΒX‰w “k•ΰ27• (2163m),False
66,100001502031,b676P8BJx9w,‹i’ƒ ‚½‚ρ‚Ϋ‚Ϋ,40.69784662918147,140.91438889323672,ΒX§ΒXs‹ξ[‘ς761-16,,,,,0115002,‹i’ƒ“X,1,,False
67,100001023993,nyKRROXHtUQ,at home Τ‚Ά‚½‚·‚«,40.826350133644,140.74921362787,ΒX§ΒXs–{’¬ƒoƒbƒJƒXƒrƒ‹2-10-19,20619,ΒX,1387,17,0101031,¥‚ΰ‚ΜA‹¥Aeq¥,8,Β‚ΆX“S“Ή^ΒX‰w “k•ΰ21• (1627m),False
68,100000816407,aBu6HLDu3Uo,‹›‚Α‹ς‚Ά‚Μ“c@ƒEƒ‰ƒbƒZ“X,40.82954149581931,140.7359629730164,ΒX§ΒXsΐ•ϋ1-1-1 ‚Λ‚Τ‚½‚Μ‰Ζ ƒ¥ƒ‰ƒbƒZ1K,20619,ΒX,175,2,0101,aH,5,Β‚ΆX“S“Ή^ΒX‰w “k•ΰ2• (167m),True
69,100001214818,5un7lVzgNck,ΒXƒZƒ“ƒ^[ƒzƒeƒ‹ ‚Σ‚ι‰Ν’ΰ,40.8247700245099,140.73535790443418,ΒX§ΒXsΓμΒX‚ά‚Ώ‚Θ‚©‚¨‚ρ‚Ή‚ρ 1-10-9-14,20619,ΒX,577,7,0110,‹π‰®AƒrƒAƒz[ƒ‹,5,Β‚ΆX“S“Ή^ΒX‰w “k•ΰ6• (438m),True
70,100000320745,8C4aItGn5fo,’Ή…,40.82593461,140.74412034,ΒX§ΒXsV’¬2-7-18,20619,ΒX,966,12,0101025,Δ‚«’Ή,11,Β‚ΆX“S“Ή^ΒX‰w “k•ΰ14• (1085m),False
71,100001049777,UFcStOVngDU,θ‘Ε‚Ώ‹Ό” –³C,40.841716095816,140.71232006964,ΒX§ΒXsV“c2-19-10,20619,ΒX,2426,30,0101017,‚»‚Ξ,5,JR‰‰H–{ό(V―`ΒX)^VΒX‰w “k•ΰ33• (2623m),False
72,s000263630,25QqXCLnhag,ƒJƒ‰ƒIƒP—VΩ@ΒXΟυ’Κ“X,40.80194316,140.75727275,ΒX§ΒXs‘ε•l“c‹Κμ343  ,29725,“›δ(ΒX§),1727,21,0124002,ƒJƒ‰ƒIƒPƒ{ƒbƒNƒX,1,,True
73,100001522689,LT8ezo93AYY,ƒ‰[ƒƒ“ N‰Ζ,40.8062116,140.75090269999998,ΒX§ΒXs—Ξ3-4-12,29725,“›δ(ΒX§),2073,25,0106001,ƒ‰[ƒƒ“,18,Β‚ΆX“S“Ή^“›δiΒXj‰w “k•ΰ28• (2176m),False
74,100000938423,qj23TG-qcts,”ό–΅RC VΒX‰w“X,40.828374129386,140.69345486771,ΒX§ΒXsΞ]VΒX‰w 2F‚Τ140-2,20698,VΒX,59,0,0101,aH,10,JR‰‰H–{ό(V―`ΒX)^VΒX‰w “k•ΰ2• (98m),False
75,100000852898,D6Oy8kEoUYA,‹π‰® άY,40.82493505880905,140.75131774236058,ΒX§ΒXs‹΄–{1-1-9 ‚ά‚Β‚β‰οΩ2K,20619,ΒX,1670,20,0110,‹π‰®AƒrƒAƒz[ƒ‹,4,Β‚ΆX“S“Ή^ΒX‰w “k•ΰ24• (1886m),True
76,100001212901,fS4dosjrDek,–ΎΩ,40.82760945958324,140.73872407674787,ΒX§ΒXsV’¬1-10-1,20619,ΒX,429,5,0108001,Δ“χ,9,Β‚ΆX“S“Ή^ΒX‰w “k•ΰ6• (458m),False
77,100000322645,y8CpAINgbO-,’σ‚Μ,40.82495151,140.75075332999995,ΒX§ΒXs‹΄–{1-1-13,20619,ΒX,1629,20,0101003,„‚Ϋ‚¤,3,Β‚ΆX“S“Ή^ΒX‰w “k•ΰ23• (1825m),True
78,t100046215,th2EaUDfeU-,ƒXƒy[ƒXƒNƒƒGƒCƒg@©—V‹σΤ@ΒXΌƒoƒCƒpƒX“X,40.8338613,140.7016394,ΒX§ΒXsOD2’–Ϊ3-19 ,20698,VΒX,1402,17,0115004,ƒCƒ“ƒ^[ƒlƒbƒgƒJƒtƒF,2,,False
79,t100510790,xH-qenimTZs,‘K`•½“ρ,40.8259338,140.7471598,ΒX§ΒXs–{’¬2-5-3 ƒtƒ@ƒXƒg–{Ω103,20619,ΒX,1247,15,0110001,a•—‹π‰®,3,Β‚ΆX“S“Ή^ΒX‰w “k•ΰ18• (1436m),True
80,100000738641,pVbTOzAP1ug,WS,40.827403,140.67651109999997,ΒX§ΒXsVι•½‰174-34,20718,’ΓyVι,525,6,0106001,ƒ‰[ƒƒ“,10,JR‰‰H–{ό(V―`ΒX)^’ΓyVι‰w “k•ΰ7• (503m),False
81,100000731056,I_P0oGXwzsc,VΆE,40.823722,140.745806,ΒX§ΒXs–{’¬1-2-1,20619,ΒX,1319,16,0108003,ƒzƒ‹ƒ‚ƒ“,23,Β‚ΆX“S“Ή^ΒX‰w “k•ΰ17• (1346m),True
82,100001265683,w-neSobJ3Ic,‚ΰ‚ΒΔ‚« ‚±‚µ‚―‚ρ,40.8257135,140.75139220000005,ΒX§ΒXs–{’¬5-4-16,20619,ΒX,1623,20,0110,‹π‰®AƒrƒAƒz[ƒ‹,2,Β‚ΆX“S“Ή^ΒX‰w “k•ΰ24• (1877m),False
83,100000320561,3UlYkFVoREY,‚©‚‚β,40.8227982779876,140.75534212190314,ΒX§ΒXs’η’¬2-3-3,20619,ΒX,2236,27,0101002,‰οΘ—Ώ—,7,Β‚ΆX“S“Ή^ΒX‰w “k•ΰ30• (2389m),False
84,100001389446,cMgEXdpdx4c,πΨ ‚Ν‚Β‰Τ,40.8271963,140.7394845,ΒX§ΒXsV’¬1-11-6,20619,ΒX,526,6,0101,aH,2,Β‚ΆX“S“Ή^ΒX‰w “k•ΰ7• (563m),False
85,100000322191,4wBzgpyHNW-,‚ή‚Βp‚Μ–΅@C‹¬‚Μ—Ά,40.82529036,140.75087553,ΒX§ΒXs‹΄–{1-1-2,20619,ΒX,1574,19,0101034,C‘N—Ώ—,2,Β‚ΆX“S“Ή^ΒX‰w “k•ΰ23• (1830m),False
86,100001485909,EkSXcH68iu6,NATURE CAFE,40.82275195944584,140.75429180000003,ΒX§ΒXs‹΄–{2-19-13,20619,ΒX,2136,26,0115001,ƒJƒtƒF,1,Β‚ΆX“S“Ή^ΒX‰w “k•ΰ29• (2279m),False
87,100001441605,G_VeRVmvefE,ƒ‰ƒ@ƒƒ“ ‚Ϊ[‚ρ‚Έ,40.79108540868682,140.76067023408746,ΒX§ΒXs–β‰®’¬1-2-10,29725,“›δ(ΒX§),2179,27,0106001,ƒ‰[ƒƒ“,6,Β‚ΆX“S“Ή^“›δiΒXj‰w “k•ΰ25• (1945m),False
88,100000050720,lO2ng-58o7s,{–Λ,40.812595,140.746337,ΒX§ΒXsj–Ψ3-1-1,29725,“›δ(ΒX§),2475,30,0106001,ƒ‰[ƒƒ“,13,Β‚ΆX“S“Ή^ΒX‰w “k•ΰ28• (2200m),False
89,100001267758,5dnLSxuKpWg,LINCE Osteria e Bacaro,40.82600458730413,140.74361296778227,ΒX§ΒXsV’¬2-6-18,20619,ΒX,935,11,0102006,ƒCƒ^ƒƒA—Ώ—iƒCƒ^ƒƒAƒ“j,6,Β‚ΆX“S“Ή^ΒX‰w “k•ΰ13• (1039m),False
90,100001014542,LvF8J5uNQ2s,ƒƒbƒ`ƒ‚ƒ“ƒhƒzƒeƒ‹ ΒX ’©H‰οκ,40.82341544802067,140.74481489999994,ΒX§ΒXs’·“‡1-6-6 ƒNƒƒXƒ^ƒ[ƒA¥ƒxƒC,20619,ΒX,1320,16,0304001,ƒzƒeƒ‹,77,Β‚ΆX“S“Ή^ΒX‰w “k•ΰ16• (1275m),False
91,100001190994,kYFNgt7oGI2,‘Dκυi,40.825249,140.753872,ΒX§ΒXs‹΄–{1-9-10,20619,ΒX,1874,23,0101,aH,5,Β‚ΆX“S“Ή^ΒX‰w “k•ΰ27• (2158m),False
92,0002115690,GYbSaC5CefA,‘επ‹›‹ς ’ΓyC‹¬ H’n‚Α‚±,40.82490431,140.75210048,ΒX§ΒXs‹΄–{1’–Ϊ5-4,20619,ΒX,1722,21,0110001,a•—‹π‰®,8,JRΒX‰w Τ10• ΒXs‰cƒoƒX NTTΒXx“X‘O’β—― “k•ΰ5•,True
93,100001205030,eqKUqUV5NYM,‚η[‚ί‚ρ ‚¨‚λ‚Ώ,40.85444514579652,140.69565852880476,ΒX§ΒXs–ϋμ‘ε•l154-1,20625,–ϋμ,672,8,0106001,ƒ‰[ƒƒ“,5,JR’Γyό^–ϋμ‰w “k•ΰ8• (643m),False
94,s000229732,-doJkhGJ67g,”όπE‘nΨƒ_ƒCƒjƒ“ƒO”JX‰Ζ@ΒXΌ“X,40.82898115,140.70663877,ΒX§ΒXsΞ]OD145-6  ,20698,VΒX,1595,19,0110001,a•—‹π‰®,9,,True
95,100000878110,rrdx5iDn2KQ,ƒAƒfƒbƒ\,40.851944871694954,140.6990529173196,ΒX§ΒXs–ϋμ‘ε•l1-1,20625,–ϋμ,1074,13,0102006,ƒCƒ^ƒƒA—Ώ—iƒCƒ^ƒƒAƒ“j,10,JR’Γyό^–ϋμ‰w “k•ΰ14• (1107m),True
96,s000243807,Hi_Kp90hf0A,‹›–―@ΒX‰w‘O“X,40.828073,140.735899,ΒX§ΒXsV’¬1-1-18 ΒXƒ}ƒ‹ƒTƒrƒ‹ 1K,20619,ΒX,242,3,0110001,a•—‹π‰®,4,,True
97,100000729106,8ygZY2BaYS6,R…‰‘,40.8220747,140.7431789,ΒX§ΒXs’·“‡2-18-13,20619,ΒX,1352,16,0106001,ƒ‰[ƒƒ“,9,Β‚ΆX“S“Ή^ΒX‰w “k•ΰ15• (1189m),False
98,t010818,6cLfXtVn2Co,O‘γ–Ϊ–Τ³ ‹›‘N…Y ΒX‰w‘OV’¬“X,40.82673443,140.73794563,ΒX§ΒXsV’¬1-8-10 ƒg[ƒG[ƒvƒ‰ƒUB1,20619,ΒX,472,5,0110,‹π‰®AƒrƒAƒz[ƒ‹,0,‚i‚qΒX‰w‚©‚ηƒ[ƒ^ƒ[EƒoƒXƒ^[ƒ~ƒiƒ‹‚‚ ‚ιoϋ‚πo‚Δ“k•ΰ5•Iƒ_ƒCƒ\[‚³‚ρ‚Ζ“―‚¶ƒrƒ‹‚Μ’n‰Ί1K,True
99,100001315431,vh4920ITqAM,Casual restaurant Kukka ΒX‘Ϋƒzƒeƒ‹,40.82627983318497,140.73657980620862,ΒX§ΒXsV’¬1-6-18 ΒX‘Ϋƒzƒeƒ‹1F,20619,ΒX,463,5,0102,—mH,4,Β‚ΆX“S“Ή^ΒX‰w “k•ΰ5• (354m),True
0,s000292886,45u4RCQSLr2,πΨ‚Μ‰B‚κ‰Ζ@‚ ‚©‚θ@ΒX‰w‘O“X,40.82687886,140.7375762,ΒX§ΒXsV’¬1-8-12 ‹ΰ—Fƒrƒ‹1F,20619,ΒX,438,5,0110001,a•—‹π‰®,11,,False
1,100000321588,A6F4XAyIEoU,Ξ”Lπ‰Ζ,40.82522645,140.74968116,ΒX§ΒXs–{’¬1-7-6 —ωΆΩƒrƒ‹2F,20619,ΒX,1480,18,0102,—mH,4,Β‚ΆX“S“Ή^ΒX‰w “k•ΰ22• (1702m),True
2,s000243845,WOhANbHby5E,ΞΞ@ΒX‰w‘O“X,40.828,140.7361199999,ΒX§ΒXsV’¬1-1-16 13.ƒ‚ƒ“ƒeƒ[ƒUΒXƒrƒ‹ 2K,20619,ΒX,264,3,0110001,a•—‹π‰®,4,,True
3,100000832143,EsL6bhHVdLw,‚κ‚ρ‚’ΰ,40.8078124,140.7532926,ΒX§ΒXs—Ξ3-9-2 ƒTƒ“ƒ[ƒhΒX 3F,29725,“›δ(ΒX§),1795,22,0107001,ƒJƒ[,17,Β‚ΆX“S“Ή^ΒX‰w “k•ΰ39• (3099m),False
4,100001135169,sbqpLuR_T4k,ƒXƒLƒbƒvƒGƒbƒO A-Factory“X,40.830291099641,140.73516738781,ΒX§ΒXs–φμA-Factory1-4-2,20619,ΒX,246,3,0118,ƒXƒC[ƒc,4,Β‚ΆX“S“Ή^ΒX‰w “k•ΰ3• (186m),False
5,s000212199,cFXmNNOPD4w,‚µ‚α‚Τ‚µ‚α‚Τ‰·–μΨ ΒX’†‰›ƒCƒ“ƒ^[“X,40.79453575,140.76028362,ΒX§ΒXs‘ζ“ρ–β‰®’¬2-3-5  ,29725,“›δ(ΒX§),1784,22,0101022,‚µ‚α‚Τ‚µ‚α‚Τ,24,,True
6,s000078389,9LxnFN_O2kI,R“ΰ”_κ@ΒX‰w‘O“X,40.828171,140.735915,ΒX§ΒXsV’¬1-1-18 ΒXƒ}ƒ‹ƒTƒrƒ‹ 2K,20619,ΒX,212,2,0110001,a•—‹π‰®,8,,True
7,100000321288,FwoQL55huxw,ƒƒXƒ^ƒEƒ‰ƒ“ƒeEƒOƒ‰ƒiƒ_,40.82490045848774,140.74589761212962,ΒX§ΒXs–{’¬1-1-35,20619,ΒX,1194,14,0102007,ƒXƒyƒCƒ“—Ώ—,3,Β‚ΆX“S“Ή^ΒX‰w “k•ΰ17• (1319m),False
8,100001166428,rWsCfTvpCgg,ΒX§—§”όpΩ ƒJƒtƒF4•C‚Μ”L,40.80731593466981,140.70076667773435,ΒX§ΒXsΐ“c‹ί–μ185-2ΒX§—§”όpΩ“ΰ2K,20698,VΒX,3032,37,0115001,ƒJƒtƒF,8,JR‰‰H–{ό(V―`ΒX)^VΒX‰w “k•ΰ30• (2382m),True
9,100000320556,z82WivIBcwU,‚¤‚¨‚θ,40.83007219399018,140.72818191035662,ΒX§ΒXs–φμ2-4-20,20619,ΒX,422,5,0101001,‰ωΞ—Ώ—,2,Β‚ΆX“S“Ή^ΒX‰w “k•ΰ10• (744m),False
10,100001353282,KGb188tVsvk,ƒoƒ‹1~1=ichi,40.82725125443898,140.73776701632895,ΒX§ΒXsV’¬1-9-19,20619,ΒX,421,5,0110002,—m•—‹π‰®,2,Β‚ΆX“S“Ή^ΒX‰w “k•ΰ5• (385m),True
11,100001331164,uakFUfrpEnk,–Λ‰® κγΔ,40.80233010758693,140.7247198,ΒX§ΒXsΌ‘ε–μ3-4-12,20619,ΒX,3387,42,0106001,ƒ‰[ƒƒ“,8,Β‚ΆX“S“Ή^ΒX‰w “k•ΰ40• (3145m),True
12,100001426787,pKDhVp9JYMs,Ο±‹Π ξ”Mƒrƒ[,40.8278742054365,140.70789077668644,ΒX§ΒXsΞ]‰•”61-4,20698,VΒX,1663,20,0106001,ƒ‰[ƒƒ“,7,JR‰‰H–{ό(V―`ΒX)^VΒX‰w “k•ΰ20• (1544m),False
13,100001326216,ykDwk64JYUw,Bistro glis glis,40.82851663704458,140.74916425747438,ΒX§ΒXs–{’¬3-7-20,20619,ΒX,1402,17,0102006,ƒCƒ^ƒƒA—Ώ—iƒCƒ^ƒƒAƒ“j,1,Β‚ΆX“S“Ή^ΒX‰w “k•ΰ20• (1607m),False
14,t000059845,z3s5Esf0Yws,‹π‰® ‚¨‚Ά‚η‚Ή,40.8254098,140.754022,ΒX§ΒXs‹΄–{1-8-26 ,20619,ΒX,1897,23,0110001,a•—‹π‰®,1,ΒX‰w‚ζ‚θ“k•ΰ20•B‰w‚πo‚Δ–Ϊ‚Μ‘O‚Μ“Ή‚Μ‘ε’Κ‚θ‚π’ΌiBƒzƒeƒ‹ƒNƒ‰ƒEƒ“ ƒpƒƒXΒX‚Μό‚©‚Ά‚Ι‚²‚΄‚Ά‚ά‚·I,True
15,100001319701,poCwQfrBl1E,ΒX‚«‚Α‚Ώ‚ρ POPE,40.82850183928381,140.73568154430393,ΒX§ΒXsV’¬1-1-23,20619,ΒX,153,1,0101034,C‘N—Ώ—,6,Β‚ΆX“S“Ή^ΒX‰w “k•ΰ2• (117m),False
16,100000814860,H5ay8QQW3Ck,’Y‰ΞΔƒzƒ‹ƒ‚ƒ“‚½‚Β‚β,40.82734826,140.73782617,ΒX§ΒXsV’¬1-9-19,20619,ΒX,432,5,0108003,ƒzƒ‹ƒ‚ƒ“,6,Β‚ΆX“S“Ή^ΒX‰w “k•ΰ4• (327m),False
17,100001383506,ohKhpKGUUgs,ƒXƒe[ƒL&ƒnƒ“ƒo[ƒO ƒ_ƒ“ƒfƒ‰ƒCƒIƒ“,40.8260269,140.7382596,ΒX§ΒXsV’¬1-12-14,20619,ΒX,601,7,0102001,ƒXƒe[ƒLAƒnƒ“ƒo[ƒO,6,Β‚ΆX“S“Ή^ΒX‰w “k•ΰ7• (505m),True
18,100000793235,IanwKdrePgM,ƒzƒeƒ‹ΒX,40.825222,140.755406,ΒX§ΒXs’η’¬1-1-23,20619,ΒX,1992,24,0101001,‰ωΞ—Ώ—,44,Β‚ΆX“S“Ή^ΒX‰w “k•ΰ29• (2326m),False
19,100001458326,vNkiC2efG-Q,‚Ω‚Α‚±‚θ‚²‚Ν‚ρ‰®•γ,40.816684,140.7632026,ΒX§ΒXsΌ΄3-9-2,29725,“›δ(ΒX§),1700,21,0111,’θHAH“°,6,Β‚ΆX“S“Ή^“›δiΒXj‰w “k•ΰ19• (1474m),True
20,100001388653,_bkveBuc1KU,Rocket&Co.,40.82721129999999,140.7354189,ΒX§ΒXsV’¬1-3-34,20619,ΒX,205,2,0119007,ƒƒCƒ“ƒo[,5,Β‚ΆX“S“Ή^ΒX‰w “k•ΰ3• (199m),True
21,100000837076,M9ort_SN9bM,ƒƒXƒgƒ‰ƒ“@“π›—Ά,40.82235660348517,140.77264140641864,ΒX§ΒXs‰Τ‰€2-9-30 ƒ}ƒ“ƒVƒ‡ƒ“b“c102,20752,“ΒX,1914,23,0102,—mH,4,Β‚ΆX“S“Ή^“ΒX‰w “k•ΰ22• (1695m),False
22,100000320834,hKWf6a6rCPU,‚Ι‚µ•x,40.70741239,140.58164392,ΒX§ΒXsQ‰—­‘ς“‰Τ‰17-8,20740,Q‰,630,7,0101017,‚»‚Ξ,3,JR‰‰H–{ό(V―`ΒX)^Q‰‰w “k•ΰ5• (329m),False
23,100000321514,tS2ZCsf0Yws,‹π‰®‘ε”»¬”»,40.82545707,140.7539059,ΒX§ΒXs‹΄–{1-8-4,20619,ΒX,1834,22,0101034,C‘N—Ώ—,3,Β‚ΆX“S“Ή^ΒX‰w “k•ΰ27• (2157m),True
24,100001473313,_s7mwaEcw8o,—§H‚Ά‚»‚Ξ ’Γy,40.82705543673116,140.7339087895666,ΒX§ΒXs–φμ1-2-3,20619,ΒX,207,2,0101017,‚»‚Ξ,3,Β‚ΆX“S“Ή^ΒX‰w “k•ΰ3• (218m),False
25,100001242092,6lpRYhBL3Bs,‚η[‚ί‚ρ‹σC,40.825121753923895,140.7490418294998,ΒX§ΒXs–{’¬1-5-10,20619,ΒX,1454,18,0106001,ƒ‰[ƒƒ“,9,Β‚ΆX“S“Ή^ΒX‰w “k•ΰ21• (1636m),True
26,0006074226,jEhF69JqBNQ,ƒtƒ‰ƒ“ƒX—Ώ— ƒ|ƒ~ƒG,40.82265185,140.75556152,ΒX§ΒXs’η’¬2-3-15,20619,ΒX,2234,27,0102005,ƒtƒ‰ƒ“ƒX—Ώ—iƒtƒƒ“ƒ`j,6,JR‰‰H–{όAJR’ΓyόuΒX‰wv‚ζ‚θ“k•ΰ30•‚Μ‚Ζ‚±‚λ‚Ι‚ ‚θ‚ά‚·,True
27,0006133406,Am4bvXEHRwU,ΒXC‘N‹π‰® R‚΄‚Ζ,40.82608736,140.74337870,ΒX§ΒXsV’¬2-6-19,20619,ΒX,906,11,0110001,a•—‹π‰®,2,ΒX‰w“ϋ‚ζ‚θ“k•ΰ5•BV’¬’Κ‚θ‰‚ΆB,False
28,100000322042,lBJDb6Of3WI,ƒnƒ“ƒo[ƒO‚Μ“X­,40.82357639,140.7342654,ΒX§ΒXsΓμ2-4-4,20619,ΒX,634,7,0102001,ƒXƒe[ƒLAƒnƒ“ƒo[ƒO,8,Β‚ΆX“S“Ή^ΒX‰w “k•ΰ8• (568m),False
29,0006133414,lonvrAFdASA,¶ƒ‰ƒ€ƒWƒ“ƒMƒXƒJƒ“ —Ρη‰Ζ Γμ“X,40.82479299,140.73844846,ΒX§ΒXsΓμ1-18-10,20619,ΒX,731,9,0108001,Δ“χ,,eόuΒXv‰w‚ζ‚θ“k•ΰ8•‚Ε‚·Bum‰ο“c‘Ίγ‰@‚Μ“μ‘¤‚Ε‚·B,True
30,100001495156,gtm9gUZ7frc,NOUONURS ƒkƒk[ƒX,40.8277526828762,140.7416810153269,ΒX§ΒXsΐ•ϋ2-3-10,20619,ΒX,679,8,0102002,ƒpƒXƒ^AƒsƒU,1,Β‚ΆX“S“Ή^ΒX‰w “k•ΰ10• (785m),True
31,100000699815,1Jx45byId4o,ROYAL CAFE@ΒX‹σ`“X,40.738351,140.68916250000007,ΒX§ΒXs‘ε’J¬’J1-5 ΒX‹σ`ƒ^[ƒ~ƒiƒ‹ƒrƒ‹ 2F,,,,,0102002,ƒpƒXƒ^AƒsƒU,8,JR‰‰H–{ό(V―`ΒX)^’ίƒ–β‰w “k•ΰ106• (8412m),False
32,100001489389,M_bdKAR8Cek,ΒX’†‰Ψ‚»‚Ξ ƒI[ƒ‹ƒEƒFƒCƒY,40.78313818399546,140.76456991157,ΒX§ΒXs–μK΅“c46-1,29725,“›δ(ΒX§),3125,39,0106001,ƒ‰[ƒƒ“,14,Β‚ΆX“S“Ή^“›δiΒXj‰w “k•ΰ33• (2578m),False
33,t946205,PcyexxZdWjQ,‘εΛ‰® ‚²‚Ν‚ρ ΒXV’¬’Κ‚θ“X,40.82701218,140.73748453,ΒX§ΒXsV’¬1-8-6,20619,ΒX,415,5,0111001,’θHAH“°,3,,False
34,100000696249,_hRWLaShZC-,ƒXƒe[ƒL‹{ ΒX“X,40.8089356874078,140.754281469525,ΒX§ΒXs‰Y’¬‰–μ612,29725,“›δ(ΒX§),1563,19,0102001,ƒXƒe[ƒLAƒnƒ“ƒo[ƒO,14,Β‚ΆX“S“Ή^ΒX‰w “k•ΰ39• (3083m),True
35,s000285815,xXciAJl3IYk,‚Ν‚µ‚ΰ‚ΖεM‚«,40.82799833,140.74756727,ΒX§ΒXs–{’¬3-3-7  ,20619,ΒX,1240,15,0110001,a•—‹π‰®,1,,True
36,0006134601,rhJQnxaAW1A,ƒƒXƒgƒ‰ƒ“ ƒJƒV[ [ Cassis ],40.81250081,140.77684035,ΒX§ΒXsΌX3-20-52,20752,“ΒX,601,7,0102005,ƒtƒ‰ƒ“ƒX—Ώ—iƒtƒƒ“ƒ`j,3,u“΅“c‘g’Κ‚θv‰‚ΆAƒKƒ\ƒƒ“ƒXƒ^ƒ“ƒhό‚©‚Ά‚Μ”’‚Ά•¨AΒ‚ΆΕ”ΒBƒoƒX——p‚Μκ‡‚Νu’Οv‰ΊΤ “k•ΰ1•B,True
37,0006106086,yCaLLLOYRQ-,‚¨‚ρ‚ΈH“°,40.82686774,140.73716789,ΒX§ΒXsV’¬1-8-5 ƒpƒT[ƒWƒ…Lκ,20619,ΒX,438,5,0110001,a•—‹π‰®,,JR‰‰H–{όEJR’ΓyόEΒ‚ΆX“S“ΉόuΒX‰wv“ϋ‚ζ‚θ“k•ΰ5•BV’¬’Κ‚θ‚πi‚έ‰Eθ‚ΜƒpƒT[ƒWƒ…Lκ“ΰB,True
38,100001197935,WdDTsOfhoxc,­“ΰH“°,40.71207319660875,140.5568289756775,ΒX§ΒXsQ‰’M‘ς‘Ί³315-5,20740,Q‰,2554,31,0128001,‚»‚Μ‘Ό,4,JR‰‰H–{ό(V―`ΒX)^Q‰‰w “k•ΰ34• (2654m),False
39,0006025016,p85xcVLZIu2,ƒLƒbƒ`ƒ“EƒJƒtƒF‚―‚β‚«,40.81061957,140.74131824,ΒX§ΒXs®’¬3-13-47 –Ψ‘Ίƒrƒ‹1F,20619,ΒX,2594,32,0102004,—mHi‚»‚Μ‘Όj,5,ΒX‰w‚ζ‚θ–φ’¬π·“_‚π’†‰›‘ε‹΄•ϋό‚ΦB‹΄‚π“n‚θΨ‚θ‚·‚®‰Eά‚µ‚½‚Ζ‚±‚λ‚Ι‚ ‚θ‚ά‚·B‰w‚©‚ηΤ‚Ε10•‚Ε‚·B,True
40,100001275520,-l0XAazt-Ew,–³“Y ‚­‚ηυi ΒX—Ξ“X,40.80701217260194,140.75434794425962,ΒX§ΒXs—Ξ3-10-6,29725,“›δ(ΒX§),1698,21,0101013,‰ρ“]υi,5,Β‚ΆX“S“Ή^“›δiΒXj‰w “k•ΰ23• (1805m),True
41,0006125107,Et1K2giSjD-,‘ε‰ξ‚Μ“X,40.82805932,140.74023157,ΒX§ΒXsΐ•ϋ1-10-9,20619,ΒX,589,7,0102005,ƒtƒ‰ƒ“ƒX—Ώ—iƒtƒƒ“ƒ`j,0,ΒX‰w“ϋ‚ζ‚θ“k•ΰ8•BƒAƒXƒpƒ€’Κ‚θ‚Ιδΐ‚Ά‚ά‚·B,False
42,0004000034,kiwNSvciEpQ,”‘½‚ΰ‚Β“η R‘P ΒX“X,40.82742067,140.75003659,ΒX§ΒXs–{’¬2-9-8,20619,ΒX,1476,18,0109001,“η—Ώ—,6,–{’¬ƒX[ƒp[ƒzƒeƒ‹‚ζ‚θ“k•ΰ5•,False
43,100000321218,sUGpqB8-8Vk,ƒ‰[ƒƒ“‚³‚ρ‚Ο‚ΏΒX“X,40.83005698,140.77172634,ΒX§ΒXs`’¬3-11-6,20752,“ΒX,2732,34,0106001,ƒ‰[ƒƒ“,12,Β‚ΆX“S“Ή^“ΒX‰w “k•ΰ31• (2469m),False
44,100001274343,kUmpoRWbxmg,’†‰Ψ‚»‚Ξ ‘q“ΰ,40.80351302297946,140.7066703379154,ΒX§ΒXsΐ“c‹ί–μ153-9,20698,VΒX,3644,45,0106001,ƒ‰[ƒƒ“,6,JR‰‰H–{ό(V―`ΒX)^VΒX‰w “k•ΰ38• (3039m),False
45,100000321137,mDfrcmGX7dY,Ή‚Ώ‚α‚ρƒ‰[ƒƒ“,40.822997735991876,140.73610240603273,ΒX§ΒXsΓμ2-7-4,20619,ΒX,801,10,0106001,ƒ‰[ƒƒ“,11,Β‚ΆX“S“Ή^ΒX‰w “k•ΰ8• (647m),False
46,100001283736,6Dir8UANh1Q,‚Ζ‚ρ‚±‚Β‚η[‚ί‚ρ Υ‚Μ‰Ζ,40.821794281818676,140.74832820244674,ΒX§ΒXs’†‰›1-27-19 ‰iƒrƒ‹ 1F,20619,ΒX,1711,21,0106001,ƒ‰[ƒƒ“,5,Β‚ΆX“S“Ή^ΒX‰w “k•ΰ22• (1704m),False
47,100000320999,0Xm54bfkt7o,‚ΰ‚θ‚β¤“X,40.90226266,140.85629584,ΒX§ΒXsσ’β–{9,20622,σ’‰·ς,1542,19,0106001,ƒ‰[ƒƒ“,5,Β‚ΆX“S“Ή^σ’‰·ς‰w “k•ΰ18• (1415m),True
48,100000969832,YycR6Azu0d-,‚Δ‚¶,40.826859208963,140.75342036218,ΒX§ΒXs–{’¬1F5-6-11,20619,ΒX,1717,21,0105001,Ψ‘—Ώ—A’©‘N—Ώ—,3,Β‚ΆX“S“Ή^ΒX‰w “k•ΰ26• (2083m),False
49,100000320860,0LGRsDxuDJI,‚Θ‚η‰®,40.82565418,140.74923672,ΒX§ΒXs–{’¬2-11-18,20619,ΒX,1441,18,0101028,‚¨‚Ε‚ρ,4,Β‚ΆX“S“Ή^ΒX‰w “k•ΰ21• (1644m),True
50,t899500,6g0IVbJJgkc,ƒJƒ‹ƒrLκ,40.80858775,140.79056970,ΒX§ΒXs•lΩ5-3-5,20681,¬–φ(ΒX§),1621,20,0110,‹π‰®AƒrƒAƒz[ƒ‹,8,Β‚ΆX“S“Ή^“ΒX‰w “k•ΰ13• (972m),True
51,s000078388,rUW14rIKoT6,η”N‚Μ‰ƒ@ΒX‰w‘O“X,40.82811,140.736227,ΒX§ΒXsV’¬1-1-16 ΒX‚δ‚Άƒrƒ‹ 1K,20619,ΒX,234,2,0110001,a•—‹π‰®,5,,True
52,100000320957,Gk4t16Nxgrc,‘ε‚©‚ΒH“°,40.82211573,140.75201729,ΒX§ΒXs‹΄–{2-10-2,20619,ΒX,1981,24,0111,’θHAH“°,3,Β‚ΆX“S“Ή^ΒX‰w “k•ΰ26• (2051m),False
53,100000868095,rQtgosAyZOQ,‚έ‚Ώ‚Μ‚­ƒVƒF[ƒN,40.8527603886,140.83869272490006,ΒX§ΒXs–μ“ΰR‰¤—Ρ71-1,20746,–μ“ΰ,2334,29,0115001,ƒJƒtƒF,10,Β‚ΆX“S“Ή^–μ“ΰ‰w “k•ΰ20• (1535m),True
54,100000698680,oFvnUnltfRQ,‚©‚ά‚­‚η,40.82698970382259,140.7365352527613,ΒX§ΒXsV’¬1-6-25,20619,ΒX,382,4,0102,—mH,8,Β‚ΆX“S“Ή^ΒX‰w “k•ΰ4• (291m),False
55,0006059726,WRJxZdcClJE,{‘nƒLƒbƒ`ƒ“ ‰Τ‚³‚©’ΰ,40.82299039,140.73740415,ΒX§ΒXsΓμ2-10-9 ‘ε‹΄ƒrƒ‹2F,20619,ΒX,899,11,0112001,‘nμ—Ώ—,1,ΒX‰w‚©‚η“k•ΰ8•A–ι“X’Κ‚θ‚π’Κ‚θA‘“Ή‚π“n‚Α‚Δ‚·‚®,True
56,100001490692,j1WbwqPmaMI,Cafe709,40.73822442347224,140.6891601282244,ΒX§ΒXs‘ε’J¬’J1-5,,,,,0115001,ƒJƒtƒF,2,JR‰‰H–{ό(V―`ΒX)^’ίƒ–β‰w “k•ΰ111• (8814m),True
57,0006087964,ZO97FvgUhsQ,KAJITSU,40.82489587,140.74590362,ΒX§ΒXs–{’¬1-1-42-1F,20619,ΒX,1195,14,0119004,ƒ_ƒCƒjƒ“ƒOƒo[,,ΒX‰w‚ζ‚θ“k•ΰ15•B–φ’¬’Κ‚θA‹η—tΊ“ΰό‚©‚Ά‚Ε‚·B,True
58,100001523671,u1h9mKZwNag,η‹ψ‰® ¬–φ“X,40.81918679406524,140.7936208187259,ΒX§ΒXs¬–φ3-4-25,20681,¬–φ(ΒX§),532,6,0101025,Δ‚«’Ή,2,Β‚ΆX“S“Ή^¬–φiΒXj‰w “k•ΰ7• (504m),False
59,0006116985,Fkg85y_sp_M,‹Ι ‚¶‚η‚Ά‚β,40.82570690,140.74681464,ΒX§ΒXs–{’¬2-5-15-1F,20619,ΒX,1220,15,0110001,a•—‹π‰®,,ΒX‰w“ϋ‚ζ‚θ“k•ΰ15•BƒA[ƒP[ƒh‚Ι“Y‚Α‚Δ“‚Φi‚έA–{’¬1’–Ϊπ·“_‚π“n‚Α‚½ζ‚Μ¶θ‚Ι‚ ‚θ‚ά‚·B,True
60,0006116484,H2oMk2NgbO-,‘N‹›E‘nμƒ_ƒCƒjƒ“ƒO ‚Ω‚Ά‚Η‰Ζ,40.82495151,140.75075333,ΒX§ΒXs‹΄–{1-1-13,20619,ΒX,1629,20,0110001,a•—‹π‰®,,NTTΒXx“X‚Μπ·“_‚©‚η‹Ε–±’Κ‚θ‚Ι“ό‚θA‹π‰®‘ —l‚Μe“Ή‚π“ό‚κ‚Ξ¶‘¤‚Ι‚²‚΄‚Ά‚ά‚·B,True
61,0006043269,zsuiSqB8C-6,H concept dining Assemble,40.82510408,140.73930951,ΒX§ΒXsΓμ1-20-3 —ι–Ψƒrƒ‹2F,20619,ΒX,733,9,0110002,—m•—‹π‰®,,ΒX‰w‚©‚η“k•ΰ‚Ε7•BV’¬’Κ‚θ‚Φ’ΌiB”υ’Κ‚θ‚π‰EάAΕ‰‚ΜM†‰Eζ‚Μ2¬–Ϊƒrƒ‹‚Μ2K‚Ι‚ ‚θ‚ά‚·B,True
62,0006043264,Zj5aY7IwhU2,‘nμ‹π‰®ƒ_ƒCƒjƒ“ƒO‚»‚¤‚·‚―,40.82808166,140.74789503,ΒX§ΒXs–{’¬3-4-19,20619,ΒX,1262,15,0110001,a•—‹π‰®,,Β‚ΆX“S“ΉEJR‰‰H–{όEJR’ΓyόuΒX‰wv“ϋ‚ζ‚θ“k•ΰ15•,True
63,0005036757,L7QWqhyj7DM,Δ’Ή‚¦‚ρ,40.82307650,140.73778746,ΒX§ΒXsΓμ2-19-18,20619,ΒX,891,11,0110001,a•—‹π‰®,,Γμ2’–ΪƒoƒX’β‘O‚ζ‚θ“k•ΰ2•,False
64,0006074435,ySFvABnStRk,‚β‚«‚Ι‚­’Y‚β ΌƒoƒCƒpƒX“X,40.83461665,140.70179434,ΒX§ΒXsOD1-15-6,20698,VΒX,1419,17,0108001,Δ“χ,5,ΒXΌƒoƒCƒpƒX‚©‚ηƒgƒCƒUƒ‰ƒX‚π‹Θ‚‚θAΒXƒRƒƒiƒ[ƒ‹ƒh‚Μ‰΅B,True
65,100000320824,mHGERLy8B3k,‹Ό”M‚³‚­‚η–μ“X,40.82605675,140.73920393,ΒX§ΒXsV’¬1-13-2 ‚³‚­‚η–μ•S‰έ“XΒX“X6K,20619,ΒX,663,8,0101017,‚»‚Ξ,1,Β‚ΆX“S“Ή^ΒX‰w “k•ΰ8• (574m),False
66,0006053143,VMcSkLefZi2,C‘N—Ώ—E‹½“y—Ώ—κ–ε“X C‘N‘g,40.82384331,140.75154223,ΒX§ΒXs‹΄–{1-2-15,20619,ΒX,1790,22,0110001,a•—‹π‰®,4,ΒX‰w‰ΊΤA‰w‘O‚ζ‚θs‰cƒoƒXBNTTΒXx“X‘O‰ΊΤA“k•ΰ1•B‰w‘O‚ζ‚θƒ^ƒNƒV[A–ρ10•B–ρ800‰~ΚB,True
67,0006088246,7wR3_2W1j_I,B‹Gy,40.82554011,140.73694573,ΒX§ΒXsΓμ1-13-16,20619,ΒX,542,6,0110001,a•—‹π‰®,1,ΒX‰w“ϋ‚ζ‚θ“k•ΰ7•‚Ε‚·BuC–V~v—l‚Μ— θ‚Ι‚Θ‚θ‚ά‚·B,True
68,100000321161,9bFnU0xvwYs,‚Ζ‚ρ‚±‚Β‚η[‚ί‚ρ Υ‚Μ‰Ζ,40.82921204,140.7449757,ΒX§ΒXsΐ•ϋ2-14-7,20619,ΒX,1052,13,0106001,ƒ‰[ƒƒ“,7,Β‚ΆX“S“Ή^ΒX‰w “k•ΰ15• (1138m),False
69,100001290887,RCnGztPDeKo,True ΒX,40.8247857,140.73722810000004,ΒX§ΒXsΓμ1-16-1 κY‰®ƒrƒ‹1F,20619,ΒX,644,8,0107001,ƒJƒ[,7,Β‚ΆX“S“Ή^ΒX‰w “k•ΰ7• (532m),False
70,100000817378,1t90NkQk6Mo,D–yƒ‰[ƒƒ“@‘ ,40.8592015,140.68096000000003,ΒX§ΒXs‰H”’‘ς“c796-1,20625,–ϋμ,1102,13,0106001,ƒ‰[ƒƒ“,14,JR’Γyό^–ϋμ‰w “k•ΰ14• (1083m),False
71,100001343293,tRo1SQVKjoo,ΒX ‚¤‚ά‚Ά‚ΰ‚ρ‹π‰® ‚ν‚β‚ν‚β,40.824724506700846,140.73874930439274,ΒX§ΒXsΓμ1-19-8,20619,ΒX,747,9,0101033,‹½“y—Ώ—,5,Β‚ΆX“S“Ή^ΒX‰w “k•ΰ8• (643m),True
72,100000745763,D9wFRVsFbZE,’†‰Ψ‚»‚Ξ ‚¨‚Μ‚ή‚η,40.7206563,140.59206530000006,ΒX§ΒXsQ‰Q‰²–μ-3018,20740,Q‰,1846,23,0106001,ƒ‰[ƒƒ“,6,JR‰‰H–{ό(V―`ΒX)^Q‰‰w “k•ΰ22• (1716m),False
73,100000783214,tKUBNHi_8L2,υ‚µ’ί,40.826311,140.720399,ΒX§ΒXsη 2-6-20,20619,ΒX,1290,16,0101,aH,5,Β‚ΆX“S“Ή^ΒX‰w “k•ΰ21• (1613m),False
74,100000321286,xmMNygEWvUs,ƒgƒ€ƒ„ƒ€ƒNƒ“,40.82833163,140.74741449,ΒX§ΒXs–{’¬3-3-3,20619,ΒX,1247,15,0105003,ƒ^ƒC—Ώ—,4,Β‚ΆX“S“Ή^ΒX‰w “k•ΰ18• (1408m),False
75,t329300,bvAiyt784jk,Hawaiian Bar Aloha,40.82588187,140.74599246,ΒX§ΒXs–{’¬2-4-14,20619,ΒX,1157,14,0119001,ƒo[,1,ΒX‰w,True
76,ta37600,ciN6cncGetQ,Italian Dining&Bar Kei,40.82409051,140.75184220,ΒX§ΒXs‹΄–{1-5-16 ƒR[ƒ|‰ΊR1F,20619,ΒX,1796,22,0110,‹π‰®AƒrƒAƒz[ƒ‹,,,True
77,100001119573,qtQXfWLcOUM,‚½‚©‹v‘–{“X,40.79112569397,140.75284291671,ΒX§ΒXs‘ζ“ρ–β‰®’¬3-25-5,29725,“›δ(ΒX§),2537,31,0101031,¥‚ΰ‚ΜA‹¥Aeq¥,4,Β‚ΆX“S“Ή^“ΒX‰w “k•ΰ49• (3893m),True
78,100000320739,gRxtE7kocWw,’Y‰ΞΔ‚Ζ‚θ{,40.81413826,140.70990312,ΒX§ΒXsO“ΰΫR17-112,20698,VΒX,2729,34,0101025,Δ‚«’Ή,2,JR‰‰H–{ό(V―`ΒX)^VΒX‰w “k•ΰ30• (2352m),True
79,0006010210,CaAemjcQoRs,{Κ—Ώ— ‚Ά‚Έ‚έ,40.81449654,140.70856429,ΒX§ΒXsO“ΰΫR27-21,20698,VΒX,2616,32,0110001,a•—‹π‰®,1,ΒXs‰cƒoƒXuO“ΰΌ¬wZ‘Ov–”‚Νu©‰q‘ΰ―Ι‘Ov‚ζ‚θ“k•ΰ5•/‚Ζ‚Α‚©‚θ(“ΑΨ)―Ι11†“‚Θ‚Θ‚ίό‚Ά,False
80,100000320642,rkOUGT8DaC6,Gυi,40.82507095383311,140.75738789650813,ΒX§ΒXs’η’¬1-5-12 K“cƒrƒ‹1F,20619,ΒX,2190,27,0101,aH,9,Β‚ΆX“S“Ή^ΒX‰w “k•ΰ32• (2546m),False
81,100000321037,AH90MQdhkug,‰Ζa,40.824946921726195,140.73639353497026,ΒX§ΒXsΓμ1-15-17,20619,ΒX,584,7,0101,aH,3,Β‚ΆX“S“Ή^ΒX‰w “k•ΰ6• (473m),False
82,100000320823,AjzaESMthvM,‚»‚ΞH–[Α,40.83395283,140.70930791,ΒX§ΒXs•x“c3-16-50,20698,VΒX,2275,28,0101017,‚»‚Ξ,1,JR‰‰H–{ό(V―`ΒX)^VΒX‰w “k•ΰ24• (1901m),False
83,100001427524,yPbHUTizjnI,α…’ΰ ΒX‘Ϋƒzƒeƒ‹,40.826455,140.736578,ΒX§ΒXsV’¬1-6-18 ΒX‘Ϋƒzƒeƒ‹2F,20619,ΒX,470,5,0101011,“ϊ–{—Ώ—,2,Β‚ΆX“S“Ή^ΒX‰w “k•ΰ5• (339m),False
84,ta36900,las62j5I7lU,ƒVƒƒƒ‚ƒƒbƒN–ς‘V‰Ξ“η Restaurant Tera,40.82375989,140.74678695,ΒX§ΒXs–{’¬1-2-13,20619,ΒX,1400,17,0110,‹π‰®AƒrƒAƒz[ƒ‹,,,False
85,100000803433,jptJ9hS6VGU,”m–Xq,40.825525,140.738971,ΒX§ΒXsV’¬1-14-13,20619,ΒX,665,8,0115002,‹i’ƒ“X,7,Β‚ΆX“S“Ή^ΒX‰w “k•ΰ8• (585m),True
86,100000969598,TYkd8BGk_3E,‚Ώ‚ε‚Ρ‹v,40.826047207932,140.74920761118,ΒX§ΒXs–{’¬ƒvƒ‰ƒUƒGƒA[ 1F2-11-1,20619,ΒX,1402,17,0101031,¥‚ΰ‚ΜA‹¥Aeq¥,1,Β‚ΆX“S“Ή^ΒX‰w “k•ΰ21• (1632m),False
87,100001443606,fS70PPUwM5s,‚η[‚ί‚ρ –Λ“Ή—– ΒX“X,40.82954390390482,140.70604360735763,ΒX§ΒXsΞ]OD144-9,20698,VΒX,1518,18,0106001,ƒ‰[ƒƒ“,1,JR‰‰H–{ό(V―`ΒX)^VΒX‰w “k•ΰ17• (1349m),True
88,100000320752,hihe-62RkfI,’Ή‚ζ‚µ,40.82237967,140.7561865,ΒX§ΒXs’η’¬2-4-10,20619,ΒX,2280,28,0101025,Δ‚«’Ή,1,Β‚ΆX“S“Ή^ΒX‰w “k•ΰ31• (2481m),False
89,100001498640,2YIgrVKKS_U,‚½‚ά‰®,40.81500431721111,140.78163557976222,ΒX§ΒXs“μ’Ο2-1-5,20752,“ΒX,726,9,0101025,Δ‚«’Ή,1,Β‚ΆX“S“Ή^“ΒX‰w “k•ΰ7• (528m),False
90,100001356655,QUTVOQyIEoU,‚Β‚‚ι‚β,40.82520615659192,140.74970412824177,ΒX§ΒXs–{’¬1-7-6,20619,ΒX,1484,18,0106001,ƒ‰[ƒƒ“,5,Β‚ΆX“S“Ή^ΒX‰w “k•ΰ22• (1715m),True
91,100000815082,FSlmp5McTVc,ξ‰®,40.80925547718843,140.7235997915268,ΒX§ΒXsQΩςμ33-7,20619,ΒX,2646,33,0101017,‚»‚Ξ,12,Β‚ΆX“S“Ή^ΒX‰w “k•ΰ31• (2484m),False
92,100000321195,kKNEMKaT9mQ,—FyΓμ–{“X,40.8232431,140.73514592,ΒX§ΒXsΓμ2-4-10,20619,ΒX,724,9,0104001,’†‰Ψ—Ώ—,12,Β‚ΆX“S“Ή^ΒX‰w “k•ΰ8• (604m),False
93,100001040110,cJaetAsP1wI,‰iδ‹v—Η–έ“X,40.895297006117,140.8610910489,ΒX§ΒXsσ’β–{51-5,20622,σ’‰·ς,514,6,0118,ƒXƒC[ƒc,4,Β‚ΆX“S“Ή^σ’‰·ς‰w “k•ΰ7• (496m),False
94,100000749487,5odhpfjYh5Y,ƒGƒ”ƒBƒG,40.8267356,140.75067,ΒX§ΒXs–{’¬5-3-1,20619,ΒX,1471,18,0102005,ƒtƒ‰ƒ“ƒX—Ώ—iƒtƒƒ“ƒ`j,6,Β‚ΆX“S“Ή^ΒX‰w “k•ΰ23• (1781m),False
95,s000267605,20UmPq9cQPI,Τ‚©‚ηΒX•lΩ“X,40.8072684,140.78808942,ΒX§ΒXs•lΩ5’–Ϊ1-8  ,20752,“ΒX,1782,22,0110001,a•—‹π‰®,3,,True
96,100000321220,3u5i2Icq9Nw,ƒ‰[ƒƒ“‚½‚ά‚β,40.80915836,140.72421926000004,ΒX§ΒXsQΩςμ34-51,20619,ΒX,2652,33,0106001,ƒ‰[ƒƒ“,19,Β‚ΆX“S“Ή^ΒX‰w “k•ΰ31• (2460m),False
97,t317800,gQ8FCiO25fc,ƒJƒ‰ƒIƒPƒvƒ[ƒX ƒXƒLƒƒƒbƒg,40.82716240,140.75208648,ΒX§ΒXs–{’¬5-7-22,20619,ΒX,1571,19,0124002,ƒJƒ‰ƒIƒPƒ{ƒbƒNƒX,0,,True
98,100001028583,7hFhSc6YPwE,‚©‚Θ‚βƒ}[ƒg,40.945224147188,140.66003227093,ΒX§ΒXsγƒ•½–μ55-1,20735,’†‘ς,749,9,0128001,‚»‚Μ‘Ό,4,JR’Γyό^’†‘ς‰w “k•ΰ8• (597m),False
99,YP0157067391DA,7x7geON2cFQ,ƒsƒUƒnƒbƒgΒX“X,40.80910318,140.74666794,ΒX§ΒXs—Ξ2-1-5,29725,“›δ(ΒX§),2243,28,0114002,”z’Bκ–εA‘ξ”zƒsƒU,2,Β‚ΆX“S“Ή^ΒX‰w “k•ΰ32• (2544m),False
0,100001129799,ARAB3ioSu-s,ΒX§‹™AƒAƒXƒpƒ€’Ό‰c“X,40.829653054724,140.74119079602,ΒX§ΒXsΐ•ϋƒAƒXƒpƒ€1F1-1-40,20619,ΒX,750,9,0118,ƒXƒC[ƒc,3,Β‚ΆX“S“Ή^ΒX‰w “k•ΰ9• (725m),False
1,ta38500,pvkJa-mz06M,NIKUYAKIYA CARNE2019,40.82396827,140.75020341,ΒX§ΒXs–{’¬1-6-9,20619,ΒX,1682,21,0110,‹π‰®AƒrƒAƒz[ƒ‹,0,Β‚ΆX“S“Ή^ΒX‰w “k•ΰ23• (1785m),True
2,100001356453,2FHtJExw1MY,Art HOTEL COLOR AOMORI,40.82592249237405,140.7424523689736,ΒX§ΒXsV’¬2-5-6,20619,ΒX,845,10,0103001,ƒoƒCƒLƒ“ƒO,3,Β‚ΆX“S“Ή^ΒX‰w “k•ΰ12• (921m),False
3,100001103054,VPLNVRUjBgk,aπƒoƒ‹@‚¨‚Ύ‚µ,40.826901725737,140.73713495364,ΒX§ΒXsV’¬ƒpƒT[ƒWƒ…Lκ1-8-5,20619,ΒX,435,5,0110,‹π‰®AƒrƒAƒz[ƒ‹,3,Β‚ΆX“S“Ή^ΒX‰w “k•ΰ5• (330m),False
4,t305100,RqIMv1QEFIk,‚¨—Ώ— Ψ‚Μ‚Ν‚Θ,40.82564310,140.75076441,ΒX§ΒXs–{’¬5-4-20,20619,ΒX,1564,19,0101002,‰οΘ—Ώ—,6,Β‚ΆX“S“Ή^ΒX‰w “k•ΰ23• (1810m),False
5,100000832525,XIDHzs1uYq6,‚²‚¶‚α‚η‚µ,40.822698794377054,140.7363380335048,ΒX§ΒXsΓμ2-11-11,20619,ΒX,853,10,0110,‹π‰®AƒrƒAƒz[ƒ‹,8,Β‚ΆX“S“Ή^ΒX‰w “k•ΰ9• (686m),True
6,0006079939,EJf0Uudn-WQ,–{’¬ƒrƒAƒz[ƒ‹,40.82637357,140.75054217,ΒX§ΒXs–{’¬5-3-23 ƒI[ƒƒ‰‰οΩ1F,20619,ΒX,1498,18,0108001,Δ“χ,1,JRΒX‰w‚©‚η“k•ΰ15•B–{’¬“ρ’–Ϊπ·“_‚©‚η“μ‚Φ–ρ100m‚Ε‚·B,False
7,t328900,n2eaR1cbwgM,‰‹‚Ρ,40.825806989543,140.75192266573,ΒX§ΒXs–{’¬5-4-11 –{’¬ƒVƒƒƒ“ƒeƒrƒ‹1F,20619,ΒX,1699,21,0119001,ƒo[,5,Β‚ΆX“S“Ή^ΒX‰w “k•ΰ24• (1854m),True
8,YP0519161013BD,Kz5gKEOQIe-,ƒsƒUƒnƒbƒgΒX““X,40.81805609,140.79117763,ΒX§ΒXs¬–φ5-19-5 ‚P‚O‚Q,20681,¬–φ(ΒX§),783,9,0114002,”z’Bκ–εA‘ξ”zƒsƒU,0,Β‚ΆX“S“Ή^¬–φiΒXj‰w “k•ΰ10• (763m),False
9,YP1124996656FC,rxCwJbr7S_Y,ƒsƒUƒnƒbƒgƒK[ƒ‰ƒ^ƒEƒ“ΒXΌ“X,40.83303626,140.70262493,ΒX§ΒXsOD2-3-19 ƒK[ƒ‰ƒ^ƒEƒ“ΒXΌ“ΰ,20698,VΒX,1302,16,0114002,”z’Bκ–εA‘ξ”zƒsƒU,0,Β‚ΆX“S“Ή^ΒX‰w “k•ΰ9• (716m),False
10,ta2t800,LYlAYVBeLQ-,PARTY&CAFEBAR WAINARI,40.82522350,140.73884565,ΒX§ΒXsΓμ1-19-14,20619,ΒX,671,8,0119004,ƒ_ƒCƒjƒ“ƒOƒo[,,,False
11,100000833950,ciwSVxaF6Wo,—ζ‰Ψ‰‘,40.818486177634,140.77318668365,ΒX§ΒXsΌX1-13-4,20752,“ΒX,1367,17,0106001,ƒ‰[ƒƒ“,8,Β‚ΆX“S“Ή^“ΒX‰w “k•ΰ17• (1339m),False
12,100001516639,Fz85guvqOC-,‚­‚Η‚¤‚η[‚ί‚ρ,40.825578560891785,140.73880172638928,ΒX§ΒXsV’¬1-14-14,20619,ΒX,652,8,0106001,ƒ‰[ƒƒ“,24,Β‚ΆX“S“Ή^ΒX‰w “k•ΰ8• (583m),False
13,100001484448,5Zg1dA2Zyns,ƒAƒEƒgƒhƒAƒJƒtƒF MYU&#39;2,40.82831432799155,140.75400768684267,ΒX§ΒXs–{’¬4-9-14,20619,ΒX,1767,22,0115001,ƒJƒtƒF,1,Β‚ΆX“S“Ή^ΒX‰w “k•ΰ27• (2145m),True
14,100000321117,KwW2BsErZ1-,‚ ‚²‚Ύ‚µ’†‰Ψ•F‚β,40.83512215,140.70296927,ΒX§ΒXsOD1-16-21,20698,VΒX,1590,19,0106001,ƒ‰[ƒƒ“,15,JR‰‰H–{ό(V―`ΒX)^VΒX‰w “k•ΰ17• (1354m),False
15,ta1f100,iyOXl_Q7EuQ,‘nμƒ^ƒpƒXBOSSA,40.82723159,140.73679845,ΒX§ΒXsV’¬1-8-2 V’¬“΅“cƒrƒ‹3F,20619,ΒX,360,4,0119004,ƒ_ƒCƒjƒ“ƒOƒo[,4,Β‚ΆX“S“Ή^ΒX‰w “k•ΰ4• (283m),True
16,100000322209,lbwz1WkkdUA,‚β‚ά‚Ϊ‚¤u,40.82287732,140.77475412,ΒX§ΒXs‰Τ‰€2-43-24,20752,“ΒX,1885,23,0110,‹π‰®AƒrƒAƒz[ƒ‹,1,Β‚ΆX“S“Ή^“ΒX‰w “k•ΰ21• (1609m),False
17,100001466634,lZrzYHZw7tU,σ‘Δ ’†‰›Γμ’Κ‚θ“X,40.82570406663831,140.7354012843673,ΒX§ΒXsΓμ1-8-7,20619,ΒX,456,5,0118,ƒXƒC[ƒc,7,Β‚ΆX“S“Ή^ΒX‰w “k•ΰ5• (358m),False
18,100000835473,lJGLZd9B89o,ƒLƒbƒ`ƒ“EƒJƒtƒF ‚Θ‚©,40.80681759973429,140.73698091506958,ΒX§ΒXs‘ε–μα‹{120-1,20619,ΒX,2647,33,0102,—mH,14,Β‚ΆX“S“Ή^ΒX‰w “k•ΰ31• (2438m),False
19,100001160009,xRC_RP2nYeU,“ϊ–{—Ώ— ‹Κ,40.827633,140.75109999999995,ΒX§ΒXs–{’¬5-1-5ƒAƒbƒvƒ‹ƒpƒƒXΒX2F,20619,ΒX,1524,19,0101011,“ϊ–{—Ώ—,4,Β‚ΆX“S“Ή^ΒX‰w “k•ΰ23• (1820m),True
20,100001338304,Uc7fnQ3d2jw,’‘›‚Ζ“’‚―‚ή‚θ‚Μh ƒzƒeƒ‹H“c‰®,40.8940662371452,140.8612311494883,ΒX§ΒXsσ’u’J293-12,20622,σ’‰·ς,383,4,0101011,“ϊ–{—Ώ—,22,Β‚ΆX“S“Ή^σ’‰·ς‰w “k•ΰ5• (361m),True
21,100000320840,en0-X3wzfUc,ƒ‰ƒEƒ“ƒWƒZƒ“ƒ`ƒ…ƒ[ƒAƒXƒpƒ€“X,40.82963694,140.74104256,ΒX§ΒXsΐ•ϋ1-1-40,20619,ΒX,735,9,0106001,ƒ‰[ƒƒ“,5,Β‚ΆX“S“Ή^ΒX‰w “k•ΰ9• (708m),True
22,100000871656,T6cY9ulvey-,ƒƒXƒgƒ‰ƒ“@ƒ‰ƒ”ƒB,40.82543270898717,140.75331485721722,ΒX§ΒXs‹΄–{1-8-19,20619,ΒX,1782,22,0102005,ƒtƒ‰ƒ“ƒX—Ώ—iƒtƒƒ“ƒ`j,4,Β‚ΆX“S“Ή^ΒX‰w “k•ΰ27• (2093m),False
23,100001533660,RKDVfYwm0_w,Δ‚«’Ή ‚β‚ά‚‚έ,40.824329691672375,140.75949975583703,ΒX§ΒXs’η’¬1-8-6,20619,ΒX,2431,30,0101025,Δ‚«’Ή,5,Β‚ΆX“S“Ή^“›δiΒXj‰w “k•ΰ31• (2411m),True
24,0006126721,ZLgppXOY8mM,–G’g{Ψ ‰λΑ,40.82596535,140.75408364,ΒX§ΒXs–{’¬5-10-24 Όά”ΤXƒrƒ‹2F,20619,ΒX,1843,23,0112001,‘nμ—Ώ—,,JRΒX‰w‚ζ‚θV’¬’Κ‚θ–{’¬•ϋ–Κ@Τ‚Ε7`8•,True
25,100000321294,BZW7yl1O7j6,‚Ά‚µ‚Έ‚¦,40.82678168,140.74013718,ΒX§ΒXsV’¬2-1-18,20619,ΒX,617,7,0107001,ƒJƒ[,6,Β‚ΆX“S“Ή^ΒX‰w “k•ΰ8• (635m),False
26,100000884180,jOTVWsIPUzY,‹I•¶υi,40.82898830590684,140.73594482165504,ΒX§ΒXsΐ•ϋ1-3-24,20619,ΒX,178,2,0101,aH,4,Β‚ΆX“S“Ή^ΒX‰w “k•ΰ2• (139m),False
27,100001005741,XadCE4fXOG2,ƒXƒEƒB[ƒgƒs[ƒ`ƒJƒtƒFƒeƒƒA,40.828319561639,140.69350070404,ΒX§ΒXsΞ]‚Τ140-2 JRVΒX‰w1F,20698,VΒX,62,0,0115001,ƒJƒtƒF,5,JR‰‰H–{ό(V―`ΒX)^VΒX‰w “k•ΰ2• (92m),False
28,100001484330,q4c7iEuANp-,‚Σ‚­‚Ύ‰®,40.820513371213295,140.79383099417169,ΒX§ΒXs¬–φ3-7-31,20681,¬–φ(ΒX§),533,6,0111,’θHAH“°,5,Β‚ΆX“S“Ή^¬–φiΒXj‰w “k•ΰ7• (536m),False
29,100000851306,-XN7WLDu3Uo,μ“`,40.8272684,140.73589860000004,ΒX§ΒXsV’¬1-3-7 ƒtƒFƒXƒeƒBƒoƒ‹ƒVƒeƒBƒAƒEƒKB1F,20619,ΒX,324,4,0106001,ƒ‰[ƒƒ“,4,Β‚ΆX“S“Ή^ΒX‰w “k•ΰ3• (202m),False
30,100000922697,t6CWqobi2oE,‚½‚Ώ‚ζ‚θSee-Bar,40.8273713,140.73954000000003,ΒX§ΒXsV’¬1-10-12,20619,ΒX,505,6,0119001,ƒo[,3,Β‚ΆX“S“Ή^ΒX‰w “k•ΰ7• (552m),False
31,100000321285,4m7fHTAG8r2,‘Χ‰‘,40.82591582,140.77318471,ΒX§ΒXs‰h’¬2-9-18,20752,“ΒX,2288,28,0106001,ƒ‰[ƒƒ“,8,Β‚ΆX“S“Ή^“ΒX‰w “k•ΰ25• (1989m),False
32,ta2u001,ihmasS_FB4s,Δ“χ “V‹η ‹΄–{“X,40.82503760,140.75013948,ΒX§ΒXs–{’¬1-7-9,20619,ΒX,1563,19,0108001,Δ“χ,,,True
33,t000061553,tTSgmPBC18M,“ϊ–{—Ώ— ‚Β‚©‚³,40.8273098,140.752873,ΒX§ΒXs–{’¬5-7-17 ,20619,ΒX,1652,20,0101011,“ϊ–{—Ώ—,2,Β‚ΆX“S“Ή^ΒX‰w “k•ΰ25• (1996m),False
34,100001191015,2pbCizXD0J-,O‹γι½,40.82505686,140.73916786,ΒX§ΒXsΓμ1-20-11,20619,ΒX,713,8,0101,aH,7,Β‚ΆX“S“Ή^ΒX‰w “k•ΰ9• (651m),False
35,100000320836,b0f22kTeO--,–­OΑ,40.80763227,140.78890044,ΒX§ΒXs•lΩ5-2-2,20681,¬–φ(ΒX§),1807,22,0101017,‚»‚Ξ,8,Β‚ΆX“S“Ή^“ΒX‰w “k•ΰ11• (811m),False
36,100000929436,wbNdlkEr7Xc,“Ή‘Α,40.71785521457508,140.5795002245369,ΒX§ΒXsQ‰—­‘ς–μK2-3,20740,Q‰,1608,20,0104008,ιLq,2,JR‰‰H–{ό(V―`ΒX)^Q‰‰w “k•ΰ11• (858m),False
37,100001377195,ecFGyMpQOOY,ƒXƒ^[ƒoƒbƒNƒXƒR[ƒq[ ΒXΌƒoƒCƒpƒX“X,40.831263830592576,140.70399892331352,ΒX§ΒXsOD2-2-36,20698,VΒX,1269,15,0115001,ƒJƒtƒF,1,JR‰‰H–{ό(V―`ΒX)^VΒX‰w “k•ΰ15• (1166m),False
38,100000321287,0z2lhjlD9qQ,ƒNƒ‰ƒ“ƒxƒ[,40.82722351,140.75247256,ΒX§ΒXs–{’¬5-7-20,20619,ΒX,1609,20,0102007,ƒXƒyƒCƒ“—Ώ—,7,Β‚ΆX“S“Ή^ΒX‰w “k•ΰ25• (1975m),True
39,100001403301,UeD2PWpspfc,Bar Ludens,40.8253247,140.7560502,ΒX§ΒXs’η’¬1-1-9,20619,ΒX,2051,25,0119001,ƒo[,1,Β‚ΆX“S“Ή^ΒX‰w “k•ΰ30• (2403m),False
40,100000852785,OVpHDsT1qpI,ƒn[ƒgƒr[ƒg,40.82564310,140.75076441,ΒX§ΒXs–{’¬5-4-20 ƒTƒ“ƒI[ƒrƒ‹1F,20619,ΒX,1564,19,0119001,ƒo[,1,Β‚ΆX“S“Ή^ΒX‰w “k•ΰ24• (1892m),True
41,100000320770,7lnHYD196Zo,‚β‚«‚Ζ‚θ’Ή^,40.82714571,140.75052824,ΒX§ΒXs–{’¬5-1-21,20619,ΒX,1440,18,0101025,Δ‚«’Ή,6,Β‚ΆX“S“Ή^ΒX‰w “k•ΰ22• (1761m),False
42,100000453229,OgWFJdygSTg,–μ’ƒ‰®,40.705612,140.82227999999998,ΒX§ΒXs‰΅“ΰ”d‹e62,,,,,0115001,ƒJƒtƒF,6,,False
43,s000252011,A3yO1INSKW-,‚·‚½‚έ‚Θ‘ΎY@ΒX“X,40.78995781,140.7383107,ΒX§ΒXsrμΔ“c191-1  ,29725,“›δ(ΒX§),3956,49,0108001,Δ“χ,10,,False
44,100001267802,0qguHlAi91A,’†‰Ψ‚»‚Ξ κ“΅,40.82904841206845,140.75582852363584,ΒX§ΒXsΒ–φ1-8-12,20619,ΒX,1944,24,0106001,ƒ‰[ƒƒ“,5,Β‚ΆX“S“Ή^ΒX‰w “k•ΰ30• (2341m),False
45,100000322666,XzHrm2w1zeI,‚ν‚η‚¶’ΰ,40.83469633,140.67778542,ΒX§ΒXsVιR“c488-4,20718,’ΓyVι,1046,13,0102001,ƒXƒe[ƒLAƒnƒ“ƒo[ƒO,11,JR‰‰H–{ό(V―`ΒX)^’ΓyVι‰w “k•ΰ13• (979m),False
46,100001130165,gB1u0ftWS4A,b ƒtƒ‰ƒbƒg,40.826837570596,140.73714015543,ΒX§ΒXsV’¬²X–Ψƒrƒ‹ 1F1-8-3,20619,ΒX,434,5,0110,‹π‰®AƒrƒAƒz[ƒ‹,4,Β‚ΆX“S“Ή^ΒX‰w “k•ΰ5• (335m),True
47,100001280801,4RcGezv96eQ,³‹C‚Μ‚Ε‚ι’Y‰ΞΔ“χ ‚β‚ά‚Θ‚©‰Ζ ƒTƒ“ƒ[ƒhΒX“X,40.80574328268774,140.75160136222837,ΒX§ΒXs—Ξ3-8-11,29725,“›δ(ΒX§),1964,24,0108001,Δ“χ,3,Β‚ΆX“S“Ή^“›δiΒXj‰w “k•ΰ27• (2098m),False
48,100000837849,Wk4Zezv96eQ,ƒXƒe[ƒWƒƒ“,40.80784431879491,140.753361505062,ΒX§ΒXs—Ξ3-9-2ƒTƒ“ƒ[ƒhΒX3F,29725,“›δ(ΒX§),1790,22,0123001,ƒtƒ@ƒ~ƒƒX,3,Β‚ΆX“S“Ή^ΒX‰w “k•ΰ39• (3101m),False
49,0006073441,d_i5cZr-hg2,‘εΉ‰€,40.82694002,140.74131489,ΒX§ΒXsΐ•ϋ2-6-8,20619,ΒX,716,8,0108001,Δ“χ,8,ΒX‰w“ϋ“k•ΰ10•,False
50,100001239652,n4_y9-6Feig,{”’“’ƒ‰[ƒƒ“κ‰Θ —z‚Θ‚½‚β,40.82279849560774,140.7517491465576,ΒX§ΒXs‹΄–{2-12-15,20619,ΒX,1898,23,0106001,ƒ‰[ƒƒ“,2,Β‚ΆX“S“Ή^ΒX‰w “k•ΰ25• (1997m),False
51,100001088788,67MkgTXXPVc,”Ω”ό—ι ΒX“X,40.800290204545,140.7534001074,ΒX§ΒXs•l“c2-15-9,29725,“›δ(ΒX§),2219,27,0115001,ƒJƒtƒF,3,Β‚ΆX“S“Ή^“ΒX‰w “k•ΰ43• (3382m),False
52,100001339995,7SmlXMeKpnY,ƒCƒ^ƒƒAH“° Porta,40.8275382,140.746623,ΒX§ΒXs–{’¬2-1-5,20619,ΒX,1132,14,0102006,ƒCƒ^ƒƒA—Ώ—iƒCƒ^ƒƒAƒ“j,2,Β‚ΆX“S“Ή^ΒX‰w “k•ΰ17• (1332m),True
53,ta35900,Lwbt-dIN7CY,‚ν‚Ά‚ρ‹δy•”,40.82623730,140.74005665,ΒX§ΒXsV’¬2-2-1 2F,20619,ΒX,656,8,0110,‹π‰®AƒrƒAƒz[ƒ‹,,JRΒX‰w@“k•ΰ7•,False
54,100001124007,5j3fOY2pSOw,ƒƒXƒgƒ‰ƒ“‰Τ—Ρη,40.825499400161,140.74157145117,ΒX§ΒXsV’¬§’΅–k“ 8F2-4-30,20619,ΒX,842,10,0111,’θHAH“°,2,Β‚ΆX“S“Ή^ΒX‰w “k•ΰ11• (836m),False
55,100001334265,GoTR9xPKdSI,JOYS CAFE&TABLE,40.81168608125147,140.79673273037577,ΒX§ΒXs©—RƒP‹u2-15-5 FB-TERRACE,20681,¬–φ(ΒX§),1055,13,0115001,ƒJƒtƒF,2,Β‚ΆX“S“Ή^¬–φiΒXj‰w “k•ΰ9• (680m),False
56,100001424172,Z88vHSvdgy-,Bar&Rounge Second Ar,40.8253052,140.75105059999999,ΒX§ΒXs‹΄–{1-1-7 ƒAƒ‹ƒtƒ@ƒzƒeƒ‹ΒX 1F,20619,ΒX,1588,19,0119001,ƒo[,2,Β‚ΆX“S“Ή^ΒX‰w “k•ΰ24• (1858m),False
57,100001125100,DtSRpMTcEic,‚Ν‚Θ‚‚Σ,40.829626351688,140.74103137179,ΒX§ΒXsΐ•ϋ1-1-40-14F,20619,ΒX,725,9,0102001,ƒXƒe[ƒLAƒnƒ“ƒo[ƒO,2,Β‚ΆX“S“Ή^ΒX‰w “k•ΰ9• (707m),False
58,100001095725,IFfFwvk3YVs,‹½“y—Ώ— ‰’Γy,40.828185437714,140.74902485043,ΒX§ΒXs–{’¬3-8-3ΒX‰®‘δ‘Ί ‚³‚ρ‚Σ‚θ‰΅’,20619,ΒX,1367,17,0110,‹π‰®AƒrƒAƒz[ƒ‹,1,Β‚ΆX“S“Ή^ΒX‰w “k•ΰ20• (1587m),False
59,100001339296,RvgNal9-Eo-,“Ϋ‹ς,40.8240914,140.75184220000006,ΒX§ΒXs‹΄–{1-5-16,20619,ΒX,1796,22,0111,’θHAH“°,1,Β‚ΆX“S“Ή^ΒX‰w “k•ΰ25• (1976m),True
60,100001196868,8TutbsCRBII,‚ ‚½‚θ‚β ©—Rƒ–‹u“X,40.81448033458131,140.79563101171527,ΒX§ΒXs©—RƒP‹u1-2-11,20681,¬–φ(ΒX§),736,9,0101017,‚»‚Ξ,7,Β‚ΆX“S“Ή^¬–φiΒXj‰w “k•ΰ7• (501m),False
61,100001218626,v9g00PWKsM2,‘zη‹Gί—Ώ—INAKA cuisine‚½‚©‚µ,40.82819498340681,140.74950056992316,ΒX§ΒXs–{’¬3-8-3 ‚³‚ρ‚Σ‚θ‰΅’,20619,ΒX,1436,17,0112001,‘nμ—Ώ—,1,Β‚ΆX“S“Ή^ΒX‰w “k•ΰ21• (1645m),False
62,100001474368,HTZMQ1lD16w,Maria Rosa,40.8049308689176,140.74476579999998,ΒX§ΒXsΒ—t1-3-11,29725,“›δ(ΒX§),2614,32,0102006,ƒCƒ^ƒƒA—Ώ—iƒCƒ^ƒƒAƒ“j,1,Β‚ΆX“S“Ή^“›δiΒXj‰w “k•ΰ36• (2857m),False
63,100001504372,dj09XHaDCBk,Β‚ΆX‚ν‚ρ‚Η,40.8279867,140.73888469999997,ΒX§ΒXsΐ•ϋ1-11-1,20619,ΒX,449,5,0118,ƒXƒC[ƒc,1,Β‚ΆX“S“Ή^ΒX‰w “k•ΰ6• (475m),True
64,100001397461,KvvDLgEsk7M,‚δ‚Α‚½‚θ‹π‰®@‹Gy,40.8118005,140.7415876,ΒX§ΒXs®’¬O’–Ϊ15-20,20619,ΒX,2451,30,0110,‹π‰®AƒrƒAƒz[ƒ‹,1,Β‚ΆX“S“Ή^ΒX‰w “k•ΰ26• (2042m),False
65,100001337130,ZOLMa5Y9bNg,a—Ώ— ‘t,40.8275515,140.74053709999998,ΒX§ΒXsΐ•ϋ2-4-12 ƒzƒeƒ‹JALƒVƒeƒBΒX2F,20619,ΒX,600,7,0101011,“ϊ–{—Ώ—,,Β‚ΆX“S“Ή^ΒX‰w “k•ΰ9• (665m),False
66,100001453290,4yGa6KIP7ak,’†‰Ψ‚»‚Ξ‰΅R ¬–φ“X,40.81918554202063,140.79359445767216,ΒX§ΒXs¬–φ3-4-25 ƒA-ƒoƒ“ƒXƒy-ƒX¬–φ102†,20681,¬–φ(ΒX§),535,6,0106001,ƒ‰[ƒƒ“,,Β‚ΆX“S“Ή^¬–φiΒXj‰w “k•ΰ7• (498m),True
67,100000321352,1vUsJz9DQvs,‚Ρ‚Α‚­‚θƒhƒ“ƒL[ΒXΌ“X,40.82848399,140.70751096,ΒX§ΒXsΞ]OD145-1,20698,VΒX,1689,21,0123001,ƒtƒ@ƒ~ƒƒX,5,JR‰‰H–{ό(V―`ΒX)^VΒX‰w “k•ΰ19• (1504m),False
68,100000050826,IePB4Vfvvc-,’T–²H,40.822608,140.757745,ΒX§ΒXs’η’¬2-9-13,20619,ΒX,2407,30,0106001,ƒ‰[ƒƒ“,7,Β‚ΆX“S“Ή^ΒX‰w “k•ΰ33• (2641m),False
69,100000066349,ijurf7bmVUU,lμ’S’S–Λ ’·”φ,40.8078124,140.7532926,ΒX§ΒXs—Ξ3-9-2 ƒTƒ“ƒ[ƒhΒX3F,29725,“›δ(ΒX§),1795,22,0106001,ƒ‰[ƒƒ“,6,Β‚ΆX“S“Ή^ΒX‰w “k•ΰ39• (3099m),False
70,100000923575,j2nI94kGFV2,ƒJƒtƒF ƒf ƒWƒ^[ƒk Γμ“X,40.82658476976783,140.73457326987875,ΒX§ΒXsΓμ1-1”Τ4,20619,ΒX,294,3,0115001,ƒJƒtƒF,6,Β‚ΆX“S“Ή^ΒX‰w “k•ΰ3• (232m),True
71,100000322443,wOVmEjSpD0g,‚Ζ‚ά‚Ζ‚θ‚ ,40.85222722,140.6832878,ΒX§ΒXs‰H”’’rγ197-1,20625,–ϋμ,1154,14,0104001,’†‰Ψ—Ώ—,4,JR’Γyό^–ϋμ‰w “k•ΰ12• (960m),False
72,100000321179,B7RgD3UUEZo,–Λ‚½‚ρ‚‚ρ,40.71626447,140.59037361,ΒX§ΒXsQ‰Q‰•½–μ30-2,20740,Q‰,1318,16,0106001,ƒ‰[ƒƒ“,3,JR‰‰H–{ό(V―`ΒX)^Q‰‰w “k•ΰ15• (1173m),True
73,100000919811,com_RMIKmoM,”’’,40.82476951259999,140.75113746579996,ΒX§ΒXs‹΄–{1-2-5,20619,ΒX,1658,20,0101035,‚Σ‚®—Ώ—,3,Β‚ΆX“S“Ή^ΒX‰w “k•ΰ24• (1871m),True
74,100000320744,RrSQYPWoLYE,“Ή‘Ύ,40.70886803,140.58842668,ΒX§ΒXsQ‰—­‘ς“ν–{14-11,20740,Q‰,821,10,0101025,Δ‚«’Ή,3,JR‰‰H–{ό(V―`ΒX)^Q‰‰w “k•ΰ11• (874m),False
75,100001232018,1svR1ZBzkX-,¬R‚Ή‚ρ‚Χ‚Ά@JRΒX‰w“X@,40.82898792618922,140.73393700044545,ΒX§ΒXs–φμ1’–Ϊ,20619,ΒX,105,1,01,ƒOƒ‹ƒ,3,Β‚ΆX“S“Ή^ΒX‰w “k•ΰ2• (96m),False
76,100001033569,kY8m39aWPTQ,’†‰Ψ‚»‚Ξ@‚Θ‚θ“c,40.826962005718485,140.73724529734932,ΒX§ΒXsV’¬1-8-5 ƒpƒT[ƒWƒ…Lκ“ΰ,20619,ΒX,415,5,0106001,ƒ‰[ƒƒ“,11,Β‚ΆX“S“Ή^ΒX‰w “k•ΰ5• (337m),False
77,100000320712,KR8Xd0V7zbg,Δ“χƒƒXƒgƒ‰ƒ“‚Π‚‚µ‚β‚άΒX“X,40.83207246,140.70043897,ΒX§ΒXsΞ]OD65-3,20698,VΒX,1004,12,0108001,Δ“χ,10,JR‰‰H–{ό(V―`ΒX)^VΒX‰w “k•ΰ12• (928m),True
78,100000769345,p5bOY2dt5O6,ƒzƒeƒ‹ΒXƒXƒƒ“,40.825189473655314,140.7554319798012,ΒX§ΒXs’η’¬1-1-23,20619,ΒX,1998,24,0102,—mH,3,Β‚ΆX“S“Ή^ΒX‰w “k•ΰ30• (2329m),False
79,t672402,5_GA5yNTSJs,ι½~“S”ΒΔ •A HIIRAGI,40.82535427,140.75238377,ΒX§ΒXs‹΄–{1-7-1 You&Iƒrƒ‹1F,20619,ΒX,1701,21,0110,‹π‰®AƒrƒAƒz[ƒ‹,,,False
80,100000935324,FI98eptpOhg,‚½‚ρ‚ί‚ρ’ΰ –­©“X,40.791763634886,140.76084766054,ΒX§ΒXs–­©1-3-2,29725,“›δ(ΒX§),2128,26,0106001,ƒ‰[ƒƒ“,1,Β‚ΆX“S“Ή^“ΒX‰w “k•ΰ40• (3141m),True
81,J000647308,yTHVfGhrSxM,‹½“y—Ώ— “ϊ–{π ‹π‰® ‚ ‚¨‚ΰ‚θ‰Ζ,40.82438759,140.74582864,ΒX§ΒXs–{’¬1-1-27 –φ’¬ƒZƒ“ƒ^[ƒrƒ‹1F,20619,ΒX,1249,15,0110001,a•—‹π‰®,2,ΒX‰w‚ζ‚θ“k•ΰ15•B–φ’¬’Κ‚θ‚Ι‚ ‚ιA-BAY(ƒƒbƒ`ƒ‚ƒ“ƒhƒzƒeƒ‹)‚ΜΌό‚©‚ΆA“X–Ό‚πυ‚ί”²‚Ά‚½‘ε‚«‚Θ•‚Άψ–‹‚–Ϊσ‚Ε‚·,True
82,100000321084,Iab-pv7Efd-,Τ‚Ά—Ρη –{“X,40.82606515,140.74380646,ΒX§ΒXsV’¬2-6-15,20619,ΒX,954,11,0118001,—m‰ΩqAƒP[ƒL,2,Β‚ΆX“S“Ή^ΒX‰w “k•ΰ13• (1047m),False
83,100001118535,XP1fMBArKA2,sκH“°,40.785910904613914,140.75383165118546,ΒX§ΒXs‰µ’¬1-1,29725,“›δ(ΒX§),3337,41,0101031,¥‚ΰ‚ΜA‹¥Aeq¥,2,Β‚ΆX“S“Ή^“›δiΒXj‰w “k•ΰ36• (2863m),False
84,100000863233,qdzmcJ5r_s-,–X‰‘ ΒX“X,40.79445301997995,140.75344616174448,ΒX§ΒXs‘ζ“ρ–β‰®’¬1-5-3,29725,“›δ(ΒX§),2410,30,0108001,Δ“χ,8,Β‚ΆX“S“Ή^“ΒX‰w “k•ΰ46• (3644m),True
85,100000967098,uqQawoJV-g6,R‚Ώ‚α‚ρ,40.819738914278,140.77289048711,ΒX§ΒXs’Ο1-3-23,20752,“ΒX,1464,18,0110,‹π‰®AƒrƒAƒz[ƒ‹,2,Β‚ΆX“S“Ή^“ΒX‰w “k•ΰ19• (1459m),False
86,100001272104,D4R7QbAdu_s,‰Ωq υXF ‚³‚­‚η–μΒX“X,40.8260575,140.73920399999997,ΒX§ΒXsV’¬1-13-2 ‚³‚­‚η–μ•S‰έ“XΒX“X’n‰Ί1K,20619,ΒX,664,8,0118,ƒXƒC[ƒc,1,Β‚ΆX“S“Ή^ΒX‰w “k•ΰ8• (574m),False
87,J000647309,xvPnzBBy4Nw,“ϊ–{C―‚β ΒX‰w‘O“X,40.82907859,140.73568454,ΒX§ΒXsΐ•ϋ1-3-26 1¥2K,20619,ΒX,122,1,0110001,a•—‹π‰®,3,“–k–{όΒX‰w‚ζ‚θ“k•ΰ3•,False
88,100001411350,fFN7HYd3Wv-,‚©‚η—g‚°κ–ε“X ‚±‚Ξ‚µ‚ε‚® ΒX“X,40.805191401915955,140.75155023988123,ΒX§ΒXsΒ—t3-1-8,29725,“›δ(ΒX§),1938,24,01,ƒOƒ‹ƒ,1,Β‚ΆX“S“Ή^“›δiΒXj‰w “k•ΰ27• (2104m),False
89,J000268976,8PfQBrQQZ4o,Ψ‘‰Ζ’λ—Ώ— ƒIƒ‚ƒj,40.82570416,140.74870064,ΒX§ΒXs–{’¬2-6-13,20619,ΒX,1395,17,0105001,Ψ‘—Ώ—A’©‘N—Ώ—,2,ΒX‰w“ϋ“k•ΰ15•,False
90,100001001659,grxprAflEv2,\κ‹γ“ϊ,40.824898556461,140.75100820004,ΒX§ΒXs‹΄–{ƒX[ƒp[Ω1K1-1-11,20619,ΒX,1643,20,0102006,ƒCƒ^ƒƒA—Ώ—iƒCƒ^ƒƒAƒ“j,1,Β‚ΆX“S“Ή^ΒX‰w “k•ΰ24• (1854m),True
91,100001454035,UF8G7vh3LlI,–Λ‚βι “›δ“X,40.79636524197631,140.77388218656915,ΒX§ΒXs“›δ”ƒc‹΄1296,29725,“›δ(ΒX§),1418,17,0106001,ƒ‰[ƒƒ“,1,Β‚ΆX“S“Ή^“›δiΒXj‰w “k•ΰ14• (1091m),False
92,100001358267,DeJESyencF2,’Y‰Ξ‹ψπκ ‚·‚«‚γ[‚ ,40.82686,140.745226,ΒX§ΒXsΐ•ϋ2-17-7 ‚Ά‚Έ‚έ‰οΩ2F,20619,ΒX,994,12,0110,‹π‰®AƒrƒAƒz[ƒ‹,1,Β‚ΆX“S“Ή^ΒX‰w “k•ΰ15• (1190m),True
93,100001535789,Fcyvz0G1yhw,’ΓyC‘N ‚Ά‚Θ‚Ή,40.82471425947054,140.73718935972067,ΒX§ΒXsΓμ1-16-15,20619,ΒX,653,8,0101034,C‘N—Ώ—,1,Β‚ΆX“S“Ή^ΒX‰w “k•ΰ7• (537m),False
94,100000874880,MLrC-72GymY,‚ ‚¶Ψ@ΒXs,40.800224,140.74103000000002,ΒX§ΒXs“‘ε–μ2-1-28,29725,“›δ(ΒX§),3311,41,0101,aH,7,Β‚ΆX“S“Ή^ΒX‰w “k•ΰ41• (3234m),False
95,100000320969,z7vUieubCGQ,’†‰›¬,40.81504941,140.72366072,ΒX§ΒXsQΩ‘O“c1-9-25,20619,ΒX,1895,23,0102,—mH,5,Β‚ΆX“S“Ή^ΒX‰w “k•ΰ25• (1949m),False
96,100000452720,_1s5S1FRPhA,‚µ‚ΰ‚Ξ‚µ‚η,40.8005102,140.7503847,ΒX§ΒXs•l“c2-14-4,29725,“›δ(ΒX§),2435,30,0101017,‚»‚Ξ,5,Β‚ΆX“S“Ή^ΒX‰w “k•ΰ45• (3576m),False
97,100001188007,tdNJ2Shv-I-,“V‚Σ‚¶,40.82096147009999,140.74317975960014,ΒX§ΒXs’·“‡3-16-16,20619,ΒX,1479,18,0101,aH,6,Β‚ΆX“S“Ή^ΒX‰w “k•ΰ16• (1269m),False
98,100000320660,4TwBVT2sqbM,‚ ‚―‚Ϊ‚Μυi,40.82178219,140.73772362,ΒX§ΒXsΓμ2-16-7,20619,ΒX,1025,12,0101,aH,13,Β‚ΆX“S“Ή^ΒX‰w “k•ΰ11• (833m),True
99,100000807375,ysS3XP9TZ0s,ΫΒH“°,40.8272684,140.73589860000004,ΒX§ΒXsV’¬1-3-7 ƒtƒFƒXƒeƒBƒoƒ‹ƒVƒeƒBƒAƒEƒKB1F,20619,ΒX,324,4,0111,’θHAH“°,6,Β‚ΆX“S“Ή^ΒX‰w “k•ΰ3• (202m),False
0,t954331,FighIXdecgM,Ϋ‹T»–Λ VΒX“X,40.83385001,140.69545585,ΒX§ΒXs‘εV“c”E28-3,20698,VΒX,822,10,0101018,‚¤‚Η‚ρ,3,JR‰‰H–{ό(V―`ΒX)^VΒX‰w “k•ΰ10• (742m),False
1,100001196756,dN92CZJTkwE,‚»‚Ξ‰οΘ‚δ‚Έ‚θ‚Ν,40.80581973815106,140.78150694486635,ΒX§ΒXs•lΩ1-5-38,20752,“ΒX,1316,16,0101017,‚»‚Ξ,4,Β‚ΆX“S“Ή^“ΒX‰w “k•ΰ7• (514m),False
2,100000321215,DaGJ5mh0cA6,ƒ‰[ƒƒ“ƒVƒ‡ƒbƒvƒ^ƒ“ƒ|ƒ|,40.82652355,140.75057271,ΒX§ΒXs–{’¬5-3-24,20619,ΒX,1485,18,0106001,ƒ‰[ƒƒ“,4,Β‚ΆX“S“Ή^ΒX‰w “k•ΰ23• (1774m),False
3,33365,GA84r6Bx4lI,LOVINA(ƒ‰ƒrƒi),40.82782973797555,140.73436108344242,ΒX§ΒXs–φμ1-2-3,20619,ΒX,103,1,0303001,—V‰€’nAƒe[ƒ}ƒp[ƒN,33,,False
4,100000937974,2d1H2FQnq1s,¬,40.825186708412,140.75156240155,ΒX§ΒXs‹΄–{1-6-15,20619,ΒX,1645,20,0110,‹π‰®AƒrƒAƒz[ƒ‹,5,Β‚ΆX“S“Ή^ΒX‰w “k•ΰ24• (1907m),True
5,100001167441,x610RyNF3lY,ƒNƒƒIƒpƒgƒ‰,40.82545808816748,140.7445523621359,ΒX§ΒXsV’¬2-8-4,20619,ΒX,1034,12,0115002,‹i’ƒ“X,3,Β‚ΆX“S“Ή^ΒX‰w “k•ΰ15• (1146m),True
6,J001244951,kuefyV9mPjY,‹›E“χE’nπ “σ”T•,40.82739547,140.73785950,ΒX§ΒXsV’¬1-9-19-1F,20619,ΒX,406,5,0110001,a•—‹π‰®,,"Β‚ΆX“S“Ή,‹σ`ƒoƒX,‚i‚qΒX‰w³–Κϋ‚ζ‚θ“k•ΰ–ρ5•",True
7,100001055591,URlUtIxDvqA,’†‰Ψ‚»‚Ξ ƒCƒƒL,40.816383006808,140.78472615002,ΒX§ΒXs’†’Ο1F2-19-35,20752,“ΒX,939,11,0106001,ƒ‰[ƒƒ“,3,Β‚ΆX“S“Ή^“ΒX‰w “k•ΰ9• (723m),False
8,100001129665,v0SEQXjyRTU,ƒn[ƒgƒuƒƒbƒh ƒAƒ“ƒeƒB[ƒN ƒNƒƒXƒ^ƒ[ ƒAEƒxƒCΒX“X,40.823431331618,140.74480035773,ΒX§ΒXs’·“‡1-6-6ƒNƒƒXƒ^ƒ[ƒA¥ƒxƒC1F,20619,ΒX,1290,16,0117,ƒpƒ“AƒTƒ“ƒhƒCƒbƒ`,3,Β‚ΆX“S“Ή^ΒX‰w “k•ΰ16• (1259m),True
9,t321103,DRKovhHVdLw,ƒTƒ“ƒ}ƒ‹ƒNƒJƒtƒF ΒXƒTƒ“ƒ[ƒh“X,40.80644809,140.75315083,ΒX§ΒXs—Ξ3-9-2,29725,“›δ(ΒX§),1912,23,0117,ƒpƒ“AƒTƒ“ƒhƒCƒbƒ`,2,Β‚ΆX“S“Ή^ΒX‰w “k•ΰ39• (3099m),True
10,100000321522,it1FADzriGI,‹π‰®‚·‚έ‚κ‘g,40.82788431,140.7382789,ΒX§ΒXsΐ•ϋ1-4-13,20619,ΒX,394,4,0110,‹π‰®AƒrƒAƒz[ƒ‹,3,Β‚ΆX“S“Ή^ΒX‰w “k•ΰ5• (403m),False
11,100000320984,Y9yaMPf_m02,‚Ν‚κ‚β‚άH“°,40.82802033,140.73197922,ΒX§ΒXsΒ“c1-1-17 ‚Ν‚κ‚β‚ά—·Ω,20619,ΒX,118,1,0106001,ƒ‰[ƒƒ“,2,Β‚ΆX“S“Ή^ΒX‰w “k•ΰ4• (315m),True
12,100001184435,__YwltbMOVM,•½“c‰®,40.824540290109276,140.76097201973312,ΒX§ΒXs’η’¬1-11-9,20619,ΒX,2520,31,0101017,‚»‚Ξ,10,Β‚ΆX“S“Ή^“ΒX‰w “k•ΰ36• (2826m),True
13,100000320853,aw30Nwgl2Xw,‰΅’,40.82531235,140.73681797,ΒX§ΒXsΓμ1-13-6,20619,ΒX,569,7,0101017,‚»‚Ξ,2,Β‚ΆX“S“Ή^ΒX‰w “k•ΰ6• (438m),True
14,100001360353,N_mPK9PH2Gw,ƒ‰[ƒƒ“ ‚­‚ί‚Ώ‚α‚ρ,40.80931387133752,140.725166871164,ΒX§ΒXsQΩ‘O“c4-35-14,20619,ΒX,2602,32,0106001,ƒ‰[ƒƒ“,3,Β‚ΆX“S“Ή^ΒX‰w “k•ΰ31• (2413m),False
15,J000270198,0d0t7GK-Wf2,s”T‘ ,40.82598161,140.72615182,ΒX§ΒXsΒ“c2-18-9,20619,ΒX,812,10,0110001,a•—‹π‰®,3,JRΒX‰wΌϋ‚ζ‚θ“k•ΰ10•B,False
16,100000939162,fXYQ90wREBw,GOOFY,40.82628993086,140.75349945945,ΒX§ΒXs–{’¬‚©‚Η‚βƒrƒ‹ 2F5-5-10,20619,ΒX,1778,22,0102006,ƒCƒ^ƒƒA—Ώ—iƒCƒ^ƒƒAƒ“j,1,Β‚ΆX“S“Ή^ΒX‰w “k•ΰ27• (2099m),False
17,100000322637,WB3_-zlQprA,•Δ•½,40.81605527,140.75055089,ΒX§ΒXs’†‰›4-9-6,29725,“›δ(ΒX§),2311,28,0101015,‚Ζ‚ρ‚©‚Β,2,Β‚ΆX“S“Ή^ΒX‰w “k•ΰ28• (2245m),True
18,100000320722,A20VcH5njl6,’ί’Y‰ΞΔ,40.82693467,140.75335863,ΒX§ΒXs–{’¬5-6-8,20619,ΒX,1682,21,0101025,Δ‚«’Ή,11,Β‚ΆX“S“Ή^ΒX‰w “k•ΰ26• (2076m),False
19,100001357505,Tsi2qEpQvII,Bar Smile,40.822869607706956,140.74932182527004,ΒX§ΒXs’†‰›1-23-9,20619,ΒX,1695,21,0119001,ƒo[,2,Β‚ΆX“S“Ή^ΒX‰w “k•ΰ22• (1754m),False
20,J000268855,M_b94YyhiLo,“V•w—… ‹,40.82391818,140.74468150,ΒX§ΒXs’·“‡1-6-1,20619,ΒX,1220,15,0101053,aHi‚»‚Μ‘Όj,,ΒX‰w‚©‚η“k•ΰ10•B–φ’¬’Κ‚θ1–{Ό‘¤‚Ε‚·B,False
21,100001212846,fd1GXilDLCM,“V‚Υ‚η ’η,40.82687902,140.74826173,ΒX§ΒXs–{’¬2-7-4,20619,ΒX,1247,15,0101014,“V‚Υ‚ηA—g‚°•¨,8,Β‚ΆX“S“Ή^ΒX‰w “k•ΰ15• (1132m),True
22,100000320934,M_r6qWGDI-o,ƒLƒbƒ`ƒ“‚¨‚¨‚³‚©,40.81708892,140.76825222,ΒX§ΒXsχμ1-4-7,29725,“›δ(ΒX§),1520,19,0111,’θHAH“°,1,Β‚ΆX“S“Ή^“ΒX‰w “k•ΰ22• (1711m),False
23,100001500685,4GIepK_tYAk,σ‘Δ Q‰ƒAƒbƒvƒ‹ƒqƒ‹“X,40.71836880822848,140.5802203647239,ΒX§ΒXsQ‰—­‘ς–μK2-3,20740,Q‰,1614,20,0118,ƒXƒC[ƒc,1,JR‰‰H–{ό(V―`ΒX)^Q‰‰w “k•ΰ11• (869m),False
24,100001289926,5zav7yAvnUk,”b“c‚»‚Ξ‚«‚±‚θ,40.64288496976949,140.8132284671068,ΒX§ΒXsrμ¦…‘ς150-1,,,,,0101017,‚»‚Ξ,1,,False
25,100001301163,2Y4_jNZbTKQ,Cafe & Soft cream ‚ ‚¨‚Ά‚Ζ‚ά‚Ζ,40.824402150050844,140.75688686357114,ΒX§ΒXs’η’¬1-4”Τ1† ƒƒ“ƒNƒXƒe[ƒVƒ‡ƒ“ƒz[ƒ‹ΒX1K,20619,ΒX,2202,27,0115001,ƒJƒtƒF,1,Β‚ΆX“S“Ή^ΒX‰w “k•ΰ32• (2513m),False
26,100000320924,v1n_ISBGCw2,¬‘qH“°,40.71127628,140.59435948,ΒX§ΒXsQ‰Q‰ξ‘Ί19-9,20740,Q‰,1159,14,0111,’θHAH“°,1,JR‰‰H–{ό(V―`ΒX)^Q‰‰w “k•ΰ19• (1525m),False
27,100001159976,licRQHAT6vA,ƒAƒXƒpƒ€•¨Y ΒX‹σ`“X,40.73822547269999,140.68898478890014,ΒX§ΒXs‘ε’J¬’J1-5 ΒX‹σ` 2F,,,,,0128001,‚»‚Μ‘Ό,1,JR‰‰H–{ό(V―`ΒX)^’ίƒ–β‰w “k•ΰ105• (8407m),False
28,EAP0000001234,Wgx08I6jySY,‚Ζ‚¤‚ΣH–[,40.8285799,140.7566691,ΒX§ΒXsΒ–φ1-7-16,20619,ΒX,1998,24,0118001,—m‰ΩqAƒP[ƒL,12,Β‚ΆX“S“Ή^ΒX‰w “k•ΰ31• (2440m),True
29,J000270069,O_x_kIzozfg,δά—Ά’X,40.82636253,140.75432527,ΒX§ΒXs–{’¬5-10-4,20619,ΒX,1819,22,0101053,aHi‚»‚Μ‘Όj,3,ΒX‰w‚©‚ηΤ‚Ε5•Bƒzƒeƒ‹ΒX‚Μ‹ί‚­‚Ε‚·B,True
30,100000320918,MKGJ2tSt-LA,‰w‘OH“°,40.891500405549124,140.8618118136875,ΒX§ΒXsσ’u’J8,20622,σ’‰·ς,81,1,0106001,ƒ‰[ƒƒ“,7,Β‚ΆX“S“Ή^σ’‰·ς‰w “k•ΰ1• (73m),False
31,100000321093,O8Jg--6SP6U,ƒL[ƒtƒ@ƒ‹ƒ“ƒoƒEƒ€,40.82492721,140.77930356,ΒX§ΒXsQ‘Ε1-18-4,20752,“ΒX,1902,23,0118,ƒXƒC[ƒc,7,Β‚ΆX“S“Ή^“ΒX‰w “k•ΰ21• (1643m),False
32,100000320970,oOftc0xbuaw,’ί‹TH“°,40.817432530000005,140.72714377398466,ΒX§ΒXs‹v{u3-18-5,20619,ΒX,1499,18,0111,’θHAH“°,,Β‚ΆX“S“Ή^ΒX‰w “k•ΰ19• (1520m),False
33,J000736822,K73sLtuKPbw,{ΚH–[ “S•½,40.81365500,140.71310020,ΒX§ΒXsQΩ•½‰87-1,20698,VΒX,2659,33,0110001,a•—‹π‰®,2,ƒoƒX’β—―u©‰q‘ΰhΙ“ό‚θϋv‚ζ‚θ@“k•ΰ1•,True
34,J000972384,YhVgH1mwias,‰Τ‚Ά‚Ώ‚Ξ‚ρ,40.80656166,140.74041561,ΒX§ΒXs‘ε–μα‹{182-1,20619,ΒX,2784,34,0108001,Δ“χ,1,JRΒX‰w@•l“czΒƒoƒX‰ΊΤu’†‰›‘ε‹΄Rθv@“k•ΰ1•,True
35,100001453777,zyas-VaH40M,Δ“χEΨ‘—Ώ— ‹‰€,40.8271851627304,140.73539301809683,ΒX§ΒXsV’¬1-3-33,20619,ΒX,207,2,0108001,Δ“χ,6,Β‚ΆX“S“Ή^ΒX‰w “k•ΰ3• (201m),False
36,100000322461,BYfiXeUsXqo,‚Ξ‚ρ‚©‚ή,40.82236841,140.7482786,ΒX§ΒXs’†‰›1-26-1,20619,ΒX,1646,20,0115002,‹i’ƒ“X,5,Β‚ΆX“S“Ή^ΒX‰w “k•ΰ21• (1658m),False
37,ta2z400,52MTUQvizAk,‚ζ‚λ‹ψ 4694,40.82853425,140.73886773,ΒX§ΒXsΐ•ϋ1-5-10,20619,ΒX,470,5,0110,‹π‰®AƒrƒAƒz[ƒ‹,,,True
38,J000269182,UJiqi9nmWu2,a,40.827612342732,140.75165870127,ΒX§ΒXs–{’¬5-2-8,20619,ΒX,1612,20,0101053,aHi‚»‚Μ‘Όj,1,ΒX‰w‚©‚ηΤ‚Ε5`6•Aƒzƒeƒ‹ƒAƒbƒvƒ‹ƒpƒƒX— θB,True
39,100000320952,Szyc5_GUVeM,H–η—t,40.78130992,140.78073795,ΒX§ΒXsK”¨1-21-14,29725,“›δ(ΒX§),3452,43,0111,’θHAH“°,5,Β‚ΆX“S“Ή^“ΒX‰w “k•ΰ41• (3233m),False
40,ID0410201,QJZglEv2h9M,ƒrƒbƒOƒ{[ƒC ΒX‘ε–μ“X,40.801309442204,140.73981300756,ΒX§ΒXs‘ε‘ε–μ‘O“c76-7,29725,“›δ(ΒX§),3310,41,0123001,ƒtƒ@ƒ~ƒƒX,5,Β‚ΆX“S“Ή^ΒX‰w “k•ΰ39• (3092m),True
41,100000849254,PPkPreiL2XQ,cafe LIGHT KICK,40.82532178650471,140.73853216727048,ΒX§ΒXsΓμ1-18-2,20619,ΒX,640,8,0115001,ƒJƒtƒF,6,Β‚ΆX“S“Ή^ΒX‰w “k•ΰ7• (562m),True
42,100001338791,1TwCfoGnH0A,”n“χ—Ώ— ‹g’› ΒX“X,40.82739610000001,140.7478876,ΒX§ΒXs–{’¬2-8-1,20619,ΒX,1251,15,0101043,”n“χ—Ώ—,4,Β‚ΆX“S“Ή^ΒX‰w “k•ΰ19• (1474m),False
43,100001515393,y_yYEYhiNgc,’†‰Ψ‚»‚Ξ ‹α,40.825747,140.747743,ΒX§ΒXs–{’¬2-6-20,20619,ΒX,1314,16,0106001,ƒ‰[ƒƒ“,4,Β‚ΆX“S“Ή^ΒX‰w “k•ΰ19• (1494m),False
44,100000321206,Ee7DL42G0gs,ƒ‰[ƒƒ“‚Ι‚Α‚Ο[‚ά‚ι,40.9021767,140.67348089,ΒX§ΒXs΄…•l³4-1,20652,‰“ΰ,279,3,0106001,ƒ‰[ƒƒ“,3,JR’Γyό^‰“ΰ‰w “k•ΰ2• (155m),False
45,100000320873,WbNshYiHw8A,“Ή‚Ζ‚ρ–xΒX•lΩ“X,40.80839336,140.79194735,ΒX§ΒXs•lΩ5-3-11,20681,¬–φ(ΒX§),1597,19,0101029,‚¨D‚έΔ‚«A‚½‚±Δ‚«,3,Β‚ΆX“S“Ή^“ΒX‰w “k•ΰ14• (1111m),False
46,100001251363,DLcj37L5Qdk,Δ“χƒzƒ‹ƒ‚ƒ“ ƒK‚Α‚Β ¬–φ“X,40.818952760728386,140.79257478713987,ΒX§ΒXs¬–φ3-3-2,20681,¬–φ(ΒX§),651,8,0108003,ƒzƒ‹ƒ‚ƒ“,3,Β‚ΆX“S“Ή^¬–φiΒXj‰w “k•ΰ8• (624m),True
47,100000321114,w3lNmmqkLqo,‚ ‚”‘½lξΒX“X,40.82637357,140.75054217,ΒX§ΒXs–{’¬5-3-23 ƒI[ƒƒ‰‰οΩ1F,20619,ΒX,1498,18,0106001,ƒ‰[ƒƒ“,4,Β‚ΆX“S“Ή^ΒX‰w “k•ΰ23• (1773m),True
48,100000321647,ytPx3vpSCH-,μ‚Μ‰®,40.82351920000001,140.74940620000007,ΒX§ΒXs–{’¬1-4-19,20619,ΒX,1636,20,0110,‹π‰®AƒrƒAƒz[ƒ‹,2,Β‚ΆX“S“Ή^ΒX‰w “k•ΰ22• (1726m),True
49,100000778023,tWh_BBYgDU-,–Ψ‘Ί‰®ƒ‰[ƒƒ“,40.817716,140.734137,ΒX§ΒXs–k‹ΰ‘ς2-10-9,20619,ΒX,1369,17,0106001,ƒ‰[ƒƒ“,4,Β‚ΆX“S“Ή^ΒX‰w “k•ΰ16• (1218m),False
50,100000321170,LwjrsyUi6_s,‚ά‚ι‚«ƒ‰[ƒƒ“,40.82085473,140.75074798,ΒX§ΒXs‹΄–{2-7-16,20619,ΒX,2033,25,0106001,ƒ‰[ƒƒ“,2,Β‚ΆX“S“Ή^ΒX‰w “k•ΰ25• (1977m),False
51,100000321361,2xNf7Y0TByA,ƒ‰[ƒƒ“α’|,40.7954887,140.76067290000003,ΒX§ΒXs•l“c‹Κμ246-19,29725,“›δ(ΒX§),1768,22,0106001,ƒ‰[ƒƒ“,2,Β‚ΆX“S“Ή^“ΒX‰w “k•ΰ37• (2902m),False
52,100000851364,0GCVuookIhM,‚Β‚ι{Κθ•ο’,40.82610024455995,140.754408835582,ΒX§ΒXs–{’¬5-10-8,20619,ΒX,1886,23,0110,‹π‰®AƒrƒAƒz[ƒ‹,2,Β‚ΆX“S“Ή^ΒX‰w “k•ΰ28• (2202m),True
53,100000839688,-7RQV-sGfJk,ƒ‰[ƒƒ“H–[ ”Ι,40.797136171296565,140.7769359572461,ΒX§ΒXs“›δ”ƒc‹΄10-1,29725,“›δ(ΒX§),1330,16,0106001,ƒ‰[ƒƒ“,10,Β‚ΆX“S“Ή^“ΒX‰w “k•ΰ20• (1582m),False
54,100001485860,_PXd7OvgHMg,‹π‰® ‚±‚Φ‚Ά‘Ύ,40.82341484654821,140.73350959847085,ΒX§ΒXsΓμ3-6-17,20619,ΒX,626,7,0110,‹π‰®AƒrƒAƒz[ƒ‹,2,Β‚ΆX“S“Ή^ΒX‰w “k•ΰ8• (618m),False
55,100001312344,uzfGtRWtkfc,κ,40.825280526668195,140.74743290114407,ΒX§ΒXs–{’¬1-1-9 Τ“cƒrƒ‹1F,20619,ΒX,1321,16,0110,‹π‰®AƒrƒAƒz[ƒ‹,3,Β‚ΆX“S“Ή^ΒX‰w “k•ΰ19• (1469m),True
56,100000996816,d5fUTrHHnxQ,ƒ‰[ƒƒ“~,40.824737802316,140.75496829404,ΒX§ΒXs’η’¬H—Ζ‰οΩ 1F1-2-21,20619,ΒX,2006,25,0106001,ƒ‰[ƒƒ“,3,Β‚ΆX“S“Ή^ΒX‰w “k•ΰ29• (2288m),False
57,100000763242,oaKDnfwVMbs,ƒxƒWƒJƒtƒF‚Ώ‚α‚ά‚ά,40.807442,140.744476,ΒX§ΒXs—Ξ1-12-29,29725,“›δ(ΒX§),2615,32,0115001,ƒJƒtƒF,3,Β‚ΆX“S“Ή^ΒX‰w “k•ΰ33• (2592m),True
58,100001009379,pZXyOe3japY,’†‰Ψ‚»‚Ξ‚³‚Ζ‚¤,40.795769425234,140.76886111516,ΒX§ΒXs“›δƒGƒXƒR[ƒg”ƒb‹΄1F”ƒb‹΄51-2,29725,“›δ(ΒX§),1297,16,0106001,ƒ‰[ƒƒ“,3,Β‚ΆX“S“Ή^“ΒX‰w “k•ΰ28• (2194m),False
59,100000715049,Pu4DBL1Gk0-,ƒIƒ‹ƒuƒ[ƒg Q‘Ε“X,40.8236223,140.77604840000004,ΒX§ΒXs‰Τ‰€2-41-7,20752,“ΒX,1786,22,0117,ƒpƒ“AƒTƒ“ƒhƒCƒbƒ`,3,Β‚ΆX“S“Ή^“ΒX‰w “k•ΰ21• (1616m),False
60,100000450709,QWXgFUFvSm-,‚©‚ΘƒG–ε,40.81761,140.71508900000003,ΒX§ΒXs—Ά©2-9-21,20619,ΒX,2304,28,0101029,‚¨D‚έΔ‚«A‚½‚±Δ‚«,3,Β‚ΆX“S“Ή^ΒX‰w “k•ΰ32• (2503m),False
61,100000752412,pVbTOlkvwZ-,–Λ‰®WS,40.824152,140.756144,ΒX§ΒXs’η’¬1-3-11,20619,ΒX,2181,27,0106001,ƒ‰[ƒƒ“,2,Β‚ΆX“S“Ή^ΒX‰w “k•ΰ31• (2428m),False
62,100000830654,_X-EihI3HLs,X‚ΜƒƒXƒgƒ‰ƒ“@ƒ‰ƒCƒAƒ“ ΒX‹σ`“X,40.738436211781,140.68913065987,ΒX§ΒXs‘ε’J¬’J1-5 ΒX‹σ`ƒrƒ‹2FƒtƒƒA,20620,ΒX‹σ`,287,3,0101,aH,2,JR‰‰H–{ό(V―`ΒX)^’ίƒ–β‰w “k•ΰ105• (8403m),True
63,100001156499,dnQe9DK1LDs,Antique Shop & Music Bar G.G.G.,40.815053465343375,140.72423866627128,ΒX§ΒXsη•x’¬2-9-6,20619,ΒX,1860,23,0115002,‹i’ƒ“X,2,Β‚ΆX“S“Ή^ΒX‰w “k•ΰ24• (1908m),False
64,100001085946,8vBN_TK88fc,ƒAƒ“ƒg ƒƒƒY,40.796443628121,140.76553657542,ΒX§ΒXs“›δ”ƒc‹΄1407-2,29725,“›δ(ΒX§),1283,16,0102002,ƒpƒXƒ^AƒsƒU,2,Β‚ΆX“S“Ή^“ΒX‰w “k•ΰ31• (2408m),False
65,100001156346,UkNKCnXg4Gk,‚¨H– –­υ2†“X,40.8187543651037,140.7836847325325,ΒX§ΒXs’†’Ο3-4-7,20752,“ΒX,1262,15,0111,’θHAH“°,2,Β‚ΆX“S“Ή^“ΒX‰w “k•ΰ12• (943m),False
66,100001351231,mHxcrC9cFjc,L“—Ώ— ““c,40.8263659,140.74201770000002,ΒX§ΒXsV’¬2-6-27,20619,ΒX,786,9,0104004,L“—Ώ—,2,Β‚ΆX“S“Ή^ΒX‰w “k•ΰ11• (859m),False
67,100001133599,BnX896Ebc8w,ƒ^ƒpƒX,40.82696190450555,140.73726498658436,ΒX§ΒXsV’¬ƒpƒT[ƒWƒ…Lκ1-8-5,20619,ΒX,416,5,0110,‹π‰®AƒrƒAƒz[ƒ‹,2,Β‚ΆX“S“Ή^ΒX‰w “k•ΰ5• (338m),False
68,100586016675176449,6onKTKhUXXM,ΒX‚ά‚Ώ‚Θ‚©‚¨‚ρ‚Ή‚ρ,40.8247763,140.7353542,ΒX§ΒXsΓμ 1-10-14,20619,ΒX,575,7,0418004,‰·ς—κ,29,,True
69,100001096017,1fFpqgRLico,Δ’Ή κS,40.827142536248,140.74331711864,ΒX§ΒXsΐ•ϋ2-8-14,20619,ΒX,841,10,0101025,Δ‚«’Ή,2,Β‚ΆX“S“Ή^ΒX‰w “k•ΰ12• (967m),True
70,100001234864,DHbC0QVP7NM,ƒJƒ}ƒ“ƒx[ƒOƒ‹,40.8365587,140.71810219999998,ΒX§ΒXs‰«Ω5-20-8,20619,ΒX,1574,19,0117,ƒpƒ“AƒTƒ“ƒhƒCƒbƒ`,1,Β‚ΆX“S“Ή^ΒX‰w “k•ΰ26• (2044m),False
71,100001491055,HtjVqnNL-H-,Δ–Λ‰® ‚Ι‚Ϊ‚Δ‚Β,40.81757779881492,140.7278609223786,ΒX§ΒXsη•x’¬1-11-21,20619,ΒX,1456,18,0106001,ƒ‰[ƒƒ“,1,Β‚ΆX“S“Ή^ΒX‰w “k•ΰ19• (1463m),True
72,100000320811,ci9z4vjjWLw,–k‚ΜΑ,40.82735936,140.73768173,ΒX§ΒXsV’¬1-9-17 ƒzƒeƒ‹ƒTƒ“ƒ‹[ƒgΒX“Ω1F,20619,ΒX,416,5,0101017,‚»‚Ξ,1,Β‚ΆX“S“Ή^ΒX‰w “k•ΰ5• (358m),False
73,100001278746,x-GFV2bGLnU,Justine coffee,40.82467260070618,140.73734810352323,ΒX§ΒXsΓμ1-16-2 ƒJƒhƒ[ƒ†ƒrƒ‹105,20619,ΒX,666,8,0115001,ƒJƒtƒF,1,Β‚ΆX“S“Ή^ΒX‰w “k•ΰ7• (548m),True
74,100001152464,fFQVrYEF3FA,‚η`‚ί‚ρ έ‰®,40.829273162746446,140.76992645398468,ΒX§ΒXs‡‰Y1-9-23,20752,“ΒX,2686,33,0106001,ƒ‰[ƒƒ“,1,Β‚ΆX“S“Ή^“ΒX‰w “k•ΰ32• (2493m),False
75,100000320843,o53PLl1JVMw,¬­ƒ„ƒL‚»‚Ξ“X,40.80963616,140.73126331,ΒX§ΒXs‹ΰ‘ς4-16-41,20619,ΒX,2439,30,0101017,‚»‚Ξ,1,Β‚ΆX“S“Ή^ΒX‰w “k•ΰ27• (2147m),False
76,100001252287,yfBJj35VD3w,•‹»x‰‡πκ “–k° ΒX–{’¬“X,40.8260106,140.74737570000002,ΒX§ΒXs–{’¬2-5-6,20619,ΒX,1255,15,0110,‹π‰®AƒrƒAƒz[ƒ‹,1,Β‚ΆX“S“Ή^ΒX‰w “k•ΰ18• (1433m),False
77,100001416126,Y7ZHtIqMCjs,‚β‚«‚Ζ‚θ R{,40.781613732361286,140.76493563988117,ΒX§ΒXs–μK΅“c27-2 ƒ‰.ƒ|[ƒ‹”b1F,29725,“›δ(ΒX§),3302,41,0110,‹π‰®AƒrƒAƒz[ƒ‹,1,Β‚ΆX“S“Ή^“›δiΒXj‰w “k•ΰ35• (2733m),True
78,100001233134,1REMaEGfOrM,ƒXƒ^[ƒoƒbƒNƒXƒR[ƒq[ ΒX’†‰›“X,40.79725606704217,140.7393979490738,ΒX§ΒXsrμ“΅Λ134-2,29725,“›δ(ΒX§),3541,44,0115001,ƒJƒtƒF,1,Β‚ΆX“S“Ή^ΒX‰w “k•ΰ44• (3502m),False
79,100001470257,ZLl12lywjkA,R’Έ‰wƒJƒtƒF&ƒƒXƒgƒ‰ƒ“ ‚Π‚Θ‚΄‚­‚η,40.68075244914085,140.83180416441803,ΒX§ΒXsrμ¦…‘ς1-12 R’Έ‰wΙ 2F,,,,,0115001,ƒJƒtƒF,1,,False
80,100001508222,zvh0liqc2tQ,–Λ ‚Ζ‚¤‚¬‚ε‚¤,40.823077046270306,140.70687887277995,ΒX§ΒXsO“ΰξ³56-12,20698,VΒX,1441,18,0106001,ƒ‰[ƒƒ“,1,JR‰‰H–{ό(V―`ΒX)^VΒX‰w “k•ΰ20• (1529m),False
81,100001492731,6Cjqu9w0Zbo,NHKΒX•ϊ‘—‹Η ΠυH“°,40.8195095,140.75940650000007,ΒX§ΒXsΌ΄2-1-1,29725,“›δ(ΒX§),2264,28,0111001,’θHAH“°,1,Β‚ΆX“S“Ή^“›δiΒXj‰w “k•ΰ25• (1975m),False
82,100001541286,ZiuhkNIVGkM,‚β‚«‚Ζ‚θ‚µ‚ρ‚Ώ‚α‚ρ,40.810973682855376,140.7604857469827,ΒX§ΒXs‰–μ2-10-23,29725,“›δ(ΒX§),1123,14,0101025,Δ‚«’Ή,1,Β‚ΆX“S“Ή^“›δiΒXj‰w “k•ΰ16• (1262m),False
83,100000932936,D6VMIUUnwgI,F’[Δ‹π‰®…—Ά‰€,40.80935963379,140.72470641987,ΒX§ΒXsQΩ‘O“c4-30-27,20619,ΒX,2590,32,0110,‹π‰®AƒrƒAƒz[ƒ‹,1,Β‚ΆX“S“Ή^ΒX‰w “k•ΰ31• (2415m),True
84,100001109246,0pt2xYbU7q-,ƒ~ƒhƒƒ„,40.822506499308,140.74032458177,ΒX§ΒXs’·“‡’·”φƒrƒ‹ 1F2-4-12,20619,ΒX,1137,14,0119001,ƒo[,1,Β‚ΆX“S“Ή^ΒX‰w “k•ΰ12• (923m),True
85,100001097028,tM-AbCmUGoo,ƒ‰ƒvƒ‰ƒXΒ‚ΆX,40.822065256225,140.74604529552,ΒX§ΒXs’†‰›1-11-18,20619,ΒX,1546,19,0110,‹π‰®AƒrƒAƒz[ƒ‹,7,Β‚ΆX“S“Ή^ΒX‰w “k•ΰ19• (1453m),True
86,J000692839,FxBvTrT_LiQ,”–—‘½ζΜ”Ό•Ίƒ‘ ΒX–{’¬“X,40.82589584,140.75056719,ΒX§ΒXs–{’¬5-4-24,20619,ΒX,1533,19,0110001,a•—‹π‰®,7,‚i‚qΒX‰w“k•ΰ15•,True
87,J000269877,cEttAZ1Nhm6,aH ‚Θ‚²‚έ (ƒA[ƒgƒzƒeƒ‹ΒX),40.82715951,140.74632295,ΒX§ΒXs–{’¬2-1-26 ƒA[ƒgƒzƒeƒ‹ΒX2F,20619,ΒX,1092,13,0101053,aHi‚»‚Μ‘Όj,,ΒX‰w‚©‚η“k•ΰ15•BΒXx@‚Μό‚©‚ΆAƒA[ƒgƒzƒeƒ‹ΒX2F‚Ι‚ ‚ιƒƒXƒgƒ‰ƒ“B‚¨–~‚Μϊ‚ΰ‹x‚ά‚Έ‰c‹Ζ‚µ‚ά‚·B,False
88,J001201561,gcbhARUB2c6,πζE{Κ ‚θ‚©‚θ,40.82710121,140.74755065,ΒX§ΒXs–{’¬2’–Ϊ1-14,20619,ΒX,1190,14,0110001,a•—‹π‰®,,ΒX‰w‚ζ‚θ“k•ΰ15•BƒƒVƒ“ƒgƒ“ƒzƒeƒ‹— ’Κ‚θ‚P‚Β–Ϊ‚ΜM†pB“X–Ό‚πυ‚ί”²‚Ά‚½‘ε‚«‚Θ•‚Άψ–‹‚–Ϊσ‚Ε‚·,True
89,1006604,mmfB9VSN9bM,ƒsƒU@ƒeƒ“DƒtƒH[@‰Τ‰€“X,40.82474936,140.77563728,ΒX§ΒXs‰Τ‰€2’–Ϊ37-4,20752,“ΒX,1913,23,0102002,ƒpƒXƒ^AƒsƒU,5,Β‚ΆX“S“Ή^“ΒX‰w “k•ΰ22• (1700m),False
90,3032031,Eu30tH_3_0o,D–yC‘NΫ@ΒXΌ“X,40.82571495,140.72429359,ΒX§ΒXsη 1’–Ϊ21-21,20619,ΒX,967,12,0101012,¬‚θυi,3,,False
91,100000702407,Jon__frOVBM,–kRH“°,40.8268528,140.7919802,ΒX§ΒXs‰‘Ά“Ή3-15-8,20681,¬–φ(ΒX§),1097,13,0111,’θHAH“°,4,Β‚ΆX“S“Ή^¬–φiΒXj‰w “k•ΰ15• (1177m),False
92,100001500174,3o_yVkmc8Zc,‚­‚Β‚λ‚¬‹π‰®  ‚·‚¬‚Μ‚±,40.82511903780226,140.75171662759533,ΒX§ΒXs‹΄–{1-6-10,20619,ΒX,1666,20,0110,‹π‰®AƒrƒAƒz[ƒ‹,5,Β‚ΆX“S“Ή^ΒX‰w “k•ΰ25• (1935m),True
93,1001106,2wD_8ovde4s,ƒJƒ[ƒnƒEƒXCoCoλ”Τ‰®@ΒX‘ε–μ“X,40.80080675,140.74120737,ΒX§ΒXs“‘ε–μ1-7-11,29725,“›δ(ΒX§),3229,40,0107001,ƒJƒ[,4,Β‚ΆX“S“Ή^ΒX‰w “k•ΰ40• (3196m),True
94,100001312923,SAZJ1DrgRIU,δH–&‹i’ƒ ‹ς’ΰ,40.78701607589457,140.7510437008918,ΒX§ΒXs”ƒc–π°’J257-1,29725,“›δ(ΒX§),3010,37,0115002,‹i’ƒ“X,4,Β‚ΆX“S“Ή^“›δiΒXj‰w “k•ΰ38• (2986m),False
95,100000320783,qnD24fx1ot6,‚β‚«‚Ζ‚θƒIƒ“ƒ[ƒh,40.80950818,140.71169769,ΒX§ΒXsQΩ‹ί–μ24,20619,ΒX,3143,39,0101025,Δ‚«’Ή,4,JR‰‰H–{ό(V―`ΒX)^VΒX‰w “k•ΰ36• (2844m),False
96,3007796,9U7d3fRfzG2,ƒKƒXƒg@ΒX•lΩ“X,40.80669345,140.78696732,ΒX§ΒXs•lΩ5’–Ϊ1-3,20752,“ΒX,1676,20,0102,—mH,4,Β‚ΆX“S“Ή^“ΒX‰w “k•ΰ9• (675m),True
97,100000966954,mdL-YF5HjiA,“V‹η “ƒoƒCƒpƒX“X,40.826974194521,140.79678465965,ΒX§ΒXs“‘Ά“Ή3-6-1,20681,¬–φ(ΒX§),1251,15,0108003,ƒzƒ‹ƒ‚ƒ“,4,Β‚ΆX“S“Ή^¬–φiΒXj‰w “k•ΰ13• (983m),False
98,J000647245,qWNMimLFPxk,‘ε‚ή‚η,40.80242912,140.75370359,ΒX§ΒXs•l“c2-23-12,29725,“›δ(ΒX§),1972,24,0101053,aHi‚»‚Μ‘Όj,15,ΒXIC‚©‚ηΤ‚Ε–ρ5•Aƒxƒj[ƒ}[ƒgΟυ’Κ“X‘¤‚Ι“ό‚θ3‚Β–Ϊ‚Μp‚Ε‚·B,False
99,245765463301660672,bY3XR-Er7Xc,“Ή‚Μ‰wu‚Θ‚έ‚¨‚©vƒAƒbƒvƒ‹ƒqƒ‹ ƒhƒ‰ƒCƒuƒXƒ‹[ƒ}ƒ‹ƒVƒF,40.7180806,140.5801772,ΒX§ΒXsQ‰‘ε—­‘ς–μK2”Τ’n3,20740,Q‰,1583,19,03,ƒƒWƒƒ[EƒGƒ“ƒ^ƒ,25,,True
0,100001146075,NbwofhrWGKU,”b“c‰·ς —Vε,40.696001013759,140.91207187803,ΒX§ΒXs‹ξ[‘ς766-2,,,,,0101031,¥‚ΰ‚ΜA‹¥Aeq¥,23,,False
1,100000320700,ryNsh3-UMv-,“μ‘ε–ε(Δ“χ)Ό΄“X,40.81743595,140.76311109,ΒX§ΒXsΌ΄3-9-18,29725,“›δ(ΒX§),1823,22,0108001,Δ“χ,3,Β‚ΆX“S“Ή^“ΒX‰w “k•ΰ29• (2252m),True
2,100000322532,4CY10s2bP3U,‚ ‚¶H,40.82802875,140.73858166,ΒX§ΒXsΐ•ϋ1-4-8,20619,ΒX,453,5,0110,‹π‰®AƒrƒAƒz[ƒ‹,4,Β‚ΆX“S“Ή^ΒX‰w “k•ΰ6• (433m),False
3,55683,sIZAR5y8B3k,‚³‚­‚η–μ•S‰έ“X ΒX–{“X,40.82605675,140.73920393,ΒX§ΒXsV’¬1-13-2,20619,ΒX,663,8,0115001,ƒJƒtƒF,24,,False
4,100000320961,O06d1mGy0DE,‘εOH“°”Ό“c‰®EΒXΞ]“X,40.83344177,140.70025836,ΒX§ΒXsΞ]OD45-1,20698,VΒX,1274,15,0101,aH,2,JR‰‰H–{ό(V―`ΒX)^VΒX‰w “k•ΰ13• (1004m),True
5,100000321128,bBkI3ix_2RQ,C‹¬ƒ‰[ƒƒ“Β“c“X,40.82971732,140.72827934,ΒX§ΒXsΒ“c2-1-1,20619,ΒX,393,4,0106001,ƒ‰[ƒƒ“,3,Β‚ΆX“S“Ή^ΒX‰w “k•ΰ9• (726m),True
6,100000938192,CxMU892nYeU,ƒƒXƒgƒ‰ƒ“ƒGƒsƒX,40.827660454744,140.75108837358994,ΒX§ΒXs–{’¬ƒAƒbƒvƒ‹ƒpƒƒXΒX1F5-1-5,20619,ΒX,1520,19,0101031,¥‚ΰ‚ΜA‹¥Aeq¥,3,Β‚ΆX“S“Ή^ΒX‰w “k•ΰ23• (1818m),True
7,100000321045,YCDwFDBEMTI,‚¨‚«‚Θ‰® V’¬“X,40.8272788,140.73676789,ΒX§ΒXsV’¬1-8-2,20619,ΒX,352,4,0118,ƒXƒC[ƒc,2,Β‚ΆX“S“Ή^ΒX‰w “k•ΰ4• (273m),False
8,100000320864,Ur2vEhHVdLw,ƒTƒ“ƒ[ƒhΒX1Fƒ^ƒ€ƒ‰EΔ‚»‚ΞƒVƒ‡ƒbƒv,40.80781182,140.75329248,ΒX§ΒXs—Ξ3-9-2 ƒCƒIƒ“1Fƒt[ƒhƒR[ƒg,29725,“›δ(ΒX§),1795,22,0101029,‚¨D‚έΔ‚«A‚½‚±Δ‚«,2,Β‚ΆX“S“Ή^ΒX‰w “k•ΰ39• (3099m),False
9,100000320938,Xomm5tu7ELs,‚¨H–‚­‚ά‚Α‚±,40.82276478236614,140.75898718895493,ΒX§ΒXs’η’¬2-20-1,20619,ΒX,2512,31,0101,aH,2,Β‚ΆX“S“Ή^“›δiΒXj‰w “k•ΰ29• (2294m),True
