,id,gid,name,latitude,longitude,address,satation_id,station_name,station_distance,station_time,genre_code,genre_name,review_count,access,paypay_flg
0,16191,ORjsgbkXNpM,東京スカイツリー(R),35.70999811681542,139.81078472122292,東京都墨田区押上1-1-2,22578,押上,270,3,0303013,レジャー、趣味（その他）,1648,,False
1,100001266371,bjSjLISuKzc,首里城公園 レストラン首里杜,26.2179418,127.71604279999997,沖縄県那覇市首里金城町1-2 首里城公園内,29469,儀保,1094,13,0101032,沖縄料理,974,ゆいレール／儀保駅 徒歩10分 (799m),False
2,2000,7oqueF17FRQ,羽田空港国際線旅客ターミナル,35.54500699027675,139.76921826578348,東京都大田区羽田空港2-6-5 国際線旅客ターミナル,29672,羽田空港第３ターミナル(京急),141,1,0303013,レジャー、趣味（その他）,1191,,False
3,100001304312,rwngV12Va6Q,竹庭 TOMORI 大宮店,35.905639,139.6254057,埼玉県さいたま市大宮区仲町1-1-1 大宮タウンビル 5F,21987,大宮(埼玉県),126,1,0110,居酒屋、ビアホール,777,JR京浜東北線／大宮駅 徒歩1分 (59m),True
4,100001165162,6oXzW2jN0uw,道後温泉本館,33.8519871,132.7863817,愛媛県松山市道後湯之町5-6,27862,道後温泉,293,3,0115002,喫茶店,740,伊予鉄道３系統(市駅線)／道後温泉駅 徒歩3分 (241m),False
5,100001320694,MrOXJWdUsV6,ヒルトン東京お台場,35.62641659346143,139.77067023653422,東京都港区台場1-9-1,29055,台場,170,2,0102,洋食,716,ゆりかもめ／台場駅 徒歩2分 (126m),False
6,100000454011,UvQYYXh1Yr2,横浜ロイヤルパークホテル,35.45451,139.63127199999997,神奈川県横浜市西区みなとみらい2-2-1-3 横浜ロイヤルパークホテル,23180,桜木町,486,6,0102005,フランス料理（フレンチ）,695,JR京浜東北線／桜木町駅 徒歩5分 (380m),False
7,100001174197,U9aT-GLzB3U,品川プリンスホテル,35.62790636,139.73520699,東京都港区高輪4-10-30 品川プリンスホテル,22709,品川,451,5,0102005,フランス料理（フレンチ）,672,JR山手線／品川駅 徒歩4分 (280m),False
8,s000072621,Dvb1JxluUXE,三宮 イタリアン ディナー＆ワインバー ラ・ゴローニャ,34.6960707,135.19223607,兵庫県神戸市中央区中山手通1-10-10  ,26376,三宮(神戸市営),207,2,0102006,イタリア料理（イタリアン）,56,,True
9,100001172661,TIGK0cJGS8o,ホテルミラコスタ,35.62711063,139.88746655,千葉県浦安市舞浜1-13,29372,東京ディズニーシー・ステーション,291,3,0102006,イタリア料理（イタリアン）,661,JR京葉線／舞浜駅 徒歩14分 (1050m),False
10,100000013428,s-ZTkVx10O-,リーガロイヤルホテル大阪,34.69031,135.48733600000003,大阪府大阪市北区中之島5-3-68 リーガロイヤルホテル,29649,中之島,107,1,0127001,オーベルジュ,643,京阪中之島線／中之島駅 徒歩2分 (133m),True
11,100000697768,5b8KBC2mhSw,ホテル日航アリビラ -ヨミタンリゾート沖縄-,26.4153835,127.7151202,沖縄県中頭郡読谷村儀間600,,,,,0128001,その他,735,,False
12,100000841000,-DtfCqyYLfE,レゴカフェ,35.629547859351305,139.7761122539673,東京都港区台場1-6-1 デックス東京ビーチ アイランドモール 7F,29054,お台場海浜公園,273,3,0115001,カフェ,810,ゆりかもめ／お台場海浜公園駅 徒歩4分 (278m),False
13,100000001123,561qbuoW3to,帝国ホテル 東京,35.6721277,139.7589121,東京都千代田区内幸町1-1-1 帝国ホテル,22951,日比谷,205,2,0120004,ラウンジ,594,東京メトロ日比谷線／日比谷駅 徒歩4分 (307m),False
14,100000715431,KmBZIG-8gd-,ヨコハマ グランド インターコンチネンタルホテル,35.4577760826358,139.637173121704,神奈川県横浜市西区みなとみらい1-1-1 ヨコハマ グランド インターコンチネンタル ホテル,29480,みなとみらい,489,6,0304002,旅館,592,みなとみらい線／みなとみらい駅 徒歩7分 (532m),False
15,EAP0000002129,u3qqmmWfw-w,シェラトン・グランデ・トーキョーベイ・ホテル,35.625948,139.877828,千葉県浦安市舞浜1-9,29371,ベイサイド・ステーション,388,4,0118001,洋菓子、ケーキ,879,,False
16,100001159810,moRLdPOJ5Oo,ファーム富田,43.41814621309573,142.42799449602035,北海道空知郡中富良野町基線北15号,20379,中富良野,1694,21,0118,スイーツ,590,JR富良野線／ラベンダー畑駅 徒歩5分 (339m),True
17,YP2076194978CE,A4zeICZGtug,健康食工房 たかの,36.54519369,136.67874821,石川県金沢市三口新町3丁目11番22号 健康食工房 たかの,23730,野町,3751,46,0113001,自然食,3,北陸鉄道石川線／野町駅 徒歩50分 (3942m),False
18,100000033918,X2SFFPMTcss,刻 KIZAMI池袋西口ロマンス通り店　,35.7328473,139.70948870000007,東京都豊島区西池袋1-38-1 池袋YSステージ 3F,22513,池袋,188,2,0110,居酒屋、ビアホール,572,JR山手線／池袋駅 徒歩5分 (338m),True
19,100000799591,BQ7t0j4lKY2,ヒルトン福岡シーホーク,33.59460512498441,130.35947501779106,福岡県福岡市中央区地行浜2-2-3 ヒルトン福岡シーホークホテル,28240,唐人町,1350,16,0102005,フランス料理（フレンチ）,565,福岡市営地下鉄空港線／西新駅 徒歩15分 (1162m),False
20,100000856930,u_VdKKxZKbI,ホテル雅叙園東京,35.63054543413921,139.71419203241544,東京都目黒区下目黒1-8-1,23018,目黒,634,7,0102,洋食,562,JR山手線／目黒駅 徒歩6分 (414m),False
21,5cbc19fb69702d6463480000,q8c9v5w8I6U,那覇空港,26.20621203,127.65062515,沖縄県那覇市字鏡水150,29031,那覇空港(鉄道),577,7,01,暮らし、生活,864,,False
22,YP1713253582FB,tHPAuEx8S5o,MOTSUYA 福多　其ノ二,36.69754537,137.21180451,富山県富山市桜町2-6-4 布一ビル2階,24688,新富町(富山県),200,2,0101047,もつ料理,4,富山地鉄市内線／新富町（富山）駅 徒歩2分 (158m),True
23,100000911221,s0XPEBroZ42,さっぽろテレビ塔スカイラウンジ,43.061073932643,141.35639706496,北海道札幌市中央区大通西1さっぽろテレビ塔 3F,20073,大通,47,0,0115001,カフェ,722,札幌市営地下鉄東西線／大通駅 徒歩3分 (218m),False
24,s000000224,Hm4jVVZLxOo,一粋 池袋店,35.72666424,139.71137204,東京都豊島区南池袋1-16-18 フェイス池袋4F,22513,池袋,136,1,0110001,和風居酒屋,615,,False
25,100000003634,CZoztWvlJHc,八芳園,35.6383550462322,139.72864640741,東京都港区白金台1-1-1,29327,白金台,228,2,0102005,フランス料理（フレンチ）,501,東京メトロ南北線／白金台駅 徒歩4分 (283m),True
26,100000722491,HiVND-PF2Hg,横浜ベイホテル東急,35.4568951,139.63518350000004,神奈川県横浜市西区みなとみらい2-3-7 クイーンズスクエア横浜 パンパシフィック横浜ベイホテル東急,29480,みなとみらい,485,6,0103001,バイキング,497,みなとみらい線／みなとみらい駅 徒歩5分 (335m),False
27,37864,QppMZpvgnHY,横浜中華街,35.44242144,139.64628875,神奈川県横浜市中区山下町,29483,元町・中華街,322,4,0115001,カフェ,811,,False
28,100001394345,Jd5hkhh0Mzg,リゾート個室 × チーズバル 光屋 -HIKARIYA- 渋谷本店,35.661429637980696,139.7011102273068,東京都渋谷区神南1-22-10皆川ビル3F,22715,渋谷,217,2,0110,居酒屋、ビアホール,482,JR山手線／渋谷駅 徒歩2分 (151m),False
29,s000312599,L1_sMGVY3Rc,Restaurant Titti,36.9794924,140.0339504,栃木県那須塩原市豊浦93-1  ,21764,黒磯,2688,33,0102005,フランス料理（フレンチ）,2,,True
30,100000699671,QEAO766zsTM,ザ・ブセナテラス,26.540519,127.93573479999998,沖縄県名護市喜瀬1808,,,,,0304002,旅館,467,,False
31,100000701456,aQHolyjRZpo,天龍寺 篩月,35.01512745231582,135.6736690158691,京都府京都市右京区嵯峨天龍寺芒ノ馬場町-68,25591,嵐山(京福線),450,5,0101006,精進料理,466,嵯峨野観光鉄道／トロッコ嵐山駅 徒歩6分 (441m),True
32,100001435299,d4CV5NgbKuk,トサカモミジ 池袋店,35.73039908252579,139.71389950000003,東京都豊島区東池袋1-4-2 三経33ビル 6F,22513,池袋,124,1,0110,居酒屋、ビアホール,461,JR山手線／池袋駅 徒歩3分 (188m),True
33,100000834746,SnlnqzjKa5A,ホテルニューグランド,35.444895666355,139.64951323076502,神奈川県横浜市中区山下町10番地,29483,元町・中華街,188,2,0101,和食,459,みなとみらい線／元町・中華街駅 徒歩4分 (293m),False
34,10175,v1eIrb3Et_c,小樽運河,43.1986134,141.00374372,北海道小樽市港町,20098,小樽,984,12,0305003,博物館、科学館,757,,False
35,YP1237303856DB,9erZ4t8bKC6,日田温泉 亀山亭ホテル,33.3126610899,130.9308918099,大分県日田市隈1丁目3-10,28792,日田,940,11,0304002,旅館,17,,False
36,YP1056487319AA,Y3m6DGNJkmQ,一軒家ダイニングわいわい,35.51762454,140.31139927,千葉県大網白里市駒込1203-5,22211,大網,738,9,0110002,洋風居酒屋,16,JR外房線／大網駅 徒歩7分 (563m),False
37,100001315300,TWa4HrlHrdY,明治記念館,35.67794772,139.72188690,東京都港区元赤坂2-2-23,22710,信濃町,474,5,0101011,日本料理,442,JR中央・総武線／信濃町駅 徒歩5分 (388m),False
38,YP1996685195BF,pP5Zfon_R3-,個室焼肉＆BAR　十炭　川崎駅前,35.52961383,139.6991345499,神奈川県川崎市川崎区駅前本町３－４　2階,23126,川崎,239,2,0108001,焼肉,15,JR東海道本線(東京～熱海)／川崎駅 徒歩4分 (263m),True
39,107683,kub_eZonpis,六義園,35.732544,139.744248,東京都文京区本駒込6丁目7-17,22683,駒込,457,5,01,グルメ,743,,False
40,YP0927449176CC,Nsp3V6APoFU,酔月亭,36.32360115,139.0060950799,群馬県高崎市檜物町114,21913,高崎,675,8,0110001,和風居酒屋,2,高崎駅西口から高崎市役所方面に約395m進み、ビジネスホテルたきざわの信号を右折し、約160m進んだ右側。,True
41,100001386523,2bQglqA4UX-,とろにく 立川店,35.700092577120245,139.41508786869986,東京都立川市曙町 2-11-7 立川リージェント4F,22799,立川,257,3,0110,居酒屋、ビアホール,411,JR中央本線(東京～塩尻)／立川駅 徒歩3分 (222m),True
42,100000808824,LbyaXNHInEM,ルネッサンスリゾートオキナワ 海風,26.436655668909392,127.78930000790635,沖縄県国頭郡恩納村山田3425-2,,,,,0101032,沖縄料理,410,,True
43,100000066523,4BL9bxbsBls,裏NO庭 恵比寿店,35.646026,139.709799,東京都渋谷区恵比寿南1-7-8 恵比寿サウスワン1F B区画,22548,恵比寿,217,2,0110,居酒屋、ビアホール,407,JR山手線／恵比寿駅 徒歩1分 (79m),True
44,2617,s-Y1Jml4jSU,横浜赤レンガ倉庫,35.4522984,139.64313040000002,神奈川県横浜市中区新港1-1,29482,日本大通り,690,8,0115001,カフェ,704,,False
45,100001394659,CgUb6l0Oe2I,ゑびす鯛 横浜店,35.463374,139.61758699999996,神奈川県横浜市西区南幸2-9-17 PAプラザ横浜ビル7F,23368,横浜,370,4,0110,居酒屋、ビアホール,405,JR東海道本線(東京～熱海)／横浜駅 徒歩5分 (336m),True
46,100000059865,A-uHTWaXWRI,竹庭TOMORI 船橋店,35.7010772,139.9867898,千葉県船橋市本町4-2-9 菅野屋船橋ビル5F,22427,船橋,185,2,0110,居酒屋、ビアホール,404,京成本線／京成船橋駅 徒歩3分 (180m),True
47,100000700279,vdY6a-qEjUE,札幌グランドホテル,43.062685821791895,141.350470428819,北海道札幌市中央区北一条西4丁目,20210,さっぽろ,314,3,0103001,バイキング,403,札幌市営地下鉄南北線／さっぽろ駅 徒歩5分 (400m),False
48,100001435363,ducMS9jasi2,地鶏専門個室 雲仙 池袋店,35.72882792,139.71253574,東京都豊島区南池袋1-23-1 フジビル7F-A,22513,池袋,53,0,0110,居酒屋、ビアホール,401,,False
49,100001283775,CU3fA6pakDw,五稜郭タワー カフェスタンド,41.79476400726159,140.75410118103025,北海道函館市五稜郭町43-9 五稜郭タワー 1F,20205,五稜郭公園前,686,8,0118,スイーツ,597,函館市電２系統／五稜郭公園前駅 徒歩9分 (650m),False
50,100000056663,WhGMeT7RTBA,裏NO庭 銀座店,35.673001,139.76574700000003,東京都中央区銀座3-4-17銀座オプティカビル5F,22642,銀座一丁目,168,2,0110,居酒屋、ビアホール,390,東京メトロ有楽町線／銀座一丁目駅 徒歩3分 (208m),True
51,p739102,roL6V4pxoog,新宿ハワイアンビアガーデン ALOHA FLAMS,35.69522306,139.70131305,東京都新宿区歌舞伎町1-21-1 第二東亜会館ビルRF,22768,西武新宿,189,2,0110005,ビアホール,574,西武新宿線／西武新宿駅 徒歩2分 (127m),False
52,100000803678,F0sgvdJFZGI,帝国ホテル 大阪,34.700993,135.5194689,大阪府大阪市北区天満橋1-8-50 帝国ホテル大阪,25950,桜ノ宮,596,7,0102005,フランス料理（フレンチ）,361,JR大阪環状線／桜ノ宮駅 徒歩6分 (471m),False
53,s000000198,hNr4IrtpITg,とりうお　池袋本店,35.72910289,139.71273571,東京都豊島区南池袋1-23-6 KDG池袋ビル2F,22513,池袋,84,1,0110001,和風居酒屋,354,,False
54,100000057658,z774uIfVsRA,流響,35.69305109,139.70138258,東京都新宿区新宿3-22-4 モア新宿サンパークビル 3F,29342,新宿(東京メトロ),65,0,0119004,ダイニングバー,660,都営大江戸線／新宿西口駅 徒歩4分 (280m),False
55,100000804531,4e7MwoUME6g,函館朝市,41.77261013259019,140.72529124177242,北海道函館市若松町9-19,20441,函館,207,2,0101,和食,340,JR函館本線(函館～長万部)／函館駅 徒歩3分 (174m),False
56,100001191791,19bBY2ord3Q,びわ湖バレイ/びわ湖テラス,35.21346074537188,135.89580606905292,滋賀県大津市木戸1547-1,,,,,0115001,カフェ,338,JR湖西線／志賀駅 徒歩43分 (3443m),False
57,100000715137,84fkL8vIFqY,ニッカウヰスキー北海道工場・余市蒸留所,43.187369099999934,140.7915425711643,北海道余市郡余市町黒川町7-6 ニッカウヰスキー 余市蒸溜所,20600,余市,260,3,0119001,バー,337,JR函館本線(長万部～小樽)／余市駅 徒歩5分 (360m),False
58,100000993936,ZVokiCU3ZVE,鶴岡八幡宮参拝者休憩所,35.325050275623,139.55629018638,神奈川県鎌倉市雪ノ下鶴岡八幡宮内2-1-31,23116,鎌倉,994,12,0118,スイーツ,649,JR横須賀線／鎌倉駅 徒歩12分 (952m),False
59,100000733044,qqz0rvXd22M,ウェスティンホテル東京,35.64158805954471,139.71541971165675,東京都目黒区三田1-4-1 ウェスティンホテル東京,22548,恵比寿,412,5,0103001,バイキング,330,JR山手線／恵比寿駅 徒歩10分 (745m),False
60,100000803672,Ki1OKL-zTJw,ウェスティンホテル大阪,34.7046167,135.48970480000003,大阪府大阪市北区大淀中1-1-20 ウェスティンホテル大阪,26084,中津(大阪府・阪急線),744,9,0101011,日本料理,329,JR東海道本線(京都線)(京都～大阪)／大阪駅 徒歩7分 (547m),False
61,100001283533,h8eHQSL7F6w,肉バル×チーズタッカルビニッチーズ-肉CHEESE-渋谷店,35.65818293378692,139.699370765686,東京都渋谷区道玄坂1-5-9 ザ･レンガビル3F,22715,渋谷,70,0,0102006,イタリア料理（イタリアン）,491,JR山手線／渋谷駅 徒歩1分 (56m),True
62,100001475105,3WQXquPGcJw,焼肉もとやま,35.70646326348921,139.77526092146104,東京都台東区上野5-22-8 笹本ビルB1F,22570,御徒町,91,1,0108001,焼肉,322,JR山手線／御徒町駅 徒歩1分 (84m),False
63,100001513185,0Yq4_KNKhqs,お会計2800円以上取りません 個室居酒屋 トサカモミジ 大宮店,35.90567511857215,139.62538927146977,埼玉県さいたま市大宮区仲町1-1 大宮タウンビル6F,21987,大宮(埼玉県),121,1,0110,居酒屋、ビアホール,318,JR京浜東北線／大宮駅 徒歩1分 (55m),True
64,100001295310,F-QGN1P1tLo,チーズタッカルビ×肉バル yasuke 池袋店,35.7290853,139.71237930000007,東京都豊島区南池袋1-22-2 FLCビル8階,22513,池袋,46,0,0108001,焼肉,488,JR山手線／池袋駅 徒歩1分 (39m),False
65,100000755746,ffX1EdSU50-,ヒルトン大阪,34.6998147,135.4959738,大阪府大阪市北区梅田1-8-8ヒルトン大阪,26102,西梅田,108,1,0304001,ホテル,312,大阪メトロ四つ橋線／西梅田駅 徒歩1分 (33m),False
66,YP1100305798AE,FrYAuZ-TgbI,寿し膳阿知,34.59989215,133.7642591199,岡山県倉敷市阿知1丁目16-6,27075,倉敷市,138,1,0101012,握り寿司,12,JR山陽本線(岡山～三原)／倉敷駅 徒歩3分 (230m),False
67,100001171007,xkuUEbS61OE,きじむなぁ食堂,26.42948028,127.77526267,沖縄県国頭郡恩納村山田1130 琉球村,,,,,0101032,沖縄料理,311,,True
68,100000802741,r2yY2jTxV7Y,国立昭和記念公園,35.70357634859254,139.40782879380902,東京都立川市緑町3173,29238,立川北,948,11,0118,スイーツ,452,多摩モノレール／立川北駅 徒歩9分 (691m),False
69,5947,IDKk6-Dw3qI,京都タワー,34.98748511147581,135.75948350926205,京都府京都市下京区烏丸七条下ル,25647,京都,22,0,0303013,レジャー、趣味（その他）,605,,False
70,100000044393,Nf2LVCfP9y2,富士屋ホテル,35.244338,139.058901,神奈川県足柄下郡箱根町宮ノ下359 富士屋ホテル,23339,宮ノ下,491,6,0102,洋食,305,箱根登山鉄道／宮ノ下駅 徒歩7分 (534m),False
71,100000759365,CKiALr2AFis,オリエンタルホテル東京ベイ,35.6507868,139.9126748,千葉県浦安市美浜1-8-2 オリエンタルホテル東京ベイ,22324,新浦安,108,1,0128001,その他,305,JR京葉線／新浦安駅 徒歩2分 (141m),False
72,2533,sDJ_Yo4KOG6,通天閣,34.6524841,135.50650759999996,大阪府大阪市浪速区恵美須東1-18-6,25851,恵美須町,254,3,0303013,レジャー、趣味（その他）,601,,False
73,100000021063,omS5Lltn-9Y,焼肉 牛亭 五反田店,35.623683184470345,139.72293457672117,東京都品川区西五反田1-18-1Gotanda ex 5F,22560,大崎広小路,162,2,0108001,焼肉,299,東急池上線／大崎広小路駅 徒歩3分 (173m),False
74,100000803646,KHYKxIHFAtI,ホテル阪急インターナショナル,34.7080638,135.49832349999997,大阪府大阪市北区茶屋町19 ホテル阪急インターナショナル(ちゃやまちアプローズ内),25848,大阪梅田(阪急線),342,4,0102005,フランス料理（フレンチ）,295,大阪メトロ御堂筋線／中津（大阪）駅 徒歩4分 (303m),False
75,YP0458464947CE,66ctDIemVn6,もつ家　福多　本店,36.69936743,137.2145764198,富山県富山市桜町1-3-5 藤江ビル1階,24722,電鉄富山駅・エスタ前,110,1,0101047,もつ料理,16,富山地鉄本線／電鉄富山駅 徒歩2分 (161m),True
76,s000293337,U4zwvAZ7RgM,隠れ家居酒屋×個室 とりうお 新宿店,35.69174851,139.70342689,東京都新宿区新宿3-17-3 アカネビル5・6階,22743,新宿三丁目,70,0,0110001,和風居酒屋,469,,False
77,100001331942,WaSy_b-bhpk,クラウンカフェ ANAクラウンプラザホテル福岡,33.5872914,130.41758149999998,福岡県福岡市博多区博多駅前3-3-3,28283,博多,391,4,0103001,バイキング,285,JR博多南線／博多駅 徒歩4分 (281m),False
78,100001245036,64UiPiMeifw,ハイアットリージェンシー東京 ラウンジ,35.69094227984894,139.69123830795286,東京都新宿区西新宿2-7-2 ハイアットリージェンシー東京F,29213,都庁前,53,0,0120004,ラウンジ,284,都営大江戸線／都庁前駅 徒歩2分 (154m),False
79,100000027620,St373pJZ6Lo,グランドハイアット東京ホテル,35.659584,139.728651,東京都港区六本木6-10-3,23049,六本木,315,3,0128001,その他,281,東京メトロ日比谷線／六本木駅 徒歩6分 (476m),False
80,100001162588,YgKsV_Y40AM,SALUVATORE CUOMO & BAR 万座ビーチ,26.508274700085583,127.85808789417159,沖縄県国頭郡恩納村恩納村字瀬良垣2260番地,,,,,0102006,イタリア料理（イタリアン）,378,タクシー・レンタカーの場合～那覇空港より80分。沖縄自動車道利用（屋嘉インター）で50分。,False
81,100000059852,jHiORLUvmOY,浅草ビューホテル,35.7154683,139.7919445,東京都台東区西浅草3-17-1 浅草ビューホテル,29397,浅草(ＴＸ),205,2,0103001,バイキング,278,つくばエクスプレス／浅草駅 徒歩1分 (52m),False
82,100000946411,0CZyDnX6Hvg,ホテルJALシティ 那覇,26.215968202299,127.68596455954,沖縄県那覇市牧志1-3-70,29463,美栄橋,611,7,0128001,その他,275,ゆいレール／美栄橋駅 徒歩5分 (407m),False
83,a236418,Ddz2h7TTVy6,炙りとろにく×肉握り食べ放題 肉の権之助 横浜相鉄駅前店,35.46443542,139.61990720,神奈川県横浜市西区南幸1-5-27 ヨドバシ相鉄駅前ビルB1F-A,23368,横浜,93,1,0110,居酒屋、ビアホール,455,JR横浜駅相鉄口徒歩1分,False
84,100001319537,SF_2cP-Xh1M,The Ritz-Carlton 大阪,34.69846141,135.49266306,大阪府大阪市北区梅田2-5番25号,26102,西梅田,341,4,0102006,イタリア料理（イタリアン）,444,大阪メトロ四つ橋線／西梅田駅 徒歩4分 (249m),False
85,s000200390,YKvYtkXjTws,赤坂見附個室居酒屋　馬に魚に　馬と魚が旨い店,35.67650378,139.73694951,東京都港区赤坂3-8-1 赤坂アルトビル3F,22486,赤坂見附,81,1,0110001,和風居酒屋,269,,True
86,YP1798713828EF,qhgZUMccF6A,野菜巻き串と宴会個室 とんとん拍子 武蔵小杉,35.5754912405,139.6573965894,神奈川県川崎市中原区小杉町3-261 TS小杉ビル1F,23345,武蔵小杉,236,2,0110001,和風居酒屋,,,True
87,100001186563,_h90qpjRq9A,ヒルトン小田原リゾート&スパ Ocean Lounge,35.2067499289833,139.1316533088684,神奈川県小田原市根府川583-1,23271,根府川,1685,21,0115001,カフェ,297,JR東海道本線(東京～熱海)／根府川駅 徒歩12分 (898m),False
88,100001297722,56FLtMiEr5A,The Neworder Table 渋谷駅店,35.65917591962109,139.69888393534083,東京都渋谷区道玄坂2-6-17 TOHOシネマズ渋谷B1F,22715,渋谷,12,0,0119004,ダイニングバー,265,JR山手線／渋谷駅 徒歩1分 (14m),True
89,100001483311,dih0sVblQao,カップヌードルミュージアム横浜,35.455486,139.638873,神奈川県横浜市中区新港2-3-4,29480,みなとみらい,753,9,01,グルメ,409,みなとみらい線／馬車道駅 徒歩8分 (636m),False
90,100000030137,Dx0oS-3bCZQ,大王わさび農場 レストラン,36.33891245260535,137.90915808598334,長野県安曇野市穂高3640 大王わさび農場,24320,穂高,2703,33,0101,和食,262,JR篠ノ井線／明科駅 徒歩36分 (2850m),False
91,37134,R2yOpmrhIBs,東京ディズニーランドホテル,35.63679818,139.87814469,千葉県浦安市舞浜29-1,29370,東京ディズニーランド・ステーション,124,1,0304001,ホテル、旅館,559,,False
92,100000039116,FAbocjze5l6,京都ホテルオークラ,35.011474,135.76945,京都府京都市中京区河原町御池,29203,京都市役所前,42,0,0304002,旅館,260,京都市営地下鉄東西線／京都市役所前駅 徒歩1分 (87m),False
93,100000066552,_IXPTxpT0ws,サザンビーチホテル&リゾート沖縄,26.132011,127.65296799999999,沖縄県糸満市西崎1-6番1号,,,,,0103001,バイキング,257,ゆいレール／赤嶺駅 徒歩86分 (6851m),False
94,100000763542,cS8mh4qi2nE,グランド・ハイアット・福岡,33.58978270000001,130.4104148,福岡県福岡市博多区住吉1-2-82 グランドハイアット福岡,28253,中洲川端,712,8,0128001,その他,257,福岡市営地下鉄空港線／祇園（福岡）駅 徒歩9分 (670m),False
95,100001168782,YpaOYirR4Qk,ホテルオークラJRハウステンボス,33.0894895,129.79386909999994,長崎県佐世保市ハウステンボス町10 ホテルオークラJRハウステンボス,28548,ハウステンボス,495,6,0102,洋食,256,JR大村線／ハウステンボス駅 徒歩5分 (394m),False
96,100001345011,KZbkO3lG83Y,アニヴェルセル表参道　,35.66627936,139.71136331,東京都港区北青山3-5-30,22588,表参道,66,0,0102005,フランス料理（フレンチ）,257,東京メトロ銀座線／表参道駅 徒歩2分 (88m),False
97,20113,8vcLD8RjFg2,東京ソラマチ(R),35.7103464,139.8121225,東京都墨田区押上1-1-2,22859,とうきょうスカイツリー,248,3,0303003,水族館,552,,False
98,100000901365,mTB-_VVP1hk,ドーミーインプレミアム 小樽,43.19841714849286,140.99472102943042,北海道小樽市稲穂3-9-1,20098,小樽,136,1,0103001,バイキング,254,JR函館本線(小樽～旭川)／小樽駅 徒歩2分 (125m),False
99,100001391045,Uv6tdx30ZmY,ホテルモントレ グラスミア大阪,34.666651131633714,135.49615668708,大阪府大阪市浪速区湊町1-2-3,25984,ＪＲ難波,75,0,0101045,鉄板焼き,252,大阪メトロ御堂筋線／なんば駅 徒歩1分 (84m),False
