id,gid,name,latitude,longitude,address,satation_id,station_name,station_distance,station_time,genre_code,genre_name,review_count,access,paypay_flg
100001025496,_17S1qA2Rbo,[KCzeL,34.397246714973996,132.45761283605,LLs[KCzeL6-78,27261,O(L),124,1,304002,,211,AXgC^OiLjw k1 (81m),False
100000059176,XhXhcK69eRc,C{X,34.397003932358,132.46348857880002,LLs攪x4-14,27297,w@O,227,2,106001,[,59,LdXn()^w@Ow k3 (170m),False
100000010883,rSImYnd815Y,򌤖x ,34.389482093566585,132.46524698251483,LLs򌤖x10-6,27235,R,524,6,101029,DݏĂAĂ,58,LdPn(Fi)^Ӓw k6 (433m),True
100001161605,Jv4HGIfw5iQ,݂񑍖{X x{X,34.39575236479381,132.46357415569685,LLs攪x6-7 `Xx 1K,27351,x(L),265,3,101029,DݏĂAĂ,55,LdPn(Fi)^xiLjw k3 (207m),True
100000793668,ilac045lmvo,ւ񂭂VVnX,34.391471919816986,132.46233627790986,LLsVVn2-12 Lr1F,27351,x(L),322,4,101029,DݏĂAĂ,44,LdPn(Fi)^xiLjw k4 (291m),False
100000597763,d3PcKeRVPAs, R̒ŁEEE,34.392624600000005,132.46347509999998,LLsx쒬4-14 rB1F,27351,x(L),168,2,101,aH,37,LdPn(Fi)^xiLjw k2 (141m),True
100001310831,9dtSsAZ0B8A,A ނ납 ͂Ȃ,34.38950820000001,132.46170860000007,LLsO쒬7-16,27351,x(L),566,7,101003,ۂ,31,LdPn(Fi)^xiLjw k7 (508m),True
100000017752,o5xP2bHTVF2,Д{X,34.391623183457625,132.46077345214962,LLsܒ7-30,27406,{,446,5,101021,Ă,29,LdPn(Fi)^w k4 (308m),True
100000695978,t4l4NbOOQr2,Q,34.39361668005655,132.46112534110452,LLs旧5-12 zeR鉮 B1F,27310,,110,1,101034,CN,28,LdPn(Fi)^Ӓw k2 (159m),True
100000714294,2RQkMCPK2AM,񂿂 򌤖x{X,34.38831725259197,132.46432328803735,LLsc6-3 ˉr,27216,Ӓ,694,8,101029,DݏĂAĂ,28,LdPn(Fi)^Ӓw k8 (569m),False
100000448549,35guzTCm1Gc,ɂ̂˂,34.389748999999995,132.4617840524554,LLsO쒬7-19 Kr 2F,27351,x(L),539,6,101034,CN,28,LdPn(Fi)^xiLjw k6 (481m),True
100001358433,yh6yDfvOx9c,L ѐS{X,34.393126925188945,132.4611157215462,LLs旧6-7,27310,,183,2,101048,,29,LdPn(Fi)^w k2 (138m),True
100000732360,48a8dR2qisM,DݏĂSĂЂȂ,34.379290000000005,132.456593,LLsc2-1-6 1,27368,ԕa@O,230,2,101029,DݏĂAĂ,26,LdPn(Fi)^ԕa@Ow k3 (201m),False
100000709902,D9Jm4DeLbq6,ނ yX,34.395353962790644,132.4460787705002,LLs|10-23,27333,y(L),128,1,101014,VՂAg,26,LdQn({)^yiLjw k1 (67m),False
100000841907,xig4U9pnYxI,L@Dݏā@M,34.393760355446446,132.45627765943436,LLs掆2-3-21 Cr3F,27406,{,98,1,101029,DݏĂAĂ,26,LdPn(Fi)^{ʉw k2 (91m),False
100001386517,A2JtL9awxBM,SABAR+by TOYOKANKO  LےʂX,34.3933217,132.45956980000003,LLs{4-25,27310,,251,3,101034,CN,26,LdPn(Fi)^w k3 (193m),True
100000743042,bSkO12dN0S2,,34.3918941,132.4686024,LLsR1-1 Ȃr2F,27235,R,281,3,101023,Ȃ,25,LdPn(Fi)^Rw k3 (236m),True
100000485354,14Bq_EK3tH-,Vy Vb,34.3905497,132.45909770000003,LLs撆5-1 r2F,27389,ܒ,328,4,101014,VՂAg,24,LdPn(Fi)^ܒw k5 (328m),True
100001192569,XoN4EtYOQFA,,34.39167234533248,132.46605118293886,LLsR11-12,27235,R,279,3,101026,Ă,23,LdPn(Fi)^Ӓw k3 (220m),False
100001278701,IwzStDvBerE,Ȃ,34.3934629867003,132.4544452,LLs蒬1ڒn,27406,{,364,4,101001,Η,22,LdPn(Fi)^{ʉw k4 (268m),False
100000447780,uGithLzuc8o,h,34.390489,132.465553,LLs򌤖x5-18 p[r 1F,27235,R,413,5,101029,DݏĂAĂ,20,LdPn(Fi)^Ӓw k5 (328m),False
100000595268,Vx0i7f3Bf02,Ђ낵ܔ_,34.38763569,132.46101935000002,LLsxm4-9Lz{Ѓr1FA2F,27314,dO,693,8,101031,́AAeq,21,LdPn(Fi)^dOw k8 (637m),False
100000740859,ffullhO4vQA,MƁB,34.38750488167864,132.46026768098568,LLsxm5-11 r 1F,27314,dO,635,7,101029,DݏĂAĂ,20,LdPn(Fi)^dOw k7 (559m),True
100000803902,ACPN69WWvPs,lG,34.3941856,132.46533599999998,LLs12,27216,Ӓ,127,1,101034,CN,19,LdPn(Fi)^Ӓw k2 (92m),True
100000030702,yMYYRJLRtu2,ӂ݂ x쒬X,34.392238,132.46457199999998,LLsx쒬1-20,27216,Ӓ,158,1,101029,DݏĂAĂ,20,LdPn(Fi)^Ӓw k2 (141m),False
100000048629,wsgcC2RjHFg,Ƃ蔪{X,34.390802,132.464092,LLs旬쒬4-20,27216,Ӓ,330,4,101034,CN,19,LdPn(Fi)^Ӓw k4 (308m),True
100000717576,hmivTDV2s7s,̂܂,34.39461568374888,132.46320016745904,LLs攪x14,27351,x(L),150,1,102,mH,18,LdPn(Fi)^xiLjw k1 (83m),False
100000062988,JUCWmKMukmI,q,34.391033033998205,132.46624045767211,LLs򌤖x1-23,27235,R,290,3,101028,ł,18,LdPn(Fi)^Rw k4 (252m),False
100000709816,mPlmAlEqAKg,ˎiB |,34.388544,132.46268599999996,"LLsO쒬9-7 Gar1,2K",27216,Ӓ,662,8,101001,Η,18,LdPn(Fi)^xiLjw k8 (599m),True
100000715079,nfEdeGmJOFw,Sς ٕq xX,34.3946383,132.46234449999997,LLs攪x16-2,27351,x(L),177,2,110,ArAz[,18,LdPn(Fi)^xiLjw k2 (143m),True
100000001942,819jTwA37X-,Rl,34.387806,132.46111900000002,LLsxm4-28,27314,dO,665,8,101003,ۂ,17,LdPn(Fi)^dOw k8 (644m),True
100000866689,CGeLTO4aZ0-,ȂȂ,34.39130543678722,132.4657525822406,LLsR12-10 σr B1F,27235,R,334,4,101003,ۂ,17,LdPn(Fi)^Ӓw k3 (241m),False
100000082541,yovoGoAUcVA,H,34.39447374,132.45616949,LLs掆2-2-28 T[B1F,29376,,175,2,104001,ؗ,16,LdPn(Fi)^{ʉw k2 (105m),False
100000448684,gqc2rwA6q9s,,34.392697620030205,132.4635848696347,LLsx쒬4-18,27351,x(L),174,2,101,aH,17,LdPn(Fi)^xiLjw k2 (114m),False
100000805979,gsnzI0X8SiA,Rg,34.392370168197,132.45553786201356,LLs蒬2-6-25,27389,ܒ,220,2,110,ArAz[,16,LdPn(Fi)^ܒw k2 (151m),True
100000050562,0RY9WCDtAi2,ĂՂrJ,34.392932640711,132.46141389011996,LLs{2-21,27310,,222,2,101031,́AAeq,16,LdPn(Fi)^w k3 (191m),True
100000594723,xzz5_Z0xbwg,ӒX,34.39310745,132.46502721000002,LLsӒ4-21 r1F,27216,Ӓ,56,0,101,aH,15,LdPn(Fi)^Ӓw k1 (33m),True
100000696079,lsc3Ms-37TU,Ԃ DݏĂ,34.38859781233756,132.45430533432386,LLs蒬3-2-15,27314,dO,225,2,101029,DݏĂAĂ,15,LdPn(Fi)^dOw k2 (115m),True
100000033188,xUBrySfo6Mk,؏ ,34.392394,132.4591755,LLsܒ2-25 Jr 2F,27406,{,249,3,110,ArAz[,15,LdPn(Fi)^{ʉw k4 (265m),True
100000839645,Rs3J65LH5TE,ƂEłǂ,34.36657685219782,132.44807602331355,LLs1-13-12,27421,K,1772,22,101018,ǂ,15,LdUn(]g)^]gw k19 (1488m),True
100000046442,jANetbhci2I,΂܂ O,34.391089307125895,132.4636954957009,LLs旬쒬3-14,27216,Ӓ,347,4,110,ArAz[,15,LdPn(Fi)^Ӓw k4 (299m),True
100000007670,2dGIiytau-s,,34.38983177920884,132.46614729141902,LLs퐶6-8,27235,R,431,5,101045,SĂ,15,LdPn(Fi)^Rw k5 (384m),True
100000830167,q5BiAzCm1Gc,ފy,34.389779063545774,132.46173081408915,LLsO쒬7-191F,27351,x(L),531,6,110,ArAz[,14,LdPn(Fi)^xiLjw k6 (477m),True
100000844969,BGucOLHbj_s,Ί,34.39096885204616,132.46185401803075,LLsO쒬3-22,27351,x(L),413,5,110,ArAz[,14,LdPn(Fi)^xiLjw k5 (351m),False
100000853789,CWgSZ1H-TCg,o,34.3872584,132.46014499999998,LLsxm6-132F,27314,dO,661,8,110,ArAz[,14,LdPn(Fi)^dOw k7 (553m),False
100000312502,0uHMieyi-jU,G |,34.392086043097464,132.46358872840426,LLsVVn1-28 IynEX1F,27351,x(L),247,3,101034,CN,14,LdPn(Fi)^xiLjw k3 (202m),True
100000595449,gvrRcyAzDUs,ɓyLX,34.38949944,132.46321913,LLs旬쒬7-4,27216,Ӓ,503,6,101036,ɗ,15,LdPn(Fi)^Ӓw k6 (480m),False
100000595360,-8KIh3Uamfg,؂ÂS@@,34.3901581,132.45871999999997,LLs撆5-14 2^J^r12F,27389,ܒ,359,4,101011,{,14,LdPn(Fi)^ܒw k4 (301m),False
100000088567,gPPvq79hi4Y,Lۓq,34.395226,132.45523899999998,LLs蒬1-4-25 v{r 1F,29376,,210,2,110,ArAz[,14,LdQn({)^h[Ow k3 (180m),True
100000006784,bMfQm4Ot0WM,JtF Vg,34.388144399999995,132.46008110000002,LLs揬1-1 2F,27314,dO,555,6,115001,JtF,14,LdPn(Fi)^dOw k7 (524m),False
100000067267,K1tGCUBGNAM,Ԃ,34.390258786615554,132.46403863558206,LLs旬쒬4-10,27216,Ӓ,416,5,106001,[,14,LdPn(Fi)^Ӓw k5 (367m),False
100000226279,KaplZLUfiLU,n̓,34.394883,132.466141,LLs7-27,27216,Ӓ,285,3,110,ArAz[,13,LdPn(Fi)^Ӓw k3 (203m),True
100000595107,I1P0_XFmC8-,DݏĂ݂,34.39766887510042,132.44949054019992,LLs\s1-1-2,27404,{쒬,176,2,101029,DݏĂAĂ,13,LdQn({)^{쒬w k2 (137m),True
100000043394,yOzeABAiwGg,Ƃ񂩂̋e,34.394880303534386,132.46498644999133,LLsSC7-7,27216,Ӓ,201,2,101015,Ƃ񂩂,14,LdPn(Fi)^Ӓw k2 (159m),True
100000871645,WHiWw68SSJ-,DݏĂESĂ X,34.3895033976108,132.46366657394535,LLs旬쒬8-20 GCgr 2F,27216,Ӓ,479,5,101029,DݏĂAĂ,15,LdPn(Fi)^Ӓw k6 (460m),False
100000860543,oy8zuBcy8CQ,HAZEYA,34.3888505275,132.45354480699996,LLs蒬3-3-17,27314,dO,294,3,101029,DݏĂAĂ,13,LdPn(Fi)^dOw k3 (206m),False
100000928396,Brt3fj7BWEQ,Ȏs X,34.39406822,132.45607228,LLs掆2-2-21 THrB1,27406,{,144,1,110,ArAz[,13,LdPn(Fi)^{ʉw k2 (95m),True
100000819640,8CeAIUjclXc,𑠋Dl N_R,34.394135,132.467985,LLs9-5 Rr 1F,27235,R,157,1,110,ArAz[,13,LdPn(Fi)^Rw k2 (112m),True
100000454910,vAvXkpLn_E6,Dݏ c,34.39421050000001,132.45448776994056,LLs蒬1-7-19,27406,{,282,3,101029,DݏĂAĂ,13,LdQn({)^h[Ow k3 (209m),True
100000753999,axEhANecHPA,炩,34.391364,132.45972800000004,LLsܒ8-14 nClX׃r}V 1F,27406,{,413,5,101017,,14,LdPn(Fi)^{ʉw k5 (376m),True
100000924240,b8dvu6FMCAQ,,34.393164104062,132.46085024342005,LLs旧6-11,27310,,155,1,108001,ē,13,LdPn(Fi)^w k2 (156m),True
100000743201,Og1Eou3IjJE,MS!DݏĂ n,34.392133,132.4671831,LLsR5-3,27235,R,161,2,101029,DݏĂAĂ,13,LdPn(Fi)^Rw k2 (135m),True
100000050141,yExwf1yVgBs,ǂ @xX,34.392765963462395,132.46247124173348,LLsx쒬6-4,27351,x(L),203,2,101018,ǂ,13,LdPn(Fi)^xiLjw k2 (141m),True
100000921567,p9hjGpAd2mU,[ ,34.391986176786844,132.45808741798487,LLsܒ4-5nӃr1F,27406,{,249,3,118,XC[c,13,LdPn(Fi)^{ʉw k3 (196m),True
100000780589,wFsCPsu0kho,Sante Te,34.392938,132.455142,LLs蒬2-4-3 ^Lr1K,27406,{,241,3,110,ArAz[,15,LdPn(Fi)^{ʉw k3 (212m),False
100000782564,qY9lve0OkY2,il,34.3939827756111,132.45962204494595,LLs掆1-5-22,27310,,173,2,106001,[,13,LdPn(Fi)^w k2 (153m),False
100000708156,igTv70Y3QHc,fXP,34.389185999999995,132.46081999999998,LLsO쒬10-18 r3K,27389,ܒ,618,7,110,ArAz[,13,LdPn(Fi)^ܒw k7 (557m),False
100000826681,7qVIpH-ldGQ,ai [,34.38326937355095,132.45509081679438,LLs捑׎2-4-4,27306,싴,204,2,101015,Ƃ񂩂,13,LdPn(Fi)^싴w k2 (88m),False
100000066377,j9l7lnhnp0w,n{,34.385090793943924,132.46299188220905,LLs6-30 KԊ1F,27361,䎡R,695,8,101031,́AAeq,13,LdTn(䎡R)^䎡Rw k9 (663m),False
100000838263,-L98bp-efXw,DݏĂ SĂ ЂȂ,34.389248615774626,132.4541805803566,LLs蒬3-3-6 TsA蒬102,27314,dO,189,2,101029,DݏĂAĂ,13,LdPn(Fi)^dOw k2 (145m),False
100000878629,cY0VqqAyxjU,J[v ̒IX,34.39369145288141,132.46116793617625,LLs旧5-15,27310,,102,1,101025,Ă,12,LdPn(Fi)^w k2 (103m),True
100000595325,JmW5VZNCLYc,̖V LX,34.39232476337533,132.46225072171615,LLsx쒬7-4,27351,x(L),271,3,101014,VՂAg,12,LdPn(Fi)^xiLjw k3 (216m),True
100000019469,42cdgFbsoxs,,34.395570851575734,132.44760809447737,LLsL2-16,27333,y(L),249,3,101029,DݏĂAĂ,12,LdQn({)^\sw k3 (191m),True
100000054525,SrQz_ANXNlA,Dݑ Ƃ,34.391261,132.46192799999994,LLsVVn5-13 vUr Dݑ 4F,27351,x(L),379,4,101029,DݏĂAĂ,13,LdPn(Fi)^xiLjw k5 (335m),True
100000455114,nTjC7Y6SWAk,,34.389185999999995,132.46081979999997,LLsO쒬10-18 COXYr 1F,27389,ܒ,618,7,110,ArAz[,12,LdPn(Fi)^ܒw k7 (557m),False
100000811471,B7IRtQNXNlA,ۓ,34.391253913409145,132.46187898192443,LLsVVn5-13 Dݑ 4K,27351,x(L),418,5,101029,DݏĂAĂ,12,LdPn(Fi)^xiLjw k5 (339m),True
100001158350,GUA1jZoQ3OI,,34.37550196460218,132.45884539999997,LLsc3-11-24,27421,K,145,1,101029,DݏĂAĂ,12,LdPn(Fi)^Kw k1 (60m),True
100000715028,Zt6cwhUQkOA,Pg,34.3935661,132.46134469999998,LLs旧5-7,27310,,130,1,110004,݋,12,LdPn(Fi)^w k2 (123m),True
100001036123,g_kwIMTCjwQ,{ Ȃɂ,34.397204250145,132.45743967366002,LLs[KCzeL6-78,27261,O(L),128,1,101014,VՂAg,13,AXgC^OiLjw k2 (96m),True
100000777036,DVCQnjrte6k,݂悵H,34.393809000000005,132.461508,LLs旧1-12,27310,,128,1,111,HAH,12,LdPn(Fi)^w k2 (110m),False
100000861367,CAkd9IEr_Kk,,34.3956688325,132.46175561300004,LLs攪x9-8,27310,,205,2,101034,CN,11,LdPn(Fi)^w k2 (157m),True
100000716945,DiG8pqmQMiM,chano-maL,34.39291862827434,132.46120200011202,LLs{2-19 APEX2 2F,27310,,210,2,115001,JtF,12,LdPn(Fi)^w k3 (187m),False
100001169888,csocx5n7iZ6,c ,34.38333643534316,132.4611824372503,LLs|5-21,27413,O,700,8,101029,DݏĂAĂ,12,LdPn(Fi)^ԕa@Ow k8 (646m),False
100000847283,YcvTGcfCUVg,STEAK܂ǋ,34.39137931304615,132.46423468204512,LLs旬쒬1-18,27216,Ӓ,259,3,101045,SĂ,11,LdPn(Fi)^Ӓw k3 (243m),False
100000050445,ePEb3qNeOcw, S ܒX CX,34.39116672332994,132.45961191840263,LLsܒ8-11Xcr1F,27389,ܒ,408,5,101034,CN,11,LdPn(Fi)^{ʉw k5 (353m),True
100000081896,otAJD8ALb7U,_,34.39761796572601,132.4632613879993,LLs攪x2-6,27297,w@O,194,2,106001,[,11,LdXn()^w@Ow k3 (170m),False
100000919444,YsVdnOvZQEI,씪,34.37620606440601,132.43738532066754,LLsM3-13-30 Cg[sAM}V1K,27396,M,169,2,101003,ۂ,11,LdUn(]g)^M쒬w k2 (124m),False
100000788711,CQ2mi39iCIk,Ԃ,34.390614,132.46313099999998,LLsO쒬1-1 r2F,27351,x(L),414,5,110,ArAz[,13,LdPn(Fi)^xiLjw k5 (366m),False
100000717416,ZIaj9uWg09-,SEDݏĂ dΉ cX,34.382483799999996,132.45728429999997,LLs擌c1-1-108 A[oXc1F,27368,ԕa@O,396,4,101029,DݏĂAĂ,12,LdPn(Fi)^ԕa@Ow k3 (231m),True
100000040206,XleKHOyInr6,{Ă Ƃ̂ 䒬X,34.394658,132.44746499999997,LLs䒬1-3-14 SAKURA14r 1F,27333,y(L),159,1,101029,DݏĂAĂ,11,LdQn({)^yiLjw k2 (128m),True
100001303101,Uw88QLE6oR3,g 낱 (,34.395372053944435,132.45563255920138,LLs蒬1-1-10,29376,,173,2,101014,VՂAg,11,LdQn({)^w k2 (146m),True
100000006804,a2e5UkTqzfc,45 bis ,34.392027399999996,132.45997539999996,LLsܒ1-18,27406,{,353,4,101026,Ă,11,LdPn(Fi)^w k4 (299m),False
100000851316,WXM4FvMSy3w,`ȂSX ,34.391988811340426,132.45574533666002,LLs蒬2-6-8 蒬r,27389,ܒ,133,1,106001,[,11,LdPn(Fi)^ܒw k2 (93m),False
100001229124,sDTNqtO8tL-,YĂ炽,34.39465538075751,132.4662208348512,LLs7-7 R[|Â1F,27216,Ӓ,259,3,101025,Ă,11,LdPn(Fi)^Ӓw k3 (189m),False
100000595305,QwSH2LCzPQU,,34.3959964,132.44616480000002,LLs|10-16,27323,\s,219,2,101025,Ă,11,LdQn({)^yiLjw k2 (134m),True
100000595495,P4R0f0jUcfo,,34.39360443,132.45811937999997,LLs{5-13 {ʃEF[ur1F,27406,{,136,1,101003,ۂ,11,LdPn(Fi)^{ʉw k2 (126m),True
100000712805,eLb-v3F85k6,Sς ٕq VVnX,34.39172607296857,132.4633740227539,LLsVVn1-2,27216,Ӓ,306,3,110,ArAz[,11,LdPn(Fi)^xiLjw k3 (241m),True
100001177304,YUvGRxLA9bg,[HƂق肩,34.393952981982366,132.45953743112943,LLs掆1-5-18,27310,,185,2,101034,CN,12,LdPn(Fi)^w k2 (163m),False
100000448536,ve7_AsH16S-,`ȂSS ,34.3823032,132.4408793,LLsM5-13 X؃r1F,27393,MK,170,2,106001,[,12,LdUn(]g)^MKw k2 (98m),False
100000861177,PBmmT5ol8cw,ꗘ {X,34.392047282245706,132.45930766840092,LLsܒ6-52,27406,{,298,3,110,ArAz[,12,LdPn(Fi)^{ʉw k4 (269m),False
