id,gid,name,latitude,longitude,address,satation_id,station_name,station_distance,station_time,genre_code,genre_name,review_count,access,paypay_flg
100000698244,BbrzOY4NsKI,‚¤‚Έ‚η‰Ζ,36.74144084248879,138.08535475283918,’·–μ§’·–μsΛ‰B3229,,,,,101017,‚»‚Ξ,64,,False
100000704713,Ru_gy13h8iM,‚Ζ‚ρ‚©‚ΒK–[ ‚©‚Β‘V,36.603707844746815,138.19438267055205,’·–μ§’·–μsΒ–Ψ“‡’¬‘ε’Λ149-1 ‚¨‚Ά‚µ‚ΆLκ“ΰ,24166.0,μ’†“‡,4493.0,56.0,101015,‚Ζ‚ρ‚©‚Β,31,JRM‰z–{ό(Βƒmδ`’Ό]’Γ)^’·–μ‰w “k•ΰ55• (4340m),True
100000787792,43yZ76WXFe6,‚·‚«’ΰ,36.653695299999995,138.1745035,’·–μ§’·–μsΘ‰Θ112-1,24236.0,s–π‘O(’·–μ§),1756.0,21.0,101021,‚·‚«Δ‚«,27,’·–μ“d“S’·–μό^ “°‰w “k•ΰ25• (1930m),True
100000480712,HhgWRv--6Uw,³‰®‚»‚Ξ“X,36.67525467197196,138.22855104079872,’·–μ§’·–μs“ΏΤ3132,24224.0,M”Z‹g“c,1501.0,18.0,101017,‚»‚Ξ,27,’·–μ“d“S’·–μό^M”Z‹g“c‰w “k•ΰ16• (1218m),False
100000014992,xJUuKCIGToE,‘ε‘P,36.65509393459797,138.18763077055223,’·–μ§’·–μs‘ε–ε’¬46-1,24192.0, “°,664.0,8.0,101017,‚»‚Ξ,26,’·–μ“d“S’·–μό^ “°‰w “k•ΰ7• (510m),True
100000722485,-gIM6ZF3F0A,‚Ά‚Θ‚Ή,36.654913332089855,138.23287433680537,’·–μ§’·–μs–k”φ’£•”758,24101.0,’©—z,1855.0,23.0,106001,ƒ‰[ƒƒ“,26,JRM‰z–{ό(Βƒmδ`’Ό]’Γ)^–k’·–μ‰w “k•ΰ20• (1541m),False
100000827845,PO5ksfyllkQ,ƒhƒ“ƒLƒz[ƒe γΌ“X,36.673155646897,138.19866970181002,’·–μ§’·–μsγΌ3-22-25,24321.0,–{‹½(’·–μ§),1544.0,19.0,102001,ƒXƒe[ƒLAƒnƒ“ƒo[ƒO,25,’·–μ“d“S’·–μό^–{‹½i’·–μj‰w “k•ΰ17• (1317m),False
100000497002,_hbZ8JEH61c,‘ε‹v•Ϋ‚Μ’ƒ‰®,36.715867362994686,138.1147387171793,’·–μ§’·–μsΛ‰B–L‰2764,,,,,101017,‚»‚Ξ,25,,False
100001322010,uaoI1bzKX4I,ίιc,36.6508406,138.18874660000006,’·–μ§’·–μs’ί‰κγηΞ’¬1337,24236.0,s–π‘O(’·–μ§),446.0,5.0,106001,ƒ‰[ƒƒ“,24,’·–μ“d“S’·–μό^s–π‘Oi’·–μj‰w “k•ΰ5• (331m),False
100000732885,xzwyVw2hdK-,‚»‚Ξ‚ζ‚Β‚©‚Η,36.728755,138.07712200000003,’·–μ§’·–μsΛ‰B•συΠ2179,,,,,101017,‚»‚Ξ,22,’·–μ‰w‚ζ‚θΤ‚Ε40•BƒoƒX‚Ε50•BΛ‰Bƒo[ƒhƒ‰ƒCƒ“BΛ‰B_Π‘O—X•Φ‹Η‹ί‚­‚Ε‚·B,True
100001237435,uxds-W4eCpo,HyΚX ‚»‚Ξ ‚έ‚ζ“c,36.643930100000006,138.18891610000003,’·–μ§’·–μs“μηΞ1-22-6 MIDORI’·–μ3F,24282.0,’·–μ,62.0,0.0,101017,‚»‚Ξ,22,JRM‰z–{ό(Βƒmδ`’Ό]’Γ)^’·–μ‰w “k•ΰ1• (72m),False
100000028606,vxHCQeBkxLI,‚Ά‚ή‚η‚β Ξ“°“X,36.645132442143925,138.18628563527616,’·–μ§’·–μs“μΞ“°’¬1423,24282.0,’·–μ,262.0,3.0,106001,ƒ‰[ƒƒ“,21,JRM‰z–{ό(Βƒmδ`’Ό]’Γ)^’·–μ‰w “k•ΰ3• (209m),False
100000025326,1yXajhAl6co,¬›’ΰ,36.65797309966,138.1888461113,’·–μ§’·–μs“”V–ε’¬367,24245.0,‘Pυ›‰Ί,555.0,6.0,101017,‚»‚Ξ,21,’·–μ“d“S’·–μό^‘Pυ›‰Ί‰w “k•ΰ7• (524m),True
100000505393,dxM-zV3U212,‰³Θ,36.648714,138.20566680000002,’·–μ§’·–μs‚“c338,24236.0,s–π‘O(’·–μ§),1342.0,16.0,101,aH,20,’·–μ“d“S’·–μό^–{‹½i’·–μj‰w “k•ΰ20• (1549m),False
100000885324,ffI72xmDbRU,‚β‚«‚ΰ‚Ώ‰Ζ,36.643135076059885,138.038819,’·–μ§’·–μs’†π“ϊ‰Ί–μ‚β‚«‚ΰ‚Ώ‰Ζ5286-1,,,,,304002,—·Ω,20,,False
100000706618,on-4sMsgY02,‚»‚Ξ’ƒ‰® ‹Ιy–V,36.7488278,138.08150709999995,’·–μ§’·–μsΛ‰B3611-5,,,,,101017,‚»‚Ξ,19,,False
100000061590,Q6HQJ-61bTM,‘“J ’·–μ–{“X,36.644057000000004,138.18225899999993,’·–μ§’·–μs’†δ‰“c’¬178-2 ’·–μƒoƒXƒ^[ƒ~ƒiƒ‹’n‰Ί1F,24282.0,’·–μ,631.0,7.0,101017,‚»‚Ξ,18,JRM‰z–{ό(Βƒmδ`’Ό]’Γ)^’·–μ‰w “k•ΰ10• (764m),False
100000067361,K6qyNM2-IDU,‚©‚Β‚β ’·–μµ£“X,36.642177964585,138.20007115602,’·–μ§’·–μs’ί‰κµ£“μ•”385-1,24282.0,’·–μ,1076.0,13.0,101015,‚Ζ‚ρ‚©‚Β,18,JRM‰z–{ό(Βƒmδ`’Ό]’Γ)^’·–μ‰w “k•ΰ16• (1224m),False
100001157505,5CKKF63pUnY,‚Ύ‚Ά‚Ύ‚η‚Ϊ‚Α‚Ώ–{“X,36.64476556887704,138.18672216665652,’·–μ§’·–μs“μ’·–μ“μΞ“°’¬1420Ξ“°ƒrƒ‹1F,24282.0,’·–μ,156.0,1.0,110,‹π‰®AƒrƒAƒz[ƒ‹,17,JRM‰z–{ό(Βƒmδ`’Ό]’Γ)^’·–μ‰w “k•ΰ4• (310m),False
100000028603,WUFBGiMh00M,‚¤‚Θ‚¬‚Μh Z‹g,36.664657899999995,138.187569,’·–μ§’·–μs” ΄…2-19-31,24245.0,‘Pυ›‰Ί,1315.0,16.0,101023,‚¤‚Θ‚¬,17,’·–μ“d“S’·–μό^‘Pυ›‰Ί‰w “k•ΰ12• (936m),True
100000450719,JWfJ3SkDjbk,‘ ”V“ΰ,36.645902,138.21218100000002,’·–μ§’·–μs‚“c391-4,24236.0,s–π‘O(’·–μ§),2077.0,25.0,101017,‚»‚Ξ,16,’·–μ“d“S’·–μό^–{‹½i’·–μj‰w “k•ΰ26• (2060m),False
100000696218,c6WeKhAl6co,“΅–ΨΑ,36.65661967238575,138.18768669999997,’·–μ§’·–μs‘ε–ε’¬67,24245.0,‘Pυ›‰Ί,732.0,9.0,101017,‚»‚Ξ,16,’·–μ“d“S’·–μό^ “°‰w “k•ΰ8• (579m),False
100000722489,0AdfZNw3qJI,‘ε‹v•ΫΌ‚Μ’ƒ‰® Λ‰B–{“X,36.7159272,138.11440500000003,’·–μ§’·–μsΛ‰B–L‰2763,,,,,101017,‚»‚Ξ,16,,False
100000889793,n4TnA6xvxF2,–Λ ‚ ‚¶‚α‚θ,36.603650085239,138.16416674457,’·–μ§’·–μsξ—Ά’¬’†‰›3-35-2,24166.0,μ’†“‡,1998.0,24.0,106002,‚Β‚―–Λ,16,JRM‰z–{ό(Βƒmδ`’Ό]’Γ)^μ’†“‡‰w “k•ΰ24• (1898m),True
100000736111,CTuCe5P3wa2,‚ν‚Ύ‚β,36.6538776,138.21787089999998,’·–μ§’·–μsΌa“c1-27-12,24182.0,‹Λ΄(’·–μ§),1628.0,20.0,101017,‚»‚Ξ,16,JRM‰z–{ό(Βƒmδ`’Ό]’Γ)^–k’·–μ‰w “k•ΰ17• (1351m),False
100000026981,xRfdslFfLBQ,R‚Ζ‚ΰΑ,36.670109911044996,138.20383965968995,’·–μ§’·–μsO—Φ9-49-28,24321.0,–{‹½(’·–μ§),855.0,10.0,101017,‚»‚Ξ,16,’·–μ“d“S’·–μό^–{‹½i’·–μj‰w “k•ΰ11• (837m),False
100000719898,W3VRS51fS6c,‚·‚«O,36.658662299999996,138.20425590000002,’·–μ§’·–μsO—Φ1-25-18,24321.0,–{‹½(’·–μ§),501.0,6.0,101021,‚·‚«Δ‚«,16,’·–μ“d“S’·–μό^–{‹½i’·–μj‰w “k•ΰ6• (434m),True
100000025491,-WUiCDyHd1s,‘εΫ,36.657379226772,138.18732529879006,’·–μ§’·–μs‘ε–ε’¬504,24245.0,‘Pυ›‰Ί,701.0,8.0,101017,‚»‚Ξ,15,’·–μ“d“S’·–μό^ “°‰w “k•ΰ9• (695m),True
100000505173,XKoYPOLyZvw,‚Ζ‚θ“S@’·–μ“X@,36.64654060706901,138.1884093165329,’·–μ§’·–μs“μηΞ’¬855-1 Ό‘ςƒrƒ‹ 1F,24282.0,’·–μ,276.0,3.0,110,‹π‰®AƒrƒAƒz[ƒ‹,15,JRM‰z–{ό(Βƒmδ`’Ό]’Γ)^’·–μ‰w “k•ΰ5• (367m),False
100000023499,qSkCzqsk7SE,‘Ύ“c‰® •‰E‰q–ε,36.653854200000005,138.1932627,’·–μ§’·–μs’ί‰κ“c’¬1505-8,24192.0, “°,250.0,3.0,101017,‚»‚Ξ,14,’·–μ“d“S’·–μό^ “°‰w “k•ΰ3• (175m),False
100000095188,d0OeMQswQ3g,‹Ό”‚Ι‚µ‚΄‚ν,36.64276369466443,138.22716948220898,’·–μ§’·–μs‚“c1943,24176.0,–k’·–μ,3107.0,38.0,101017,‚»‚Ξ,14,JRM‰z–{ό(Βƒmδ`’Ό]’Γ)^–k’·–μ‰w “k•ΰ31• (2474m),False
100000455399,zn7CzsYy1_o,θ‘Ε‚Ώ‚»‚Ξ Λ‰B,36.644099807385004,138.18844914436002,’·–μ§’·–μs“μηΞ1-22-12,24282.0,’·–μ,54.0,0.0,101017,‚»‚Ξ,15,JRM‰z–{ό(Βƒmδ`’Ό]’Γ)^’·–μ‰w “k•ΰ2• (114m),False
100000865442,hV19mUm7k0c,¦κ,36.645507115226714,138.18875825118562,’·–μ§’·–μs“μηΞ1-3-3 ƒAƒƒbƒNƒXƒrƒ‹’n‰Ί,24282.0,’·–μ,173.0,2.0,110,‹π‰®AƒrƒAƒz[ƒ‹,14,JRM‰z–{ό(Βƒmδ`’Ό]’Γ)^’·–μ‰w “k•ΰ3• (247m),True
100000021786,1Aju9Ve0Z_A,•—”Ρ“X,36.679363,138.23231090000002,’·–μ§’·–μs“ΏΤ727-12,24202.0,OΛ,1262.0,15.0,104001,’†‰Ψ—Ώ—,14,JRM‰z–{ό(Βƒmδ`’Ό]’Γ)^OΛ‰w “k•ΰ20• (1538m),False
100000717893,Q1ZgGvPO-yU,‘ε‹v•ΫΌ‚Μ’ƒ‰®  ’·–μ‰w‘O“X,36.644507970305476,138.18934057485149,’·–μ§’·–μs“μηΞ1-19-8,24282.0,’·–μ,117.0,1.0,101017,‚»‚Ξ,14,JRM‰z–{ό(Βƒmδ`’Ό]’Γ)^’·–μ‰w “k•ΰ2• (101m),False
100000824311,rpn3vOi-7Y2,\δέΞ ‚“c“X,36.6425151260612,138.21892955796693,’·–μ§’·–μs“μ‚“c1861,24282.0,’·–μ,2789.0,34.0,101018,‚¤‚Η‚ρ,14,JRM‰z–{ό(Βƒmδ`’Ό]’Γ)^–k’·–μ‰w “k•ΰ32• (2541m),False
100000722481,gt_FVn9UkuM,‚ζ‚µ‚Μ‰®,36.631231,138.185296,’·–μ§’·–μsα—Ά4-2-18,24282.0,’·–μ,1703.0,21.0,111,’θHAH“°,13,JRM‰z–{ό(Βƒmδ`’Ό]’Γ)^’·–μ‰w “k•ΰ18• (1405m),False
100001187718,yO-sJEWZsUk,‚ΰ‚έ‚¶’ƒ‰®,36.64484200679567,138.18702086806294,’·–μ§’·–μs“μ’·–μ“μΞ“°’¬1368-9,24282.0,’·–μ,156.0,1.0,101017,‚»‚Ξ,13,JRM‰z–{ό(Βƒmδ`’Ό]’Γ)^’·–μ‰w “k•ΰ2• (127m),True
100000037274,OJFMQ600RPA,‚©‚ρ‚Ύ‚½,36.6529708,138.187669,’·–μ§’·–μs’ί‰κ “°’¬2320,24192.0, “°,412.0,5.0,101017,‚»‚Ξ,13,’·–μ“d“S’·–μό^ “°‰w “k•ΰ6• (468m),False
100000722755,X2UYlXgfeRM,‚µ‚α‚Τ—t ’·–μ‚ ‚¨‚Ό‚η“X,36.653994494199,138.222438097,’·–μ§’·–μs“a“c930,24176.0,–k’·–μ,1599.0,19.0,101022,‚µ‚α‚Τ‚µ‚α‚Τ,13,JRM‰z–{ό(Βƒmδ`’Ό]’Γ)^–k’·–μ‰w “k•ΰ16• (1235m),True
100001188875,1j-P3kivlqw,–ι—,36.61720876662827,138.16735980034605,’·–μ§’·–μs’O”g“‡1-798,24166.0,μ’†“‡,1736.0,21.0,104009,ω’ƒA“_S,13,JRM‰z–{ό(Βƒmδ`’Ό]’Γ)^ΐ–Ξ—Ά‰w “k•ΰ20• (1575m),False
100000699502,fBOSZoTmeFQ,‚¨‚¬‚Μ‚β’·–μ“X,36.585302,138.18980399999998,’·–μ§’·–μsΒƒmδΌ›”φΤμ2328-2,29211.0,΅δ,4587.0,57.0,101048,”Ρ,13,’·–μ“d“S‰®‘γό^‹ΰδR‰w “k•ΰ19• (1452m),False
100000064591,eqjBYfcQb_Q,‚»‚Ξ’ΰ –ϋ‚β,36.64374471126282,138.18718448281447,’·–μ§’·–μs––L’¬1355-5 ƒEƒFƒXƒgƒvƒ‰ƒU’·–μ1F,24282.0,’·–μ,78.0,0.0,101017,‚»‚Ξ,13,JRM‰z–{ό(Βƒmδ`’Ό]’Γ)^’·–μ‰w “k•ΰ1• (67m),False
100000872844,d8HvSODuOHU,‚»‚Ξ’‰  –{“X,36.63247137639731,138.18225236221724,’·–μ§’·–μs’†δ4-8-17,24282.0,’·–μ,1626.0,20.0,101017,‚»‚Ξ,13,JRM‰z–{ό(Βƒmδ`’Ό]’Γ)^’·–μ‰w “k•ΰ18• (1423m),False
100001178751,ffxvBnPIhXo,H– Ϋ’·,36.67990973114121,138.22117177021514,’·–μ§’·–μs“ΏΤ1-26-5,24224.0,M”Z‹g“c,1590.0,19.0,106002,‚Β‚―–Λ,13,’·–μ“d“S’·–μό^M”Z‹g“c‰w “k•ΰ18• (1386m),False
100000749592,X7_MorD-4mE,μ’[,36.6290364416566,138.199832678574,’·–μ§’·–μsξ—tγη“c307,24282.0,’·–μ,2354.0,29.0,111,’θHAH“°,12,JRM‰z–{ό(Βƒmδ`’Ό]’Γ)^’·–μ‰w “k•ΰ25• (1982m),False
100000024028,uztRHtBOkZA,Ϋ΄,36.6592842430429,138.18745459510652,’·–μ§’·–μs³‘P’¬486,24245.0,‘Pυ›‰Ί,646.0,8.0,101017,‚»‚Ξ,12,’·–μ“d“S’·–μό^‘Pυ›‰Ί‰w “k•ΰ9• (676m),False
100000885234,cizt9ChkrHc,MB‚»‚Ξ‘ ’·–μ“X,36.584586334835,138.19078256956,’·–μ§’·–μsΒƒmδ‹n•£“·‡7-1,29211.0,΅δ,4766.0,59.0,101017,‚»‚Ξ,12,’·–μ“d“S‰®‘γό^‹ΰδR‰w “k•ΰ18• (1397m),False
100000842708,nP0KPDP9vHY,θ‘Ε‚»‚Ξ‰΅j,36.58995872531722,138.18711010883476,’·–μ§’·–μs¬“‡“c’¬1384,29211.0,΅δ,4140.0,51.0,101017,‚»‚Ξ,12,JRM‰z–{ό(Βƒmδ`’Ό]’Γ)^΅δ‰w “k•ΰ59• (4666m),False
100000450408,Gfd3rRXNaeg,‰Π‘O ‚Θ‚¨‚·‚―,36.756628936551536,138.07877127080818,’·–μ§’·–μsΛ‰B‰Π3688,,,,,101017,‚»‚Ξ,12,,False
100000832767,T6a-Qyna9mg,“ρ–{Ό,36.653104350632475,138.18899654558558,’·–μ§’·–μs’ί‰κ “°’¬2373,24192.0, “°,285.0,3.0,101017,‚»‚Ξ,12,’·–μ“d“S’·–μό^ “°‰w “k•ΰ4• (300m),False
100000022134,tjvvsi86qlM,‚»‚Ξ–΅ ‚Ϊ‚Α‚Ώ,36.64279051683171,138.18639323115386,’·–μ§’·–μs“μ’·–μ•‰Ί1326 ’·–μƒvƒ‰ƒUƒzƒeƒ‹ B1F,24282.0,’·–μ,202.0,2.0,101017,‚»‚Ξ,12,JRM‰z–{ό(Βƒmδ`’Ό]’Γ)^’·–μ‰w “k•ΰ2• (154m),False
100000736536,nPxgENzH6BU,Pica Pica AMIGO,36.6471412,138.18858550000004,’·–μ§’·–μs’ί‰κ“μηΞ’¬-876,24282.0,’·–μ,339.0,4.0,110,‹π‰®AƒrƒAƒz[ƒ‹,13,’·–μ“d“S’·–μό^s–π‘Oi’·–μj‰w “k•ΰ5• (391m),False
100000920555,urABfCrkxVU,²X–Ψ‚»‚Ξ“X,36.64509619009998,138.19583854140012,’·–μ§’·–μs’ί‰κµ£’¬445,24236.0,s–π‘O(’·–μ§),718.0,8.0,101017,‚»‚Ξ,11,’·–μ“d“S’·–μό^s–π‘Oi’·–μj‰w “k•ΰ9• (659m),False
100000848368,bksiRPysd9M,…”mΤ,36.64329762,138.1909819,’·–μ§’·–μsI“c1038-2 JR’·–μ‰w“ϋ 1F,24282.0,’·–μ,234.0,2.0,101017,‚»‚Ξ,11,JRM‰z–{ό(Βƒmδ`’Ό]’Γ)^’·–μ‰w “k•ΰ1• (50m),False
100000735316,_hbZ8R-Js5A,‘ε‹v•Ϋ‚Μ’ƒ‰® ’·–μ“X,36.67589472786468,138.21180248895496,’·–μ§’·–μs’h“c2-32-27,24182.0,‹Λ΄(’·–μ§),1278.0,15.0,101017,‚»‚Ξ,11,’·–μ“d“S’·–μό^‹Λ΄i’·–μj‰w “k•ΰ15• (1146m),False
100000709912,G-CulBc3Vio,Λ‰B‹Ό” RΜ‹½,36.649826000000004,138.18783099999996,’·–μ§’·–μs’ί‰κ–βδ’¬1200,24236.0,s–π‘O(’·–μ§),408.0,5.0,101017,‚»‚Ξ,11,’·–μ“d“S’·–μό^s–π‘Oi’·–μj‰w “k•ΰ6• (413m),False
100001157223,YPpMheDDGpg,–΅—,36.65913261550003,138.2035600475,’·–μ§’·–μsO—Φ3-4-10,24321.0,–{‹½(’·–μ§),387.0,4.0,106001,ƒ‰[ƒƒ“,11,’·–μ“d“S’·–μό^–{‹½i’·–μj‰w “k•ΰ5• (385m),False
100001234252,M-CtTdnWhiU,JR’·–μ‰w V²ό ‚»‚Ξ“X,36.64217726318172,138.1880760452609,’·–μ§’·–μsI“cJR’·–μ‰w,24282.0,’·–μ,156.0,1.0,101017,‚»‚Ξ,11,JRM‰z–{ό(Βƒmδ`’Ό]’Γ)^’·–μ‰w “k•ΰ3• (169m),False
100000703983,UDIOLUe7xv6,‚ ‚Α‚Υ‚ι‚®‚θ‚ή ’·–μI“c“X,36.637478340455495,138.19154944271156,’·–μ§’·–μsI“cΌ”Τκ333-1,24282.0,’·–μ,792.0,9.0,102,—mH,9,JRM‰z–{ό(Βƒmδ`’Ό]’Γ)^’·–μ‰w “k•ΰ8• (614m),False
100000505375,mwMCeCwJOy-,HRH“°,36.64389162,138.17730547,’·–μ§’·–μs¬Δ©375,24282.0,’·–μ,1302.0,16.0,101,aH,11,JRM‰z–{ό(Βƒmδ`’Ό]’Γ)^’·–μ‰w “k•ΰ17• (1311m),False
100000085361,HT4KGxedK0U,‚·‚µ’,36.654470626655176,138.1841670092621,’·–μ§’·–μs§’¬477-15,24192.0, “°,864.0,10.0,101,aH,10,’·–μ“d“S’·–μό^ “°‰w “k•ΰ11• (857m),False
100001252073,Fo6-ByMFAyw,MB‚»‚Ξ ƒiƒJƒWƒ}‰οΩ,36.64393915,138.18893766,’·–μ§’·–μs“μηΞ1-22-6 MIDORI’·–μ2F,24282.0,’·–μ,65.0,0.0,101017,‚»‚Ξ,10,JRM‰z–{ό(Βƒmδ`’Ό]’Γ)^’·–μ‰w “k•ΰ1• (70m),False
100000889551,xx019IYkp0o,‚»‚Ξ‚β‚Τ ‚Θ‚‚Μ“‹}“X,36.644959070451996,138.18861463069004,’·–μ§’·–μs“μηΞ1-1-1‚Θ‚‚Μ“‹}•S‰έ“X ’n‰Ί1K,24282.0,’·–μ,104.0,1.0,101017,‚»‚Ξ,10,JRM‰z–{ό(Βƒmδ`’Ό]’Γ)^’·–μ‰w “k•ΰ3• (191m),False
100000836741,uYW71oi6jPo,‚»‚Ξ\“N,36.6815751376036,138.26837369553905,’·–μ§’·–μs•δ•Ϋ274-1ƒAƒOƒ‚Θ‚‚Κ‚ά“ΰ,24351.0,–φ΄(’·–μ§),2623.0,32.0,101017,‚»‚Ξ,10,’·–μ“d“S’·–μό^–φ΄i’·–μj‰w “k•ΰ29• (2302m),False
100001237046,IvfdCSMFAyw,–Ύ΅’ΰ ’·–μ‰w“X,36.643643073264094,138.18879014858362,’·–μ§’·–μs“μηΞ1-22-6MIDORI’·–μ3F,24282.0,’·–μ,95.0,1.0,101031,¥‚ΰ‚ΜA‹¥Aeq¥,10,JRM‰z–{ό(Βƒmδ`’Ό]’Γ)^’·–μ‰w “k•ΰ1• (62m),False
100000858581,mNDE64dlRdQ,¬μ‚Μ― ‘ε–ε“X,36.65558361729485,138.18762974252763,’·–μ§’·–μs‘ε–ε’¬53 ‚Ο‚Δ‚΅‚¨‘ε–ε“ΰ,24192.0, “°,712.0,8.0,101,aH,10,’·–μ“d“S’·–μό^ “°‰w “k•ΰ7• (547m),False
100001228435,NebMtQDiDcE,‚β‚«‚Ζ‚θ  {‚ή‚η,36.64398270760589,138.188932428101,’·–μ§’·–μs“μηΞ1-22-6,24282.0,’·–μ,66.0,0.0,101025,Δ‚«’Ή,10,JRM‰z–{ό(Βƒmδ`’Ό]’Γ)^’·–μ‰w “k•ΰ1• (77m),False
100000888526,xC_7lI5bKCQ,Ό‰hυi “ϋ“X,36.64100538030484,138.18771648951608,’·–μ§’·–μsI“c286-24,24282.0,’·–μ,265.0,3.0,101,aH,10,JRM‰z–{ό(Βƒmδ`’Ό]’Γ)^’·–μ‰w “k•ΰ3• (223m),True
100000032443,26DJTRFsl6o,‚½‚Θ‚Ϊ‚½Α,36.612970654398666,138.14467158067976,’·–μ§’·–μsμ’†“‡’¬lƒc‰®350-2,24166.0,μ’†“‡,1230.0,15.0,101017,‚»‚Ξ,10,JRM‰z–{ό(Βƒmδ`’Ό]’Γ)^μ’†“‡‰w “k•ΰ10• (732m),False
100000852630,c5J6U6FyqT2,‹Ό”@‚Σ‚¶‚¨‚©,36.71649584725152,138.1294750760575,’·–μ§’·–μsγƒP‰®2471-2066,,,,,101017,‚»‚Ξ,10,’·–μ“d“S’·–μό^‘Pυ›‰Ί‰w “k•ΰ120• (9577m),False
100001230269,IpuJ4gDiDcE,–Ύ΅’ΰ ’·–μ‰w‚¨•Ω“–ƒVƒ‡ƒbƒv,36.643982958558205,138.18896736708552,’·–μ§’·–μs“μηΞ1-22-6MIDORI’·–μ 2K,24282.0,’·–μ,71.0,0.0,101031,¥‚ΰ‚ΜA‹¥Aeq¥,10,JRM‰z–{ό(Βƒmδ`’Ό]’Γ)^’·–μ‰w “k•ΰ1• (65m),False
100000919614,0_258AS6GE6,Ό‘γƒp[ƒLƒ“ƒOƒGƒƒA@ƒXƒiƒbƒNƒR[ƒi[,36.563112704498785,138.18258370304102,’·–μ§’·–μsΒƒmδ“•›Ο’Λ3466,,,,,101017,‚»‚Ξ,10,’·–μ“d“S‰®‘γό^ΫRϋ‰w “k•ΰ9• (700m),False
100000521811,ruONOpfw8WI,‚»‚Ξ‚Μΐ,36.7469605453982,138.07783394973794,’·–μ§’·–μsΛ‰B’†Π3510-25,,,,,101017,‚»‚Ξ,10,,False
100000753587,vauA4082jlo,‚ά‚Άς ‚Θ‚‚Μ“‹}ƒƒXƒgƒ‰ƒ“,36.64506754147681,138.18865681216423,’·–μ§’·–μs“μηΞ1-1-1 ‚Θ‚‚Μ“‹}•S‰έ“X–{Ω7F,24282.0,’·–μ,131.0,1.0,101015,‚Ζ‚ρ‚©‚Β,10,JRM‰z–{ό(Βƒmδ`’Ό]’Γ)^’·–μ‰w “k•ΰ3• (202m),False
100001203396,rcrxt-11Ijc,ƒoƒjƒNƒ}ƒ“,36.64518445449315,138.18735010921958,’·–μ§’·–μs–kΞ“°’¬1380,24282.0,’·–μ,149.0,1.0,110,‹π‰®AƒrƒAƒz[ƒ‹,10,JRM‰z–{ό(Βƒmδ`’Ό]’Γ)^’·–μ‰w “k•ΰ4• (285m),False
100000022360,jivu9rNiJiE,””¦‰®βEάY –{“X,36.657282534483286,138.18766619999997,’·–μ§’·–μs‘ε–ε’¬83,24245.0,‘Pυ›‰Ί,677.0,8.0,118,ƒXƒC[ƒc,10,’·–μ“d“S’·–μό^ “°‰w “k•ΰ8• (626m),False
100001208014,3K-CKThiUqk,’·–μ§’·υH“°,36.643935949663366,138.18900814056394,’·–μ§’·–μs“μηΞ1-22-6 MIDORI’·–μ3F,24282.0,’·–μ,73.0,0.0,101011,“ϊ–{—Ώ—,10,JRM‰z–{ό(Βƒmδ`’Ό]’Γ)^’·–μ‰w “k•ΰ1• (71m),False
100001213951,Jv6Ii1yuHbw,‚»‚Ξ‚Ί‚ρ‚±‚¤,36.64135920754765,138.1898624895839,’·–μ§’·–μsI“c1021-13 ƒJ[ƒT[‘ς1F,24282.0,’·–μ,244.0,3.0,101017,‚»‚Ξ,10,JRM‰z–{ό(Βƒmδ`’Ό]’Γ)^’·–μ‰w “k•ΰ3• (232m),False
100000766980,HjuEPFPP_rc,‚·‚β‹T,36.651165999999996,138.18570499999998,’·–μ§’·–μsΌγ’¬625,24236.0,s–π‘O(’·–μ§),717.0,8.0,101,aH,10,’·–μ“d“S’·–μό^s–π‘Oi’·–μj‰w “k•ΰ9• (680m),True
100000716642,uPZjZIfqDT2,’|•—“° Ό‘γ“X,36.564553461421696,138.1968536705523,’·–μ§’·–μsΌ‘γ’¬Ό‘γ“a’¬10,,,,,115001,ƒJƒtƒF,10,JRM‰z–{ό(Βƒmδ`’Ό]’Γ)^Βƒmδ‰w “k•ΰ83• (6629m),False
100000876960,gaNjXgUfZ2g,‚¨‚©‚ΛH“°,36.66559954828281,138.25943678617477,’·–μ§’·–μs–φ΄2273-1,24351.0,–φ΄(’·–μ§),532.0,6.0,111,’θHAH“°,10,’·–μ“d“S’·–μό^–φ΄i’·–μj‰w “k•ΰ4• (270m),False
100000708652,Xz3hi7zSh0w,“Ώ‘P‰@‹Ό” ‹ΙΣ,36.74158352554219,138.08569457382907,’·–μ§’·–μsΛ‰B’†Π3354,,,,,101017,‚»‚Ξ,10,,False
100001208526,uEqyPCpmdHE,‚β‚Θ‚¬‚β,36.65435704490189,138.19848337918518,’·–μ§’·–μs’ί‰κ“c’¬2090,24192.0, “°,737.0,9.0,111,’θHAH“°,10,’·–μ“d“S’·–μό^‘Pυ›‰Ί‰w “k•ΰ9• (655m),False
100001200649,93OMlSLKG8E,MB‹Ό”‚Μ‘“J MIDORI“X,36.642926096840775,138.1876761473884,’·–μ§’·–μs“μηΞ1-22-6,24282.0,’·–μ,141.0,1.0,101017,‚»‚Ξ,10,JRM‰z–{ό(Βƒmδ`’Ό]’Γ)^’·–μ‰w “k•ΰ1• (49m),False
100001169412,WvIpNo8tzpA,‹Ό”{Ψ ‚±‚·‚°,36.64647738674949,138.1875599699406,’·–μ§’·–μs–kΞ“°’¬1390-1,24282.0,’·–μ,295.0,3.0,101017,‚»‚Ξ,10,JRM‰z–{ό(Βƒmδ`’Ό]’Γ)^’·–μ‰w “k•ΰ3• (236m),False
100000505658,Q4PqEnZp78E,OK¬ΐ–Ξ—Ά“X,36.635988129210666,138.1704053826121,’·–μ§’·–μsΐ–Ξ—Ά‘ε–ε1768-6,24106.0,ΐ–Ξ—Ά,1119.0,13.0,106001,ƒ‰[ƒƒ“,10,JRM‰z–{ό(Βƒmδ`’Ό]’Γ)^ΐ–Ξ—Ά‰w “k•ΰ15• (1148m),False
100001432516,eyN7KUpzLCQ,‚Ζ‚ρ‚©‚Β‚Μ“X ‚©‚Β‘ ,36.65431763684349,138.20063823277738,’·–μ§’·–μs–φ’¬2028-1,24192.0, “°,940.0,11.0,101015,‚Ζ‚ρ‚©‚Β,10,’·–μ“d“S’·–μό^‘Pυ›‰Ί‰w “k•ΰ11• (865m),True
100000751863,esW3hRwJnVU,‚¨‚Ρ‚Θ‚½ ‚»‚Ξ‚Ε‚ ‚ΆΩ ’Ό”„“X,36.7236864,138.08136579999996,’·–μ§’·–μsΛ‰B2640,,,,,101017,‚»‚Ξ,10,,True
100000505369,zfyeFwvp_GY,‚ά‚ι’ε–φ’¬“X,36.65374901,138.19933929,’·–μ§’·–μs–φ’¬35,24192.0, “°,818.0,10.0,101017,‚»‚Ξ,10,’·–μ“d“S’·–μό^ “°‰w “k•ΰ11• (831m),False
100000888912,q-2wm6C8Q7U,θ‘Ε‚Ώ‚»‚Ξ χ,36.582357321847,138.14903602596002,’·–μ§’·–μsμ’†“‡’¬΄759-1,24225.0,Βƒmδ,1243.0,15.0,101017,‚»‚Ξ,8,JRM‰z–{ό(Βƒmδ`’Ό]’Γ)^Βƒmδ‰w “k•ΰ17• (1352m),True
100000505232,jy2WCbfymPA,‰¥‚»‚Ξ,36.68159561687993,138.23988823527608,’·–μ§’·–μsγ‹ξ‘ς195-1,24202.0,OΛ,700.0,8.0,101017,‚»‚Ξ,10,JRM‰z–{ό(Βƒmδ`’Ό]’Γ)^OΛ‰w “k•ΰ7• (545m),False
100000827659,waXDw24NsKI,Λ‰B “ρ—t‰® —t‰B,36.741408809064886,138.08402360546984,’·–μ§’·–μsΛ‰B’†Π‹{‘O,,,,,101017,‚»‚Ξ,14,,True
100000024085,9gOa3Xr6Qfc,ƒoƒbƒNƒhƒƒbƒv,36.649462635805,138.18968296051005,’·–μ§’·–μs’ί‰κγηΞ’¬1137-5,24236.0,s–π‘O(’·–μ§),213.0,2.0,110,‹π‰®AƒrƒAƒz[ƒ‹,8,’·–μ“d“S’·–μό^s–π‘Oi’·–μj‰w “k•ΰ3• (204m),False
100000828271,UaE1yjbIVJw,‚²‚Ζ‚­’ΰ ’·–μ‰w‘O“X,36.645540641269605,138.190343612545,’·–μ§’·–μs’ί‰κ“μηΞ’¬1-12-1 B1F,24282.0,’·–μ,238.0,2.0,110,‹π‰®AƒrƒAƒz[ƒ‹,9,JRM‰z–{ό(Βƒmδ`’Ό]’Γ)^’·–μ‰w “k•ΰ4• (284m),True
100000505016,4-NGv6hnmfc,’C–¤υ‚µ‹g“c“X,36.66799137,138.21730396,’·–μ§’·–μs‹g“c1-2-25,24224.0,M”Z‹g“c,379.0,4.0,101,aH,8,’·–μ“d“S’·–μό^M”Z‹g“c‰w “k•ΰ6• (418m),True
100000505268,oj33f2YnJVk,‚Ώ‚ρ‚έ,36.63320963292135,138.20112362100986,’·–μ§’·–μsξ—t’†η“c2179,24282.0,’·–μ,1810.0,22.0,101017,‚»‚Ξ,7,JRM‰z–{ό(Βƒmδ`’Ό]’Γ)^’·–μ‰w “k•ΰ22• (1743m),False
100000505325,WbNshVcc4IA,“Ή‚Ζ‚ρ–x’·–μ“ΏΤ“X,36.67515363020368,138.22681877988109,’·–μ§’·–μs“ΏΤ3080,24224.0,M”Z‹g“c,1373.0,17.0,101029,‚¨D‚έΔ‚«A‚½‚±Δ‚«,6,’·–μ“d“S’·–μό^M”Z‹g“c‰w “k•ΰ14• (1080m),True
100000887393,SvRzZ2AR82g,l‹GHΚ ƒ„ƒ}ƒuƒL,36.65569915450071,138.187581334234,’·–μ§’·–μs‘ε–ε’¬55-1 ƒpƒeƒBƒI‘ε–ε“ΰ,24192.0, “°,719.0,8.0,110,‹π‰®AƒrƒAƒz[ƒ‹,8,’·–μ“d“S’·–μό^ “°‰w “k•ΰ7• (539m),False
100000505228,YrQoQ39-Vyw,‚¦‚Η‰Ζ‚»‚Ξ“X–k’·’r“X,36.64516297,138.23859519,’·–μ§’·–μs–k’·’r1951-28,24316.0,•‘®’†w‘O,2452.0,30.0,101017,‚»‚Ξ,8,’·–μ“d“S’·–μό^•‘®’†w‘O‰w “k•ΰ28• (2204m),False
