id,gid,name,latitude,longitude,address,satation_id,station_name,station_distance,station_time,genre_code,genre_name,review_count,access,paypay_flg
100000001123,561qbuoW3to,鍑ze ,35.6721277,139.7589121,scK1-1-1 鍑ze,22951,J,204,2,0120004,EW,596,gJ^Jw k4 (307m),False
100001298179,7Jjwp9qlxGE,wm,35.69319697,139.75909704,sc_cђ3-28,22756,_ے,123,1,0102005,tXit`j,116,g^_ےw k1 (79m),False
100001414089,QSxtH0dIDDc,_{ }cT,35.70006010000001,139.7467454,scxm2-4-1,22507,ѓc,297,3,0101001,Η,108,JRE^ѓcw k2 (133m),False
100000078925,kHDI4CaqUis,EF[  ۂ̓񒚖ړX@@,35.67990676803096,139.76361098708514,scۂ̓2-5-2,22828,,39,0,0110,ArAz[,66,gc^dOw k3 (225m),False
100000448154,bpHtXCuAID-,aēHו ̑䏊 ѓcX,35.70149487457081,139.7452287962951,scѓc4-9-8 ѓcvU8F,22507,ѓc,80,1,0110,ArAz[,66,JRE^ѓcw k1 (39m),False
100000011441,n22AdRUWEGY,B񂪂炠߂ Ht{X,35.700777565134,139.77066278458,scO_c3-11-6 }r 1F,22759,L(s),289,3,0106001,[,65,g^Lijw k4 (270m),False
100000451942,DmKWeKBdsZI,_c܂,35.69610572119791,139.76877815153784,sc_c{c1-13,22506,WH,98,1,0101017,,63,gۃm^WHw k2 (88m),False
100000448487,bKDkbqBYcQM,߂  c X,35.6828925,139.7383161,sc敽͒1-4-11 ͂炾r 1F,22673,,125,1,0106002,,51,gLy^w k2 (146m),False
100000003265,_7QpAL6jBTk, Ԃ,35.6969940413099,139.76868107748908,sc_cWH2-10,22506,WH,200,2,0101017,,50,gۃm^WHw k2 (164m),False
100000028860,MApoEJwlGZI,؂ ͂,35.702504830931915,139.7455122490362,scѓc3-11-30 cXr 1F,22507,ѓc,41,0,0106001,[,46,JRE^ѓcw k1 (23m),False
100000037100,j1_pu861ZXw,r TETSU O,35.699656875424985,139.7758566837382,sc_ca1-2-22 r B1F,22492,Ht,151,1,0110,ArAz[,45,JRR^Htw k2 (142m),True
100000077430,MmMDknMyccY,Èō { ۂ̓X,35.68123451,139.76399431,scۂ̓2-4-1 ۂ̓rfBO36F,22828,,41,0,0101003,ۂ,44,gc^dOw k3 (187m),False
100000044119,EVDNCpihwPE,̌܂ Ȃ 쐨,35.69865575555017,139.74576020552252,scxm1-7-5 xmqY 1F,22507,ѓc,265,3,0101023,Ȃ,41,JRE^ѓcw k4 (288m),True
100000083839,U0rZxNUCAZo,̐A叟,35.69466297140774,139.7621345533903,sc_c쒬3-1-5 {cr 2F,22732,V䒃m,296,3,0106002,,37,scVh^쒬ijw k4 (304m),False
s000294676,KQ4wbjlk4f6,tHcMnMJ,35.67317968,139.75844225,scLy1-1-1 {JrB1F,22951,J,60,0,0101001,Η,28,,False
100000043925,ZHX7r2qAgw2,叟 ѓc,35.698951920623,139.74457378185002,scxm2-12-16 xmt[nCz[1F,22507,ѓc,203,2,0106002,,36,JRE^ѓcw k4 (326m),False
100000005067,pOvC_weKckg,Ƃ񂽂 ۂ̓X,35.678546488451545,139.76494650244672,scۂ̓2-7-3 rTOKIA B1F,22828,,111,1,0110,ArAz[,35,JRR^w k1 (86m),False
100000698287,GduZ7eyo4gg,zセ X,35.68177088485466,139.766864776612,scۂ̓1-9-1 wԊX n1K,22828,,114,1,0101017,,34,JRR^w k2 (94m),False
100000079540,AIIjzV-40ow,햡 ۃr,35.68102628176,139.76418889947502,scۂ̓2-4-1 ۂ̓rfBO 5F,22828,,78,0,0101003,ۂ,34,JRR^w k3 (216m),False
100000077366,Uq07ZW-ocAU,ɂނa  Lb`Xg[g,35.68118548,139.76875395,scۂ̓1-9-1 JRw 1F Lb`Xg[g,22828,,104,1,0101029,DݏĂAĂ,35,JRR^w k4 (314m),False
100000756946,Wt_JHHUDPL6, HtwOX,35.6988027,139.77226329999996,scO_c1-18-18,22492,Ht,44,0,0110,ArAz[,33,JRR^Htw k2 (116m),False
100000229877,7-gn8nLcz4o,Ē,35.696576427140165,139.76823640435123,sc_cWH2-8,22506,WH,145,1,0102,mH,33,gۃm^WHw k2 (99m),False
100000064545,APhzT1O5Q7g,]Av[Y,35.6723978879664,139.75833274285299,scK1-1-1 鍑ze {ْK,22951,J,139,1,0101001,Η,32,gJ^Jw k4 (317m),False
100000000375,PWaQJGS7xBY,c _c䒃mX,35.69522298814858,139.76650238467312,sc_c쒬1-4 acr1F,22572,쒬(s),48,0,0106002,,32,scVh^쒬ijw k1 (43m),False
100000003907,KqS9c0Y6XdI,_c _cX,35.69441659609676,139.7708151601189,sc_c{c1-24-2,22617,_c(s),30,0,0101023,Ȃ,32,JRR^_cijw k3 (222m),False
100000735269,1HvkHSL--ZU,H HtX,35.697456330889295,139.7788405245716,sc_cvԒ3-20-1,22492,Ht,347,4,0106001,[,31,JRR^Htw k5 (347m),False
100000032557,rchfwMZMmug, ԉ _cwOX,35.692983,139.7719979999999,scb蒬2-9-3,22617,_c(s),136,1,0110,ArAz[,30,JRR^_cijw k4 (251m),False
100000003771,cCxH8Yi3M_o,ZЎ [Xg[g,35.68027027620618,139.76794427785785,scۂ̓1-9-1wԊX B1F [Xg[g,22828,,73,0,0106002,,30,JRR^w k1 (49m),False
100000050281,era7jAqutJE,u _ےX,35.696174,139.760127,sc_c_ے1-2 ACr[1r5F,22756,_ے,169,2,0102006,C^AiC^Aj,30,g^_ےw k4 (281m),True
100000010973,Ih5XuhyWLQk,_ _c,35.7003748864542,139.76904650276992,scO_c2-5-11,22492,Ht,476,5,0101023,Ȃ,29,gۃm^WHw k5 (372m),False
100000029805,Pkcgge2nalk,h~Nz[,35.694791766366,139.76880133151997,sc_c2-11-7,22506,WH,137,1,0106001,[,28,gۃm^WHw k2 (154m),False
s000295155,kexMEwWluLU,tH@rRX,35.67357085,139.74039378,scic2-11-1 Rp[N^[ 27F,22668,cO,129,1,0101011,{,29,,False
100000040859,YUMO_wJd3PI,KICHIRI  Ht,35.69780009999999,139.77423269999997,sc_cvԒ1-13 chomp chomp AKIHABARA3F,22492,Ht,94,1,0110,ArAz[,28,JRR^Htw k2 (139m),False
100000612643,Z_M3WXMyccY,IU~g[L[ ۃr,35.681096,139.76363100000003,scۂ̓2-4-1 ۃr35F,22828,,155,1,0102005,tXit`j,28,gc^dOw k3 (187m),False
100000004369,7YNsh0-ocAU,[X Ђ邪 wX,35.68007655830733,139.76785890052497,scۂ̓1-9-1 wԊX B1F [Xg[g,22828,,52,0,0106001,[,28,JRR^w k1 (45m),False
100000703825,x4ERsgCVSGk, ,35.698836,139.78014099999996,sc_ca2-15 lAr3 1F,22496,󑐋,453,5,0106001,[,27,JRE^󑐋w k7 (502m),False
100000016846,hkVyFgOCUKU,Ȃ VOE ze X,35.6825351,139.76947229999996,scۂ̓1-8-3 VO ze  29F,22828,,163,2,0101001,Η,29,JRR^w k5 (395m),False
100000012840,rb6xxmLmUSk,_ے ,35.6964366820127,139.7574158227019,sc_c_ے2-2-12 TGXr 1F,22756,_ے,65,0,0106001,[,27,g^_ےw k1 (37m),False
100000044020,QZqgU8Y1s7I,,35.694115,139.781571,sc擌_c1-14-6,22918,n,189,2,0101015,Ƃ񂩂,27,JR{^n򒬉w k2 (122m),False
100000058781,jUzRJ33pbrg,Dynamic Kitchen & BAR  ۃmX,35.6830654,139.7633449,scۂ̓1-2-1 CrfBOV 1F,22564,蒬(s),100,1,0119004,_CjOo[,27,gc^dOw k4 (270m),False
100000015244,nlJNYlM4NXw,F,35.6728832,139.7602759,scLy1-2-9 TS Jr B1F,22951,J,176,2,0106001,[,27,gJ^Jw k3 (190m),False
s000096446,vUcpR6Gvsw-,[@LyrbNJxX,35.67558232,139.7629279,scLy1-11-1 rbNJLyX6F,23036,Ly,22,0,0101029,DݏĂAĂ,26,,True
s000286635,y4hJfnNLH8-,_c l̉ꗿX ,35.69473858,139.76302455,sc_c쒬3-2-10 Or2K,22732,V䒃m,195,2,0101032,ꗿ,26,,True
100001254894,7jiav_CgwNI,S ̒Bl HtX,35.70129183196617,139.7718428831265,scO_c4-4-3 HtSILr 4F,22759,L(s),165,2,0108001,ē,28,g^Lijw k2 (158m),True
100000004336,PuaugKEIJOk,Vi _cX,35.6924117,139.76967479999996,sc_c3-23-8 3Vr1F,22617,_c(s),150,1,0106001,[,26,JRR^_cijw k3 (174m),False
100001419891,1o9cL7IMwjo,ˏ ,35.6990132,139.75392829999998,sc搼_c2-5-8,22756,_ے,407,5,0106001,[,26,JRE^w k5 (340m),False
100000007348,UavWrFea-_I,ߖ十 y LyCgVAX,35.6742637,139.7637618,scLy2-7-1 LyCgVACgVAvU3F,23036,Ly,76,0,0104001,ؗ,26,JRR^Lyw k2 (131m),False
100000453930,D9DBSr1fEuQ,Dݏ   ۂ̓X,35.67854431061815,139.76494630000002,scۂ̓2-7-3 rTOKIA B1F,22828,,111,1,0101029,DݏĂAĂ,26,JRR^w k1 (81m),False
100000741938,8hOuJMhEw0U,Sbg CAho[,35.6824283323057,139.76428248465595,scۂ̓1-5-1 Vۂ̓rfBO 7F ۂ̓nEX,22828,,59,0,0102006,C^AiC^Aj,26,JRR^w k3 (233m),False
100000001550,W2CULFOgCFs, R,35.7039799,139.77266310000005,scO_c5-5-2,22759,L(s),152,1,0101031,́AAeq,25,g^Lijw k2 (154m),False
100000009600,6QdJJLgHzfw,Vi X,35.70154427254091,139.75212100893395,sc_cO蒬3-7-13 cr1F,22758,,97,1,0106001,[,25,JRE^w k1 (79m),True
100000078944,loqlhYTQ6UI,͂ DINNING BAR ق LyX,35.6732539374771,139.76150545396695,scLy2-3-5 auneLy 9F,22951,J,42,0,0110,ArAz[,25,gJ^Jw k3 (210m),False
100000004317,ePa-iGceAng,Vh g HtX,35.7005247,139.7725077,scO_c4-14-1 HtUDX 3F,22492,Ht,253,3,0101026,Ă,25,JRR^Htw k3 (229m),False
100000867576,Lt8OYYi3M_o,̋ 쏕 wdFkX,35.68118548,139.76875395,scۂ̓1-9-1wdFkLb`Xg[g,22828,,104,1,0101042,,25,JRR^w k4 (321m),False
100000002178,bKDkbvk00xY,c ѓcX,35.7013072,139.7462537,scѓc4-8-14 1F,22507,ѓc,74,0,0106001,[,25,JRE^ѓcw k2 (136m),False
100000002920,AAXP-CZblzw,J[v xX,35.693694390143804,139.77023534729062,sc_cb蒬3-5 ۍ_cr,22617,_c(s),144,1,0101029,DݏĂAĂ,25,JRR^_cijw k4 (283m),False
100000010024,J0Tdab_IRVA,ˉ _R,35.69096169388709,139.769700035582,sc_c3-8-7 OtH[NX_cr,22617,_c(s),86,1,0106001,[,24,JRR^_cijw k2 (107m),False
100000772777,C3gLk3RjZ1M,قڂ+,35.69226036149324,139.77073908098566,sc_c3-19-9,22617,_c(s),48,0,0106001,[,24,JRR^_cijw k1 (30m),False
100000018958,IgPmjTGwFyk,ˉ ЂƂ ʉٓX,35.674803257731824,139.7640067,scLy2-10-1 ʉ B1F,23036,Ly,61,0,0106001,[,24,gJ^Jw k1 (41m),False
100000008000,kutAIjs8G1c,ی,35.6991387,139.7697273,scO_c1-8-14,22492,Ht,299,3,0101015,Ƃ񂩂,23,JRR^Htw k5 (399m),False
100000004918,BeTAnWJ2t2I,ԍѓX pXTChrX,35.6911754,139.75717829999996,scc1-1-1 pXTChr B1F,22797,|,62,0,0104001,ؗ,23,g^|w k1 (70m),False
100000007597,Jlq6uTWKAKI,т̎ ̐zeWN,35.698285256449324,139.76773524110445,sc_cWH2-9 ̐zeWN 2F,22732,V䒃m,237,2,0103001,oCLO,23,gۃm^WHw k3 (197m),False
100000064190,XYlNAx85kl6,cΓX HtX,35.7023632646611,139.77062551326242,scO_c3-8-3 1jJr 1F,22759,L(s),149,1,0106001,[,23,g^Lijw k2 (107m),False
100001432515,SIQH0SJSwyM,rSX ܃m,35.697839060434966,139.7592974598317,sc_cy1-3-6 HARAr1F,22756,_ے,310,3,0106001,[,22,g^_ےw k3 (215m),True
100000435277,SSZB95bznv6,Xg XgbNz,35.6778044418991,139.73738136574502,scic2-14-3 }vUԍ1F,22856,ic,50,0,0102,mH,22,gۃm^ԍ〈w k2 (95m),False
100000855303,rOlaKm_-BfY,N[߂ ܃m_Y,35.69399994,139.76869094,sc_c2-9-6 crʊ1F,22506,WH,210,2,0106001,[,22,gۃm^WHw k3 (201m),False
100000050627,GX-cJ1ThRLg,I Ȃ,35.6801927,139.73496369999998,scI䒬4-1 zej[I[^jK[f^[rBK,22486,ԍ〈,290,3,0101014,VՂAg,23,gۃm^ԍ〈w k6 (421m),False
100000018586,I8DZ5XR5hqw,JVr S_ _cX,35.69369986224167,139.77240637729813,scb蒬2-10-10,22617,_c(s),157,1,0106002,,22,JRR^_cijw k3 (215m),False
100001183025,jSifpT6otlY,l\@HtaʂX,35.69835798,139.77477667,sc_cԉ1-9 AgHt23F,22492,Ht,52,0,0110,ArAz[,22,JRR^Htw k0 (2m),True
100000077039,A0i340Ch2Rk,ȏ hoVHtX,35.69881736675403,139.77470187818756,sc_cԉ1-1 hoVJ}`fBAAkiba 8F,22492,Ht,47,0,0101023,Ȃ,23,JRR^Htw k2 (158m),False
100000723400,7_bdxGDTcO2,ĒEn@葢aH@E݂ X,35.68329104128785,139.73908916116022,sc捍3-5-19,22673,,183,2,0101034,CN,22,gLy^w k2 (140m),False
100000078985,deOCk3moR3U,齂꒚ HtX,35.7015023,139.7711966,scO_c3-15-1 HtvCX 3F,22759,L(s),179,2,0110,ArAz[,22,g^Lijw k3 (173m),False
100000000862,jXSUUJqXTn-,,35.69533315370426,139.77070958944046,sc_c{c1-16-4,22617,_c(s),102,1,0101017,,21,JRR^_cijw k1 (29m),False
100001293532,7GbriI-_ZEY,@G,35.69757010144703,139.75119180491083,scik1-9-2,22645,i,176,2,0106001,[,21,g^iw k2 (136m),False
100000006372,dw5IT5PRggQ,]򂤂ǂ ځ[ _cX,35.689792990560306,139.7675579450571,sc_c2-2-1 q͊݃r B1F,22564,蒬(s),326,4,0101018,ǂ,21,JRR^_cijw k5 (375m),False
100000022572,iE-nf1zsnes,_c JX,35.6769883,139.76118129999998,scۂ̓3-1-1 鍑B2F,22951,J,102,1,0101023,Ȃ,21,gJ^Jw k4 (289m),False
100000017103,Ea5VF8CReHw,VLq[ ѓcwOX,35.701057045372394,139.74565121748515,scxm2-6-10 OxmrB1,22507,ѓc,100,1,0104008,Lq,21,JRE^ѓcw k1 (73m),False
100001163374,t7qZlnMyccY,{  X,35.68123451,139.76399431,scۂ̓2-4-1 ۃr36F,22828,,41,0,0101001,Η,21,gc^dOw k3 (204m),False
100000771786,FQJKEH-aMN-,wx,35.694531,139.77236070000004,sc_c49-8,22617,_c(s),208,2,0106001,[,21,scVh^{w k5 (405m),False
100000038426,BjJv5jZE9xA,ԍ WpO,35.6773209,139.7374831,scic2-14-3 ԍGNZze} 14F,22856,ic,101,1,0101011,{,22,gۃm^ԍ〈w k1 (59m),False
100000017852,_YslrbPzA3U,؍[ Ht ̌,35.69793284198,139.77510452271,sc_cvԒ1-19,22492,Ht,31,0,0106001,[,21,JRR^Htw k3 (216m),False
100000006212,0iPqL-ganCU, {,35.69657386836779,139.76913205109975,sc_c{c1-11-1,22506,WH,183,2,0101038,񂱂,21,gۃm^WHw k2 (153m),False
100001169558,5BiTsCretEQ,Soba & BAR An,35.67566336329999,139.7387707598,scic2-13-10vfVvU,22486,ԍ〈,109,1,0101017,,21,gۃm^ԍ〈w k3 (244m),False
100000007405,6uxuncR8WKg, _cX,35.6918813,139.77034700000002,sc_c3-13-4 zr1K,22617,_c(s),109,1,0111,HAH,21,JRR^_cijw k1 (85m),False
100000076630,-EIVTXCIDxI,ci HtX,35.6976769792056,139.771449735582,scO_c1-15-1,22492,Ht,174,2,0101,aH,21,JRR^Htw k2 (130m),False
100000017764,c36J3iH7G5-, 䉮{X,35.6810962,139.763631,scۂ̓2-4-1 ۂ̓rfBO 6F,22828,,155,1,0101025,Ă,21,gc^dOw k3 (187m),False
100000032507,-9_NhOCa9gI, _cX,35.69247,139.77211599999998,scb蒬2-8-2,22617,_c(s),113,1,0104005,l엿,20,JRR^_cijw k3 (218m),False
100000022797,9uL1NwGBGqE,c X̏,35.694807,139.76732600000003,sc_c쒬1-1 CBA[_c쒬r 1F,22572,쒬(s),69,0,0106001,[,20,gۃm^WHw k1 (75m),False
100000065545,AvKbssPoFkQ,{茧s@˓c_@HtʂX,35.699111,139.771663,scO_c1-13-3 ZIGZAGr8F,22492,Ht,122,1,0110,ArAz[,20,JRR^Htw k3 (188m),True
100001291652,zhSWq8_9YTw,ߐƐ蝆 H,35.696161179098944,139.7594529546484,sc_c_ے1-6,22756,_ے,107,1,0106001,[,20,g^_ےw k2 (114m),False
s000240952,2aLGA82dIPk,ł񂪂ȁ@_cX,35.69032818,139.77124364,scb蒬1-7-1 蓇r1F,22617,_c(s),145,1,0101014,VՂAg,20,,True
100000050190,h9g0v2i3M_o, } ӂЂːX dFX,35.68216020624351,139.76807917694066,scۂ̓1-9-1 wXX 1F Lb`Xg[g,22828,,118,1,0104001,ؗ,20,JRR^w k2 (156m),False
100000076969,Thd8wuJ1mbU,gΐ_cX,35.6915452,139.7703775,sc_c3-13-10,22617,_c(s),49,0,0101017,,20,JRR^_cijw k1 (51m),False
100000077299,yg78qzu6K1E,EB H _c,35.6934949,139.7670388,sc_ci2-9-2 fB[L[ur 1F,22572,쒬(s),229,2,0110,ArAz[,19,gۃm^WHw k3 (223m),True
100000448877,92Ls4tcXRnA,Ɨ dFX,35.6806281730521,139.76848137301602,scۂ̓1-9-1 wnXX B1F ,22828,,101,1,0105001,؍AN,20,JRR^w k4 (277m),False
100000009048,1SK80oB6ffE,gvJ _c{X,35.69628690671781,139.76918192023777,sc_c{c1-11 |r 1F,22506,WH,142,1,0107001,J[,20,gۃm^WHw k2 (135m),False
100000074873,6pFoJBjMOrY,_cV {X,35.69272986422176,139.77202419079003,scb蒬2-9-1,22617,_c(s),112,1,0110,ArAz[,20,JRR^_cijw k2 (116m),False
100000000089,gvTAix6xU-I,,35.6991495,139.758853,sc_cy2-1-7,22756,_ے,462,5,0101017,,20,g^_ےw k5 (380m),False
100000004053,LoIAiXMyccY,V,35.6810962,139.76362094171623,scۂ̓2-4-1 ۂ̓rfBO 35F,22828,,154,1,0101014,VՂAg,20,gc^dOw k3 (186m),False
100000001201,0LEhQyF1Zao,䂩 AKIBA-ICHIX,35.7005247,139.7725077,scO_c4-14-1 HtUDX AKIBA-ICHI 3F,22492,Ht,253,3,0101029,DݏĂAĂ,19,JRR^Htw k3 (229m),False
