id,gid,name,latitude,longitude,address,satation_id,station_name,station_distance,station_time,genre_code,genre_name,review_count,access,paypay_flg
100000262653,g7l2ziHnzI_,Oy,33.9458101,130.9625181,kBsi`7-1,28345,i`,171,2,0101011,{,151,JR{(ցEi``)^i`w k2 (131m),True
100000006113,MlYMQfaucqs,]iECN Cl,33.9459906,130.96496230000002,kBsi`3-3,29665,op,259,3,0101,aH,24,}LSi`gό^opىw k3 (203m),True
100000868827,FsDGHqGGDls,CNXg E[,33.908655524,130.93216130309997,kBsi嗢{2-11-33,28344,i,605,7,0101001,Η,20,JRRz{(⍑`i)^iw k7 (503m),False
100000267293,HgZdfZUWA6E,vZXss,33.94554255920493,130.961099307518,kBsi搼C1-4-7 1FB1F,28345,i`,237,2,0105003,^C,18,}LSi`gό^BSLOىw k3 (174m),False
100000712632,yh1VS5uVzOw,ǂ,33.8794677,130.9759826,kBsi攨1271-1,,Vi`(u),1491,18,0101018,ǂ,14,JRRz{(⍑`i)^iw k69 (5469m),False
100001158902,2vMp4YHJW02,{ i`gX,33.94599558650582,130.96154515398405,kBsi`9-2 gr2F,28345,i`,197,2,0107001,J[,14,JR{(ցEi``)^i`w k2 (95m),True
100001241078,3S4se8675b2,ᏼ,33.9608916,130.9623292,kBsii3492,29667,֖C߂,625,7,0111,HAH,13,}LSi`gό^֖C߂w k7 (558m),False
100000891555,xKb8U4GV4sg,{ g ,33.90357163538394,130.93447456933688,kBsi2-2-10,28344,i,240,3,0101031,́AAeq,12,JRRz{(⍑`i)^iw k2 (141m),True
100000696844,-WqZZyr5g_Y,c  i`gX,33.94617076135036,130.96415593371216,kBsi`5-1CvU2F,29665,op,247,3,0101017,,12,}LSi`gό^opىw k3 (203m),False
100001224935,Dql0RlJXNjE,ڐH,33.9498068,130.96437349999997,kBsi擌`2-25,29665,op,307,3,0101033,y,11,}LSi`gό^opىw k3 (246m),True
100000013993,6wKx6zQSMfg,񂤂ǂ 嗢X,33.909384279524,130.93665450811,kBsi~mؒ1-19,28344,i,765,9,0101018,ǂ,11,JRRz{(⍑`i)^iw k9 (667m),False
100000262657,CWnB2I4hKkg,CXg Ԃ,33.9115661,130.93381869999996,kBsi嗢{1-10-7,28157,X],671,8,0101034,CN,11,JR{(ցEi``)^X]w k10 (757m),True
100000262543,OgV6Y8GM_QU,iiX,33.8945539,130.92418650000002,kBsi擌V1-1-1 ^JtWAp[gg2F,28344,i,1425,17,0101013,]i,12,JRRz{(⍑`i)^iw k19 (1492m),True
100000895229,wswkWFOihhI,ɋg,33.891810803922,130.92212104789,kBsi搼V1-1-24,28344,i,1824,22,0101018,ǂ,10,JRRz{(⍑`i)^iw k24 (1872m),True
100001164352,9-tsfgtcfNs,Ci C,33.94583355266584,130.9636909951803,kBsi`5-1 i`g CvU 1K,28345,i`,282,3,0101,aH,10,}LSi`gό^BSLOىw k3 (212m),False
100000022986,3u5i2NZTnwk,܂₤ǂ,33.945759719416,130.96780836582,kBsiV1-2,29665,op,387,4,0101018,ǂ,10,}LSi`gό^opىw k5 (359m),True
100000263008,v5zJL94yPHI,ӂ≮@i`g{X,33.9450574,130.9660483,kBsih6-15,29665,op,391,4,0101011,{,9,}LSi`gό^opىw k4 (315m),False
100000262655,_76yr60843c,amXgOy,33.9458101,130.9625181,kBsi`7-1,28345,i`,171,2,0101011,{,8,JR{(ցEi``)^i`w k2 (131m),False
100001227821,silJCGh01uM,XV[ iЏCݓX,33.92617674544797,130.94219571269008,kBsiЏC6-16,28157,X],1428,17,0101,aH,5,JR{(ցEi``)^X]w k15 (1158m),True
100000262530,gu-nW46gnZc,痼,33.9040836,130.93310510000003,kBsi撆2-1,28344,i,36,0,0101,aH,11,JRRz{(⍑`i)^iw k1 (45m),False
100001188806,Fn4uNQdOVp2,ӂ,33.9021116,130.93586879999998,kBsi2-7-25,28344,i,367,4,0101027,,10,JRRz{(⍑`i)^iw k5 (364m),True
100000897130,T6SBdoxgzSA, z,33.94105988,130.95875683,kBsiL1-1-7,29664,BSLO,779,9,0101017,,5,JR{(ցEi``)^i`w k8 (606m),False
100000262528,iLzIGJuLzmg,{,33.94602053,130.96158976,kBsi`9-2,28345,i`,200,2,0101,aH,11,JR{(ցEi``)^i`w k2 (98m),True
100001314035,kKWOriHxQnE,齏 x,33.94540501508219,130.96547524499897,kBsih2-13,29665,op,324,4,0101,aH,4,}LSi`gό^opىw k4 (262m),True
100001222938,Hop_1bIcgT2,` 畺q,33.9571754,130.9620681,kBsi拌i2-5-1 m[tH[NL,29666,m[tH[NL,362,4,0101018,ǂ,11,}LSi`gό^m[tH[NLw k4 (277m),False
100001467828,sbmVbvNkoSo,H yR y̓,33.902790952445564,130.926594302412,kBsi嗢{3-13-26,28344,i,759,9,0101,aH,4,JRRz{(⍑`i)^iw k9 (663m),False
100000063257,ij5yAdD_YCw,y̑,33.861153823211836,130.9606479531708,kBsigu329-2,28181,],4349,54,0101034,CN,6,JRL{(i``)^ԉw k19 (1509m),False
100000262604,cCt1zjiNb8g,lkBiX,33.9109689,130.9374156,kBsi嗢3946-1,28157,X],574,7,0101015,Ƃ񂩂,5,JR{(ցEi``)^X]w k8 (614m),True
100000892808,jl4_PUc5E_o,,33.94925250651,130.96536379924,kBsi擌`2-23,29665,op,207,2,0101,aH,5,}LSi`gό^opىw k2 (162m),False
100001283758,KfqPQc2h5vQ,ܓǂ a,33.9453417374903,130.9663021244868,kBsih5-25,29665,op,368,4,0101018,ǂ,2,}LSi`gό^opىw k4 (297m),False
100000262649,NBv7OjKiCG-,E͂,33.908958,130.93728520000002,kBsi扩2-26,28344,i,744,9,0101048,,4,JRRz{(⍑`i)^iw k9 (670m),False
100001180775,pHk5QYiX1_g,ǂǂ@iX,33.90470194309871,130.92870745820073,kBsi嗢{3-13-102,28344,i,463,5,0101029,DݏĂAĂ,8,JRRz{(⍑`i)^iw k7 (527m),True
100000262574,QGiYYgHC1Sg,ǂ,33.94833985,130.96798056,kBsi擌{1-4-21,29665,op,416,5,0101025,Ă,1,}LSi`gό^opىw k4 (305m),False
100000006136,2ZJaGNgSkKo,Ă,33.9455935,130.96683989999997,kBsih10-8,29665,op,341,4,0101011,{,6,}LSi`gό^opىw k4 (298m),False
100000262570,HcmE2ONT1ZY,ĂƂH[@Yď@{X,33.901417200000004,130.93181456994057,kBsi捂c1-4-18,28344,i,416,5,0101025,Ă,5,JRRz{(⍑`i)^iw k4 (313m),True
100001273116,oOsVu4AONt6,Hǂ iwOX,33.90440255709833,130.9344761461074,kBsi2-1-25,28344,i,158,1,0101018,ǂ,1,JRRz{(⍑`i)^iw k2 (116m),True
100000892072,23MatOAqyJ2,ł R,33.945281630576,130.96289299302,kBsi`6-3,28345,i`,135,1,0101028,ł,5,}LSi`gό^BSLOىw k2 (111m),False
f426305,NZXY4FEL88Y,Ԃ,33.90482181,130.92953805,kBsi嗢{3-10-56,28344,i,401,5,0101022,Ԃ,12,JRRz{(⍑`i)^iw k6 (436m),True
100000262504,UuVQp2zhA1E,,33.94731227,130.97150789,kBsiV11-7,29665,op,863,10,0101002,ȗ,2,}LSi`gό^opىw k9 (692m),False
100000895881,f2domL_FD8k,mV[ ɂ,33.945803263021,130.96460389015,kBsi`2-17,29665,op,241,3,0101031,́AAeq,6,}LSi`gό^opىw k3 (234m),False
100000733015,uKMHarNMNVU,߂p[LOGA@XgR[i[,33.958092,130.96298739999997,kBsii3491,29666,m[tH[NL,497,6,0111,HAH,6,}LSi`gό^m[tH[NLw k4 (274m),False
100001304661,mZdSGwygb-U,,33.90368457840047,130.93621352004993,kBsi2-5-3,28344,i,351,4,0101029,DݏĂAĂ,5,JRRz{(⍑`i)^iw k4 (324m),False
100001321587,PcmT-HdEPFg,׌,33.944509610805724,130.9655686283112,kBsih6-25-1F,28345,i`,467,5,0101014,VՂAg,7,}LSi`gό^BSLOىw k5 (351m),True
100001358204,-BFX7W_4zf-,VՂ̂ЂEg,33.9456323,130.96556499999997,kBsih3-27,29665,op,325,4,0101014,VՂAg,4,}LSi`gό^opىw k3 (239m),False
100001246028,vnRpfqcZvDc,₫ O i`X,33.92484731256375,130.9786031432651,kBsi捕1-1-38,29665,op,3037,37,0101029,DݏĂAĂ,2,}LSi`gό^BSLOىw k36 (2815m),False
100000262603,s2dbQ5gfwMQ,ޒ,33.94501784,130.96045657,kBsi搼C1-4-15,28345,i`,197,2,0101015,Ƃ񂩂,2,JR{(ցEi``)^i`w k2 (122m),False
100000262558,uZhPTenK6oY,D@iwOX,33.9033836,130.93429119999996,kBsi2-2-13,28344,i,217,2,0101025,Ă,6,JRRz{(⍑`i)^iw k2 (140m),False
100000262989,i35A7LLiDgA,JIP~I,33.93630137247166,130.94963600000003,kBsi抋t1-1-8,29664,BSLO,1815,22,0101025,Ă,3,JR{(ցEi``)^i`w k21 (1647m),True
f654001,qgqm0DrTMk-, iwOX,33.90404973,130.93309318,kBsi撆2-1 tX^i 1F,28344,i,33,0,0109001,痿,6,JRRz{(⍑`i)^iw k1 (45m),True
f310300,vOGSY1b8ORk,i`O C y̎|,33.94646220,130.96434495,kBsi`4-1 CvU2F,29665,op,232,2,0101034,CN,7,}LSi`gό^opىw k3 (181m),False
100000262682,QlTbCrNOCpI,ē-kai-,33.89161205,130.92272793000006,kBsi擌V2-10-4,28344,i,1834,22,0108001,ē,2,JRRz{(⍑`i)^iw k23 (1844m),True
100000262508,6Ttunjj53fQ,B ܂˂T,33.9454435,130.96614,kBsih5-3,29665,op,349,4,0101003,ۂ,10,}LSi`gό^opىw k4 (277m),False
ID0101096,vTeBVXTw0Ew, 3iX,33.908187946,130.93674671505,kBsi扩322,28344,i,627,7,0101031,́AAeq,3,JRRz{(⍑`i)^iw k7 (563m),True
100000895289,DB0nwqD--fE,{珈 S,33.903087726812,130.93461843226,kBsii2-3-20 INiKr1F,28344,i,222,2,0110,ArAz[,2,JRRz{(⍑`i)^iw k3 (189m),True
100001235446,Mv8hQkpF5Mw,DX,33.945082986539155,130.96634765863416,kBsih10-1,29665,op,406,5,0101045,SĂ,5,}LSi`gό^opىw k4 (323m),False
100000263012,PjdCWYL-Jbs,݂,33.94694745324995,130.9679231,kBsih11-19,29665,op,375,4,0101018,ǂ,5,}LSi`gό^opىw k4 (325m),False
100000262643,no-x6LZ0lYk,ǂ艮,33.9012228,130.93831309999996,kBsi3-8-6,28344,i,627,7,0110,ArAz[,4,JRRz{(⍑`i)^iw k8 (640m),False
100001481425,tjYXlY0cGH6,Ƃ,33.933945882753484,130.94552435459127,kBsi搼C3-4-31,28345,i`,2166,27,0101015,Ƃ񂩂,2,JR{(ցEi``)^i`w k28 (2172m),False
100001391661,LLF4IzSiyLU,i`gR~JtF,33.94586570000001,130.96362079999994,kBsi`5-1 i`g CvU1F,28345,i`,243,3,0118,XC[c,2,JR{(ցEi``)^i`w k3 (170m),False
100001318979,0e-3IDiNb8g,肿ۂ K[nbg kBiX,33.913936768032706,130.93871566235745,kBsi嗢1-24,28157,X],223,2,0101033,y,1,JR{(ցEi``)^X]w k2 (153m),True
fa24100,AnrFCMU-a8U,i,33.94500408,130.96616141,kBsih9-10,29665,op,401,5,0108001,ē,5,,True
100000262511,laWIgfC7H9s,t,33.9607166,130.96213750000004,kBsii3492-2,29667,֖C߂,659,8,0101011,{,4,}LSi`gό^m[tH[NLw k8 (577m),False
100001281834,zgdGsPvU3X-,i`S~[ l,33.9478422,130.96592469999996,kBsil1-17 Rr 1F,29665,op,136,1,0110,ArAz[,1,}LSi`gό^opىw k2 (92m),True
100001317009,KfKG7x_gXeY,ܐH,33.908479989845,130.93854972457882,kBsi扩5-15,28344,i,845,10,0101031,́AAeq,3,JR{(ցEi``)^X]w k10 (756m),False
100001259254,_DncKaZrqio,ǂ ,33.93370328533325,130.94778346853786,kBsi敗t3-5-10,29664,BSLO,2152,26,0101018,ǂ,3,JR{(ցEi``)^i`w k25 (1986m),False
100001194838,vW-Uv4Ddk2A, OXO,33.94290564957586,130.9635695029,kBsi搴3-6-8,29664,BSLO,411,5,0101004,,23,}LSi`gό^BSLOىw k3 (207m),False
100000891509,_3EPdJn221g,gup[LOGA  XibNR[i[,33.871591790365,130.96535951032,kBsigu81,,,,,0106001,[,2,JRRz{(⍑`i)^iw k64 (5074m),False
fb23800,iqLkSLQ7g8I,,33.94416248,130.96494491,kBsih7-5,28345,i`,417,5,0101005,,1,,False
faze800,Hop_1doIfrY,` 畺q,33.95717480,130.96206747,kBsi拌i2-5-1,29666,m[tH[NL,362,4,0101018,ǂ,,,False
100001213861,IvrXjXBLXN2,ł r}ǂ Ԑ痢,33.90277465704586,130.9348558425903,kBsi2-3-17,28344,i,247,3,0101018,ǂ,1,JRRz{(⍑`i)^iw k3 (232m),True
100000262518,MAHuQYtU242,]ː,33.94530405,130.96651969,kBsih10-3 X{r1F,29665,op,380,4,0101,aH,5,}LSi`gό^opىw k4 (308m),True
100000262837,6uuURvu3o4-,{NS,33.9455296,130.96562059999997,kBsih3-26,29665,op,329,4,0101034,CN,3,}LSi`gό^opىw k4 (254m),True
100000896871,563cKPCWTTM,gup[LOGA  t[hR[g,33.872395363739,130.96372269059,kBsigu81-2,,,,,0106001,[,4,JRRz{(⍑`i)^iw k61 (4884m),False
100001248504,D9WBknTcBME,ۏǂ,33.89484132327136,130.97887496309943,kBsi扎579-12,,,,,0101018,ǂ,3,JR{(ցEi``)^X]w k64 (5061m),False
100001307470,mFM0QFwiO7g,₫ ,33.90441494021863,130.93402313498768,kBsi撆1-30,28344,i,137,1,0101029,DݏĂAĂ,1,JRRz{(⍑`i)^iw k2 (107m),True
100001273375,DMZa9uK6eD6,ӂg Ȃ,33.9464447,130.9643473,kBsi`4-1 CvU  1F,29665,op,234,2,0101014,VՂAg,1,}LSi`gό^opىw k3 (183m),False
3047475,IifqkeAkjCU,_ےr[t@i`X,33.94584839,130.96448105,kBsi`2-14,29665,op,232,2,0101031,́AAeq,12,,False
100001176693,Kp1nbowjBXQ,DݏĂ Ƃ,33.90313181448766,130.9352555092214,kBsi2-3-10,28344,i,310,3,0101029,DݏĂAĂ,3,JRRz{(⍑`i)^iw k3 (240m),False
100000262561,msAXJ3suT7s,,33.90339427,130.93464299,kBsi2-3-27,28344,i,232,2,0101025,Ă,2,JRRz{(⍑`i)^iw k2 (164m),False
100000897340,aIbNhUYy7ag,lĂ&^BBQ ,33.960817286017026,130.96781283281206,kBsii3491-6 ߂蒪s,29667,֖C߂,104,1,0108001,ē,1,}LSi`gό^֖C߂w k1 (46m),True
100001182795,5cli6wffxmQ,΂񂴂Ղ@@-KAZE-,33.904496786736,130.9338755516033,kBsi撆1-30,28344,i,146,1,0101010,΂񂴂,1,JRRz{(⍑`i)^iw k1 (53m),False
100000898946,yVK82hiKCgI,P Ă򂢏,33.896115992996,130.98823543071,kBsiViClΒn,,,,,0101034,CN,1,JR{(ցEi``)^X]w k75 (5942m),False
3037641,vHoJUDLfVmo,ǂǂ@iX,33.90384690,130.92789658,kBsi嗢{313-102,28344,i,581,7,0101029,DݏĂAĂ,4,,False
1006280,ApuONXhml6x,z@i܂@iX,33.89877247,130.92873825,kBsi挴ʉ@3-15,28344,i,789,9,0101012,i,0,,True
100000896818,AbrMZJs9J1g,Ti,33.902584737252,130.93463819588,kBsi捂c1-8-7,28344,i,248,3,0101,aH,2,JRRz{(⍑`i)^iw k3 (233m),False
J000999277,rZRRTfNkoSo,rbtFXg TVA,33.90306641,130.92685781,kBsi嗢{3-13-26,28344,i,722,9,0101053,aHȋj,6,iwk10BiwkoāAi܂B199(iwOk)܁A450miEłB,False
J000112505,bcutYQossTY,u,33.94469019,130.96473937,kBsih1-9,28345,i`,373,4,0101053,aHȋj,3,iqi`wkV,True
J000605596,fmHTMsdG5Xc,,33.93975497,130.97809360,kBsi撷J213-33,29665,op,1784,22,0101053,aHȋj,3,i`wԂ5A223oRA̋߂łB,False
100000893670,oawPgFRpBsE,ay,33.94477575126653,130.96539497997492,kBsih6-4,29665,op,420,5,0112001,n엿,3,JR{(ցEi``)^i`w k5 (373m),True
J000562372,zV-7to1xchI,Ȃ Ȃ,33.89579788,130.93284067,kBsi5-17,28344,i,1213,15,0101053,aHȋj,2,JRiwk15B3qʂɐi݁Aʉ@_܂300młB,False
100000023536,J7kIKu6ZBr-,ǂ,33.904303,130.9363132,kBsi1-4-10,28344,i,375,4,0101017,,3,JRRz{(⍑`i)^iw k4 (319m),False
J000605645,L3tj4tcCOhY,ѕ i`wX,33.94482898,130.96080375,kBsi搼C1-5-31 JRi`w\,28345,i`,139,1,0101053,aHȋj,1,,False
100001229297,-vKQCL1I116,ay,33.903896651431175,130.93483974933622,kBsi2-1-15,28344,i,194,2,0110,ArAz[,2,JRRz{(⍑`i)^iw k2 (162m),False
J000562230,v3UDnABlM3-,˂ڂ,33.89531448,130.92591085,kBsiЃm1-4-17,28344,i,1301,16,0101053,aHȋj,,iw1173łB,False
J000605600,XtIBa5iu1RY,ߎi,33.94537071,130.96626139,kBsih5-23,29665,op,363,4,0101053,aHȋj,,iqi`wkW,False
J000755381,5c-i2SimxoY,La tam E^,33.94544292,130.96613918,kBsih5-3,29665,op,349,4,0101029,DݏĂAĂ,,iqi`wk8,False
5097385,fV6Bny9YPw-,LDݏ |iX,33.90350259,130.93476520,kBsi 2-3-29,28344,i,227,2,0101029,DݏĂAĂ,5,JRRz{(⍑`i)^iw k3 (180m),False
100000262587,zGjlNQYvqCg,ˍH[,33.89291767,130.9354683,kBsiʉ@8-5,28344,i,1608,20,0101018,ǂ,4,JRRz{(⍑`i)^iw k16 (1284m),False
6279964,s9nv04mb9Bs,Zy,33.90274989,130.93441526,kBsi c1-8-4,28344,i,218,2,0101,aH,2,JRRz{(⍑`i)^iw k3 (209m),True
100000262555,1vqYQOH7ZXo,ԑۖi{X,33.9452518,130.9661539,kBsih5-25,29665,op,379,4,0110,ArAz[,5,}LSi`gό^opىw k4 (298m),True
