id,gid,name,latitude,longitude,address,satation_id,station_name,station_distance,station_time,genre_code,genre_name,review_count,access,paypay_flg
100001450165,v0ZKJQqa4W-,Jl}X핽ƂӓX,43.05642511043726,141.35454593497025,kCDysO3-1 TX[r1F,20288,,134,1,0101008,,5,DyscnSk^̉w k2 (137m),False
100000754371,SuT3RoaPUOQ,ۂ낷,43.050438,141.349351,kCDys씪7,20319,R@X,186,2,0101,aH,5,DysdR@^{莛Ow k2 (149m),False
100001475317,vsz8mljv39Q,~oc,43.04763077492369,141.35302945184372,kCDys94-5-12 JJr1F,20373,,243,3,0102005,tXit`j,4,DyscnSk^w k3 (232m),False
100001268599,UDpq3DCRzys,kCB ƋT,43.0545356,141.35452399999997,kCDys܏3 23jar 7F,20288,,204,2,0101003,ۂ,4,DyscnSk^̉w k3 (197m),False
100001347687,Sg-LjrOdt9A,JWAB ,43.0554127805702,141.35444340000004,kCDysl3-1-2 N-place 2F,20288,,104,1,0101003,ۂ,4,DyscnSk^̉w k1 (83m),True
100001359958,io9j7cgC-Qk,ǂ񂱃Lb` gȃS 3X,43.0568187,141.35395730000005,kCDysO3 NbZr1K,20288,,143,1,0101033,y,4,DyscnSk^̉w k2 (113m),True
100001448409,59e0FIVQmao,Y Z LƂƂtƂ,43.05624061524875,141.35499667024646,kCDysl2-14-2 ZgS4r11F,20513,L,131,1,0101034,CN,4,DyscnSL^L̉w k2 (143m),True
100000911250,zYDCSY-ffqE,̂т,43.05628171,141.34630762,kCDysO8-7 mr 2F,20413,W,257,3,0101011,{,4,DysdR@^Wډw k4 (252m),True
100001461200,1V1jYvrFMto, Ă񂿂,43.055590318966054,141.35069527549118,kCDysl5-8 F\45r B1F,20299,ُwZO,198,2,0101,aH,4,DysdR@^ُwZOw k3 (182m),False
100001273148,3-yv-3b7Yfw,S  Ishizaki Annex,43.05610227505048,141.35400673151014,kCDysl3 j[kr7F,20288,,77,0,0101045,SĂ,3,DyscnSk^̉w k2 (91m),False
100000726805,NSRJIdKFcV6,VH؍ ɂ DyX,43.0682756,141.3524456,kCDysk܏2-5 DyXevCX 6F,20210,ۂ,125,1,0101022,Ԃ,10,JRٖ{(M`)^Dyw k3 (190m),False
100000717011,LC0702yhnRA,팬,43.060496454578505,141.3563885956312,kCDysʐ1-142 LyrB1F,20073,,95,1,0101018,ǂ,10,DyscnS^ʉw k3 (207m),False
100000770503,NXQs9fd8A6s,tʃrbZX,43.06136666894909,141.35245560466183,kCDysʐ3ʃrbZ 4F,20073,,53,0,0101034,CN,10,DyscnS^ʉw k4 (250m),False
100000714672,mldrNeAvJPY,I[KjbN vX,43.055773863789284,141.34984241904908,kCDysO61-3eBA36r1F,20299,ُwZO,182,2,0119004,_CjOo[,10,DysdR@^ُwZOw k1 (64m),False
100000064121,gDvU7qYDGLE,ZJl DyVeX,43.05968581906848,141.3559101011018,kCDys1DyVeB2F,20073,,36,0,0101018,ǂ,15,DyscnS^ʉw k3 (183m),False
100000069199,O794n8XPzTw,Ƃ,43.0564341,141.31544680000002,kCDysʐ28-4-14,20540,~R,104,1,0101003,ۂ,15,DyscnS^~Rw k5 (391m),False
100001414906,fCQTCh_OdI-,,43.04670579041737,141.35201832728944,kCDys 10632,20374,,261,3,0101011,{,2,DysdR@^ʉw k3 (232m),False
100001250897,EDW6oPkbXbc,ē_CjO O~,43.05446556,141.35496256,kCDys܏3-1-2 u[iCr5F,20513,L,216,2,0108001,ē,7,DyscnSL^L̉w k3 (220m),True
100000900461,0RxG6ACKk2o,₫Ƃ葾,43.071264705772,141.33083220747,kCDysk\15 KwEGXgvU,20298,K,204,2,0110,ArAz[,5,JRٖ{(M`)^Kw k2 (146m),True
100001278462,7Fe3A8M0J1c,DyɍH[,43.057931674611865,141.35844827055223,kCDys1 ۂsꏤXX,20513,L,342,4,0101,aH,5,DyscnSL^L̉w k4 (270m),True
100001219374,U238iX0aK8w,hYsH,43.07102717650285,141.32034500837324,kCDysk\21 s1F,20418,\l,524,6,0101034,CN,5,DyscnS^\lw k9 (700m),False
100000703167,n45zsxNjIJ-,V,43.048973,141.29441299999996,kCDys{̐X15-7-15,20540,~R,2243,28,0101017,,10,DyscnS^QWډw k32 (2564m),False
100001187241,s_bV97DEeBI,Dy k,43.058257076726704,141.33449813955315,kCDysʐ15-3-27,20402,PW,250,3,0101034,CN,11,JR{(V`H)^эLw k97 (7736m),False
100000815601,c6Mu5Y8A_Ik,V 8X,43.0498739474268,141.342818098694,kCDys씪10,20319,R@X,705,8,0101017,,10,DysdR@^{莛Ow k10 (760m),False
100000701951,zuu1vOolGzA,DyĒ΂Ԃ,43.057447446938156,141.3510532552948,kCDys5 vUr1F HUGC[g,20416,S,231,2,0101025,Ă,10,DysdR@^Sډw k3 (178m),True
100000864049,lgTYrVcr4YE,cX {X,43.05832383753033,141.35078654404072,kCDys5-1-6,20416,S,139,1,0108001,ē,9,DysdR@^Sډw k2 (128m),False
100000851441,LLpWjanXHqY,Ƃ蕟,43.0559025416908,141.35257551095026,kCDysl4ڏrB1F,20288,,98,1,0101025,Ă,10,DyscnSk^̉w k1 (77m),True
100000808272,ZWQYUxu6atI,Ђܓ؂Ƃ܂뗿 V,43.0564409,141.35398780000003,kCDysO3-5-2 sr2F,20288,,99,1,0110,ArAz[,10,DyscnSk^̉w k2 (109m),False
100000833408,4CwS_Jo_q4E,Ƃ񂩂 Ƃ悵 Dyt@Ng[X,43.065384055922,141.36267796110997,kCDysk4-1-2 Tb|t@Ng[B1,20456,oXZ^[O,536,6,0101015,Ƃ񂩂,18,DyscnS^oXZ^[Ow k7 (518m),False
100001397485,LHxFcw8OBDk,t,43.056775398301944,141.34351083558204,kCDys9-3-31 P^N29r,20316,O,235,2,0108001,ē,5,DysdR@^Ow k4 (295m),True
100000874058,7NUT5qfHvAw,܂񂴂,43.0654597224694,141.35133465748538,kCDyskO3 q[bNDyr B1F,20210,ۂ,43,0,0110,ArAz[,11,DyscnSk^ۂw k2 (153m),True
100000064789,hyTaRIbwo3w,M,43.062846514581,141.35217100382,kCDysk3ڌËvr3K,20073,,229,2,0101,aH,10,DyscnS^ʉw k5 (371m),False
100001254814,AogoUxvEw--,DyOlăZ^[ JL,43.07038270000001,141.32015669999998,kCDysk\22-1-26 DyOs,20418,\l,504,6,0101034,CN,10,DyscnS^\lw k9 (673m),True
100001282719,qeUa-Jul-nQ,kC [sA_CjO LUGAR,43.05446803284928,141.35555308280334,kCDys܏2ڃI[Nr7F,20513,L,179,2,0119004,_CjOo[,3,DyscnSL^L̉w k2 (166m),False
100000047248,T-ZpJ8HX3dg,Ƃ񂩂aKXg  XevCXDyX,43.068075089914444,141.35163120925495,kCDyskl2-5JR^[DyXevCX6F,20220,Dy,87,1,0101015,Ƃ񂩂,10,JRٖ{(M`)^Dyw k1 (17m),False
100001475177,vjuL_KIxf2U,^ԃ_CjO ̖{X,43.05543890288248,141.3551999852848,kCDysl2-8-10 _CbNXvU5Ԋ B1F,20288,,171,2,0101022,Ԃ,2,DyscnSL^L̉w k2 (142m),False
100000067037,kpG3gnbNbNI,k ̖{X,43.0545445690433,141.355968725201,kCDys܏2ڃTCo[VeBr2K,20513,L,142,1,0110,ArAz[,20,DyscnSL^L̉w k2 (109m),False
100001357865,2lGM3N6eopY,UMǂ v erX,43.06111569999999,141.35657190000006,kCDysʐ1ڂۂer n,20073,,50,0,0101018,ǂ,11,DyscnS^ʉw k1 (50m),False
100001324970,C1pm8IWo6HE,Creation Dining JINGA,43.05425169999999,141.35099420000006,kCDys55 LC6Ԋكr 2F,20288,,313,3,0110,ArAz[,10,DysdR@^ُwZOw k3 (221m),False
100000910504,vZoVMGljmHY,Ē Ajito,43.05645627523729,141.35657669003956,kCDysl1-5-2 SB1/4r 2F,20513,L,20,0,0110,ArAz[,10,DyscnSL^L̉w k2 (163m),False
100000696397,ex_ybjdtNm2,a DyX,43.05824630000001,141.35403210000004,kCDys3-11-5 tFXDy B1F,20073,,244,3,0101047,,10,DyscnS^ʉw k4 (254m),False
100000068909,0pkqUb6kUqw,Ɩ{X,43.05656349674558,141.3566358931846,kCDysl1-6-1,20513,L,29,0,0101017,,8,DyscnSL^L̉w k3 (174m),False
100000055248,kI_APoBnvP6,ׂ AXeB45rX,43.0661232441919,141.34815301506603,kCDyskl5AXeB45 B1F,20210,ۂ,232,2,0110,ArAz[,9,DyscnSk^ۂw k3 (240m),False
100001222645,Wri8NV4ILDw,OhGCW,43.054296490385056,141.3501919597387,kCDys܏6 j[jar1K,20299,ُwZO,221,2,0102001,Xe[LAno[O,9,DysdR@^ُwZOw k2 (140m),True
100000068856,NzO8DningWU,,43.05637515090361,141.35683674533425,kCDysl1,20513,L,61,0,0101025,Ă,9,DyscnSL^L̉w k2 (152m),False
100000070725,gIGLyhx0LsM,Yă_CjO ͂Ȃ k3ʂX,43.0654093,141.35533439999995,kCDyskO1 b`hze DywO1F,20210,ۂ,142,1,0110,ArAz[,15,DyscnS^ʉw k7 (555m),True
100001254770,-TdyiReiizY, ݂,43.05461270,141.35327381,kCDys܏4-7 eǃr5F,20288,,149,1,0101,aH,1,DyscnSk^̉w k2 (110m),True
100000403177,mnheFZ--ZOg,H,43.06597117065232,141.35023232730686,kCDyskl4Dy B1F,20210,ۂ,55,0,0101031,́AAeq,13,DyscnSk^ۂw k1 (69m),False
100000046024,IDGLDVclOBM,Ȃ̘ac,43.05228596481177,141.35648525367878,kCDys쎵2-2-29,20513,L,194,2,0101023,Ȃ,12,DyscnSL^L̉w k3 (170m),False
100001447432,2u20RdtNgiw,Ԃ ꂽ XXLmX,43.054920750694016,141.35597149938826,kCDys܏2-8-10 X̖r1F,20513,L,118,1,0110,ArAz[,5,DyscnSL^L̉w k2 (98m),False
100000900708,Ub3CkzsmR-c,叕@ʒ,43.054506541988,141.35449932919,kCDys܏3 11O[r3F,20288,,214,2,0110,ArAz[,4,DyscnSk^̉w k3 (197m),True
100001220724,Z7UPcgWr_8A,__CjO,43.0541378,141.33315649999997,kCDysl15-1-25 ؑr 1F,20401,PT,344,4,0102001,Xe[LAno[O,4,DysdR@^Uw k5 (376m),False
100000083513,p7Qay78R78M,t ̕ʒ,43.05585218692438,141.35297450740995,kCDysl4 br B1F,20288,,21,0,0110,ArAz[,23,DyscnSk^̉w k1 (32m),False
100001540864,5xBbxCRhpUw,ԂԃX^[vX,43.05751799999997,141.35523107638065,kCDysO2-15-1 NVICOLOr3F,20513,L,210,2,0101022,Ԃ,2,DyscnSL^L̉w k2 (164m),False
100000737234,ZSj-8LF3UVo,ፑH,43.054385,141.354863,kCDys܏3,20513,L,230,2,0110,ArAz[,9,DyscnSL^L̉w k3 (230m),False
100000716958,Y6AKwsowxJw,cS₫Ƃ 悵 DyX,43.06153254372986,141.3499046203592,kCDysk5r1K,20073,,232,2,0101025,Ă,15,DysdR@^Sډw k5 (366m),False
100001215385,1dmvCWZAzkM,ւ,43.054131122831286,141.35439296960828,kCDys܏3-3OԊكr1K,20513,L,278,3,0101,aH,8,DyscnSk^̉w k3 (222m),True
100001492351,5X-NMhqYbm2,X[vJ[ lCr[Y,43.056871,141.33826699999997,kCDys13-317-2 Or1F,20316,O,324,4,0107002,X[vJ[,6,DysdR@^Ow k4 (302m),False
100000068919,j9zYAqvLQ9Q,c,43.0566572426776,141.32909166553702,kCDysʐ18-1,20402,PW,120,1,0101018,ǂ,13,DyscnS^PWډw k2 (136m),False
100000388303,GH326-14xs6,傓V@X,43.058093313601354,141.3515008594204,kCDys4,20416,S,169,2,0101014,VՂAg,13,DysdR@^Sډw k2 (102m),False
100001334718,ZF_eqHCHoeo, S,43.059182725342026,141.32679852582734,kCDysk19-2-17 \QLr 141,20402,PW,372,4,0101017,,7,DyscnS^PWډw k4 (271m),False
100001252654,rqoTCeUcUh2,΂񂴂 ܂,43.0528381,141.35380140000007,kCDysZ4 vU6.4r1K,20513,L,332,4,0101003,ۂ,5,DyscnSk^̉w k5 (332m),False
100000077847,HUIZBfD1c2M,S Ύ ANANEvUzeDy,43.06575418051874,141.35517346745905,kCDyskO1 ANANEvUzeDy 26F,20210,ۂ,96,1,0102001,Xe[LAno[O,5,DyscnSk^ۂw k7 (545m),False
100000879368,AlRboXEQq2Y,E̎R ̓OX,43.056618475591,141.35655105114006,kCDysl1-7-2 OhpXrB1F,20513,L,30,0,0110,ArAz[,18,DyscnSL^L̉w k3 (182m),True
100001247635,syZx-AJC5gw,ebpC`,43.0547465328622,141.35418643951414,kCDys܏3-10-1-2 j[̃r2K,20288,,155,1,0101045,SĂ,4,DyscnSk^̉w k2 (154m),False
100000698116,1r5nzpo_q4E,t@Ng[X,43.065696,141.36303999999996,kCDysk4 Tb|t@Ng[O,20456,oXZ^[O,628,7,0101029,DݏĂAĂ,9,DyscnS^oXZ^[Ow k8 (568m),False
100000785337,TTdy34wl3Fs,齂Ƃ,43.058613,141.346302,kCDys7ڎDyXJCr 1F,20413,W,91,1,0101,aH,10,DysdR@^Wډw k2 (123m),False
100001219905,no2BRHAqn8I,ǂ ,43.0618528,141.31349669999997,kCDysk܏28-2-2 Or 2F,20412,QW,51,0,0110,ArAz[,3,DyscnS^QWډw k3 (202m),False
100000183468,d02wFWMcdGk,x,43.053885558192704,141.3545782452146,kCDysZ3 2F,20513,L,262,3,0110,ArAz[,10,DyscnSk^̉w k4 (256m),True
100000022077,oJFHCeJ1V-6,ĕ teBADyr10F,43.05698842911023,141.35646004648822,kCDysO1 teBADyr10F,20513,L,73,0,0106001,[,10,DyscnSL^L̉w k3 (224m),False
100001234645,jFqrg39foAo,ǂ ̓X,43.05384497466259,141.35230352878568,kCDys܏4,20288,,260,3,0101018,ǂ,10,DyscnSk^̉w k3 (239m),False
100000755250,kx8JVv2zQIo,ΐr,43.03064131621607,141.34604420734024,kCDys\10,20042,ΎR,183,2,0101017,,15,DysdR@^ΎRʉw k2 (96m),False
100000836848,-iccs0McdGk,齊B,43.0539304806721,141.35513430082904,kCDysZ3,20513,L,215,2,0101,aH,9,DyscnSL^L̉w k3 (224m),False
100001455519,A5OFX0OsZn6,Ē 镺q,43.058971035510766,141.34981249908242,kCDys5-16-24 vWfgr100 1F-104,20073,,149,1,0110,ArAz[,6,DyscnS^ʉw k1 (85m),True
100001255700,NJbnAqzFi5A,W ̖{X,43.05646465218274,141.34969847257824,kCDysO6,20299,ُwZO,263,3,0110,ArAz[,7,DysdR@^ُwZOw k2 (138m),True
100001426008,PGeZmwsCYz6,ƂĂς tNE,43.0564519,141.3480717,kCDysO7-2,20299,ُwZO,213,2,0101045,SĂ,7,DysdR@^ُwZOw k3 (174m),False
100000901048,kiXEroGYZJE,,43.038731485931,141.30275063538,kCDys~R4-6-17,20540,~R,2872,35,0101003,ۂ,5,DyscnS^~Rw k33 (2588m),True
100000069145,fKLWMnbj5i2,ۂ,43.05466268836021,141.35222104190098,kCDys܏4 XXLm,20288,,168,2,0110,ArAz[,10,DyscnSk^̉w k3 (170m),False
100000069341,G-ppfuzDXnY,Ԃ΂ Dy[X,43.0554577,141.35445170000003,kCDysl3-1 3O[rB1F V[B1F,20288,,101,1,0106001,[,24,DyscnSk^̉w k2 (137m),True
100000904574,4D5F9uJepX6,cH,43.06320172040953,141.34767228762144,kCDysk6ږkCccB1,20210,ۂ,436,5,0101017,,10,DyscnSk^ۂw k6 (457m),False
100000780550,bIkkg1wiBXg,H 킳,43.04452856712527,141.33626347910638,kCDys\14-2-27,20405,PP,83,1,0111,HAH,10,DysdR@^PPw k1 (39m),False
100000901015,jWoGVeHX3dg, nQV DyXevCXX,43.0682707590793,141.35259183774963,kCDysk܏2DyXevCX6F,20210,ۂ,113,1,0101014,VՂAg,10,DyscnSk^ۂw k2 (96m),False
100000836954,jbPzSVvfHME,}U[Y Dy{̐XX,43.05777683272128,141.30145769864657,kCDys{̐X11-6-1,20412,QW,1268,15,0118,XC[c,10,DyscnS^QWډw k19 (1478m),False
100000703794,FFjseeaaUpE,Ώ ԋ,43.0505301,141.33877280000002,kCDys쎵13-2-1 Ccr1F,20408,U,462,5,0101017,,10,DysdR@^Uw k6 (419m),True
100000904303,khE8WDAVevI,UEǂ DywGX^nXX,43.067582509983,141.35306125215,kCDysk܏2Dy^[~irn1F GX^nX,20210,ۂ,91,1,0101031,́AAeq,10,JRٖ{(M`)^Dyw k4 (279m),False
100000707675,twlxjUUvz5Y,΂т 錎,43.0532939761427,141.35311220363542,kCDysZ4-11-1,20288,,328,4,0101017,,10,DyscnSk^̉w k4 (276m),False
100000823149,BD9hQlvLcKE,܂,43.05414871113936,141.35292539287377,kCDys܏4 NZ^[r 1F,20288,,226,2,0101014,VՂAg,15,DyscnSk^̉w k3 (185m),False
100000068997,txvrdtPWqzM,c̋v,43.0300826,141.34530129999996,kCDys\10-5-1,20042,ΎR,172,2,0101029,DݏĂAĂ,15,DysdR@^ΎRʉw k1 (79m),False
100000068891,glKfTKtz_2g, ځ[ k2 DywOʂX,43.06398626914177,141.35160730664177,kCDysk325jar3F,20210,ۂ,162,2,0110,ArAz[,8,DyscnSk^ۂw k4 (302m),False
100000880509,3oK1iHYcaJ2, {X,43.03791904542228,141.35208919643992,kCDys\6,20292,ÏCwO,123,1,0101029,DݏĂAĂ,22,DysdR@^s[ʉw k2 (117m),False
100000091924,dYvt7l5ar4E,MƒnĒ@ł OX,43.06563501295298,141.34650483727455,kCDyskl6 1K,20210,ۂ,395,4,0101034,CN,7,DyscnSk^ۂw k6 (429m),False
s000308102,2z_GPuHYHbo,i Dy,43.05450727,141.3564624299,kCDys52Ԓn1 I[Nr1e,20513,L,110,1,0101035,ӂ,28,,False
100001440477,I0JtVjV3TuA,restaurant DAFNE,43.063116493321026,141.355648809787,kCDysk1 Dys𗬃vU2F,20073,,217,2,0101033,y,6,DyscnS^ʉw k2 (160m),True
100000027724,uvIXT0McdGk,齏 ,43.0537848980923,141.355106167984,kCDysZ3 WCtTb| 1F,20513,L,205,2,0101,aH,11,DyscnSL^L̉w k3 (235m),False
100000743479,kdUSLUqli92,ay R@X,43.034298560565325,141.34357369800875,kCDys\11-1-18,20042,ΎR,502,6,0101,aH,5,DysdR@^ΎRʉw k6 (410m),False
100000697722,enjt-N8R78M,t ̖{X,43.05586280410533,141.35229503839014,kCDysl4 r6F,20288,,121,1,0101,aH,12,DyscnSk^̉w k2 (107m),False
100001466975,AISqmT3VK7o,kCЂ ۂۂՂ炷,43.0538902,141.35073139999997,kCDys܏5 Wphr7F,20299,ُwZO,291,3,0110,ArAz[,3,DysdR@^ُwZOw k3 (215m),True
100000903035,p6-aPd0sY4E,C̉ Dyw JR55X,43.067384241021,141.34747415771,kCDysk܏5JR55SAPPORO 7F,20210,ۂ,364,4,0110,ArAz[,9,DyscnSk^ۂw k5 (333m),False
100000069130,gHJsCeXSNoY,H,43.06408106,141.35250941,kCDysk3-1 ~r B1F,20210,ۂ,259,3,0111,HAH,10,DyscnSk^ۂw k5 (352m),False
100000774797,1PTPMqNwIVQ,̍,43.05701,141.355415,kCDysO2-6 KTOrB1F,20513,L,137,1,0101,aH,8,DyscnSL^L̉w k4 (273m),False
