id,gid,name,latitude,longitude,address,satation_id,station_name,station_distance,station_time,genre_code,genre_name,review_count,access,paypay_flg
100000707626,-KQHV9_Q9LE,򂢏 傱Ǝ,43.0554035428179,141.35391921045073,kCDysl3-3-1 2O[r1F,20288,,49,0,0101,aH,10,DyscnSk^̉w k1 (85m),False
100000283524,pVSE_lCrvB-,n싏 M C,43.05512861681302,141.35549129199603,kCDys܏2ڑ6O[r1F,20513,L,117,1,0101034,CN,10,DyscnSL^L̉w k2 (150m),False
100001469458,YceIJIlFVjw,Ƃ񂩂 Dy{X,43.056818142174414,141.35482127728085,kCDysO2-7-1,20513,L,190,2,0101015,Ƃ񂩂,10,DyscnSL^L̉w k2 (165m),True
100001314941,ZJUcCS7MSpE,^RƃnC{[ DyKH{X,43.05764011,141.35250147,kCDys4-1-3 DyiiC,20416,S,194,2,0101029,DݏĂAĂ,10,DysdR@^KHw k1 (58m),False
100001159922,aoLqLuJLw1w,YΓĂqɁ@RmV,43.05790944330985,141.35835514536893,kCDysO1-4-2 At@nr1F,20513,L,311,3,0102001,Xe[LAno[O,10,DyscnSL^L̉w k5 (363m),False
100001291320,bubCMJ1rldk,ɂΓؑގEX^h,43.06152070446286,141.3464427030758,kCDysk7-1-5-23r1F Gx[^[,20073,,457,5,0101017,,10,DysdR@^Wډw k5 (370m),True
100001250280,5oS1TDzAm5c,Kb wOʂX,43.0635771,141.35188649999998,kCDysk3-1-12 ~rB1F,20210,ۂ,261,3,0101017,,10,DyscnSk^ۂw k5 (357m),False
100000732791,CFVk1Ez9OMw,Ώ  k_X,43.06665585,141.35470353,kCDyskl1-1 k_r B1F,20210,ۂ,161,2,0101017,,10,DyscnSk^ۂw k6 (453m),False
100000076175,snjElOsHVgE,يJz ̓6{X,43.0536093808317,141.35276935826596,kCDysZ4-5-27 VhʂzCgrB1,20288,,309,3,0101034,CN,10,DyscnSk^̉w k3 (247m),False
100000696894,tUXiqEPYpg2,h Ē jg {X,43.057918299147275,141.3497605305496,kCDys5-30-1,20416,S,258,3,0101025,Ă,10,DysdR@^Sډw k4 (251m),True
100000785588,VB7HATYXYRM,؍ƒ뗿 `FS Dy}X,43.06682654762926,141.35301272521633,kCDyskl2 }SݓXۂX 10F,20210,ۂ,100,1,0105001,؍AN,10,DyscnSk^ۂw k4 (305m),True
100000696390,rcs5tx3slq2,}C`X,43.05822963266804,141.3447655153443,kCDys8-20-1CIY}V1F,20413,W,205,2,0110,ArAz[,10,DysdR@^Wډw k3 (193m),False
100001195396,Rl0Do0LRaE-,G ,43.05369599838133,141.32471848500757,kCDysO22-2-11,20402,PW,628,7,0101017,,10,DyscnS^~Rw k9 (683m),False
100000089164,s1EXOpgV10g,[^,43.04560517449144,141.3479518890374,kCDys\8-1-11 tWnCc1F,20374,,237,2,0115002,iX,10,DysdR@^ʉw k4 (257m),False
100000006355,Ycr-i1UW3C6,y ӂ,43.0639511,141.35250139999994,kCDysk3-1-31obNXg[r B1,20210,ۂ,276,3,0110,ArAz[,10,DyscnSk^ۂw k5 (363m),False
100001343634,qTZm7aoD51-,łƍ ,43.056490346221246,141.34939964914315,kCDysO6KHs,20299,ُwZO,251,3,0101028,ł,10,DysdR@^ُwZOw k3 (179m),False
100000901757,vZjXKKuS-wg,΂叕 lX,43.055383102729,141.35448344547,kCDysl3 3O[r1F,20288,,111,1,0110,ArAz[,10,DyscnSk^̉w k2 (143m),True
100000068863,9FYFtbokayE,,43.064438559663564,141.3345469632294,kCDyskl14,20298,K,829,10,0101025,Ă,8,JRٖ{(M`)^Kw k10 (753m),False
100001383047,KhaFMEJISQI,l ݋ƕ SYX DywOʓX,43.06424927962803,141.3515696005943,kCDysk3DytRNzRr,20210,ۂ,136,1,0101034,CN,10,DyscnSk^ۂw k2 (142m),True
100001401270,1f8MrhOVTeY,₫Ƃ ,43.05394557073972,141.35482906227708,kCDysZ3-6-29 5r3F,20513,L,241,3,0101025,Ă,10,DyscnSk^̉w k3 (208m),True
100000771043,0XH5QNUHlVo,lG̖R|bN ~RX,43.05649,141.32286,kCDysʐ23-1-1 ~RMS1F,20540,~R,354,4,0110,ArAz[,10,DyscnS^~Rw k6 (455m),True
100000860964,cIXQ9-U64CY,iZ@,43.052477,141.35312299999998,kCDys쎵4-2-19,20474,{莛O,378,4,0101,aH,10,DyscnSk^̉w k5 (367m),False
100001246437,jFEGidon0Wc,HnF[ 킯,43.05375873796636,141.3546789601445,kCDysZ3 ^J6.3r1F,20513,L,241,3,0101025,Ă,10,DyscnSk^̉w k3 (216m),True
100001488349,7EK47a3EU1I,n΂񂴂M ,43.0554333,141.35443839999994,kCDysl3-1-1 3O[r,20288,,102,1,0110,ArAz[,10,DyscnSk^̉w k1 (83m),False
100000754718,QH8pWgBg-tc,T ӂc,43.053536,141.348575,kCDys܏7-1-1,20299,ُwZO,226,2,0101,aH,8,DysdR@^{莛Ow k3 (215m),False
100000922354,ohvzmBwByV6,Ƃ΂񂴂 ݂̂,43.05627056505775,141.35365757638067,kCDysO3 r5F,20288,,56,0,0101010,΂񂴂,10,DyscnSk^̉w k1 (44m),False
100000701322,f460urUtCEA,̋,43.0546923919167,141.35392318518097,kCDys܏3-5r 2F,20288,,156,1,0110,ArAz[,10,DyscnSk^̉w k2 (142m),False
100000826005,UDDMIr1p9wk,Dy VOLTA,43.05636589873384,141.3542359616481,kCDysO3-3G DININGDy5F,20288,,106,1,0101042,,10,DyscnSk^̉w k2 (103m),True
100000725287,diIPuuAvJPY,ӂƂ {X,43.055744638768,141.349858295631,kCDysO6-1,20299,ُwZO,178,2,0110,ArAz[,10,DysdR@^ُwZOw k1 (61m),False
100001349050,ald8YXT4qco,C ڈΊC,43.061712500000006,141.35211492914183,kCDysk3-2-5 kr2F,20073,,75,0,0101034,CN,8,DyscnS^ʉw k1 (78m),True
100001282940,CxRWK0M1q-s,O ށEl,43.054554462878556,141.35224049687383,kCDys܏4-9-20 O|уr23FCbNʂ,20288,,189,2,0101034,CN,10,DyscnSk^̉w k2 (120m),False
100000902447,rBW-IXbj5i2,Č{,43.053964478465,141.352516152,kCDys܏4 r2F,20288,,270,3,0110,ArAz[,10,DyscnSk^̉w k3 (218m),True
100001231194,YFmGeOK4l-k,ȃrXg Cl in V[t[h}[Pbg,43.05665544061137,141.3541810750961,kCDysO33-3-2 ^r,20288,,165,2,0110,ArAz[,10,DyscnSk^̉w k2 (141m),False
100000900109,Z9EJ7uAvJPY,Y ܂,43.056043036561,141.34976266492,kCDysO6ar 1K,20299,ُwZO,214,2,0101025,Ă,10,DysdR@^ُwZOw k2 (92m),False
100001294679,67JmU_Fhqgc,NtgrAH VOLTA,43.05547221069699,141.34962026044207,kCDysl6ڐ΂r1F,20299,ُwZO,112,1,0119006,rAo[,10,DysdR@^ُwZOw k1 (72m),True
100001305368,ugaS8iHVIdI,{n{Ă ֌{,43.0520303,141.35355749999997,kCDys쎵4 LCԊكr2K,20474,{莛O,390,4,0101027,,10,DyscnSk^w k5 (364m),False
100000769646,BDdAu4TUHe2,Ђł,43.0525275,141.35361309999996,kCDys쎵4-1-2 r 1F,20513,L,350,4,0101,aH,10,DyscnSk^̉w k5 (363m),False
100001252960,MvfWVuliMo-,CNo l,43.05418228899086,141.3548727448093,kCDys܏3 ˖{53r4F,20513,L,237,2,0110,ArAz[,10,DyscnSk^̉w k3 (191m),False
100000837444,okeSSStBsJU,aǂ񂱃Lb` S,43.0538115623358,141.35077889508398,kCDys܏5 Wphr1F,20299,ُwZO,303,3,0110,ArAz[,10,DysdR@^ُwZOw k3 (197m),True
100000737269,5ta-vi1PbtA,ĒT}T},43.05684700602073,141.34794135588913,kCDys7 M&#39;sXy[X1F,20299,ُwZO,260,3,0101025,Ă,10,DysdR@^ُwZOw k4 (265m),False
100001333263,COygjZuKY3k,Ă O,43.05624091466293,141.35925165679788,kCDysl1,20513,L,241,3,0101025,Ă,10,DyscnSL^L̉w k4 (308m),True
100000876462,rG1FKTmlbtI,͘F_CjOo[ ق̂ ,43.0543799500281,141.35128838662126,kCDys܏5-13-1 ASIL SAPPORO 2F,20288,,240,3,0119004,_CjOo[,10,DysdR@^ُwZOw k3 (200m),False
100000063379,-UbHYyCA532,t DyX,43.053613612657,141.354656623279,kCDysZ3-6,20513,L,231,2,0101,aH,10,DyscnSk^̉w k4 (286m),True
100001391641,X9JrXNOeDWM,ɔԐ HrX,43.05387963047956,141.35072343747333,kCDys܏5 Wphr7F,20299,ُwZO,292,3,0101022,Ԃ,9,DysdR@^ُwZOw k3 (215m),True
100000713089,3jv5jcpjSvE,RbRKX,43.0687943,141.33188629999995,kCDysk15-28-176,20298,K,246,3,0110,ArAz[,9,JRٖ{(M`)^Kw k3 (217m),True
100001423112,srUiD7HJzms,DyWMXJdiningZ rikka {X,43.05421182560778,141.35076145214953,kCDys܏𐼌ܒ 21-1 2όr1F,20299,ُwZO,265,3,0108002,WMXJ,9,DyscnSk^̉w k4 (270m),False
100000070066,h790p92d6JE,CN~_O ϒOl 攪 m,43.05523935000866,141.35383672209014,kCDysl3 2O[r6F,20288,,78,0,0101034,CN,9,DyscnSk^̉w k1 (28m),True
100000062087,MG-j5wtrv9A,ł  ʓX,43.05858415560631,141.35157554232785,kCDys4-5 蒬rB1F,20416,S,53,0,0101017,,9,DysdR@^Sډw k1 (40m),True
100001173761,hZY1-mp4_4c,{ ,43.05562186578612,141.32348540532496,kCDys22-2-15V[YrB1F,20540,~R,399,4,0101011,{,9,DyscnS^~Rw k7 (513m),False
100000742004,RR0vuldNUwc,݂c,43.054870742234584,141.35377298147534,kCDys܏3 23jar4F,20288,,105,1,0101011,{,9,DyscnSk^̉w k2 (116m),False
100001393887,fQ7PouUcUh2,P,43.0484893849172,141.32835602270188,kCDys씪20-1-2,20404,XR,674,8,0101,aH,8,DysdR@^XRʉw k10 (788m),False
100001194536,TtPwXjrXhWY,{,43.055750262586244,141.32122099399567,kCDys24-1-30 ~ROCT BLD 1F,20540,~R,171,2,0101,aH,9,DyscnS^~Rw k4 (262m),False
100000751211,KzK6dxC1I9-,amS 21CLUB,43.047534,141.35219699999993,kCDys\6-1-21 m{eDy25F,20373,,316,3,0101045,SĂ,9,DysdR@^R@Xw k4 (266m),False
100001333771,GOKzEsXuNJ6,܂ sitatte sapporoX,43.06408106,141.35250941,kCDysk3-1-20DytRNzRr sitatte sapporo2F,20210,ۂ,259,3,0101047,,9,DyscnSk^ۂw k2 (148m),False
100000850354,do8tT5Y4MVs,m,43.05595021032492,141.34968844826903,kCDysO6 CtBjjar22 8F,20299,ُwZO,212,2,0101034,CN,9,DysdR@^ُwZOw k1 (81m),True
100000786983,AHPURxDuYXk,{ ͂c,43.06539202867894,141.34724378585815,kCDyskl6Dy 1F,20210,ۂ,326,4,0101031,́AAeq,9,DyscnSk^ۂw k5 (356m),False
100000906490,Bu2ekP0XAYE,n,43.05340722012,141.3548365822,kCDysZ3 ATNr1F,20513,L,197,2,0101,aH,9,DyscnSL^L̉w k4 (284m),False
100000070755,ayMOzCQhung,΂؂c,43.04783002,141.35008558,kCDys6-2-27,20319,R@X,171,2,0110,ArAz[,9,DysdR@^R@Xw k2 (126m),False
100000701802,Qgc7hT6uXKU,Ώ  ʓX,43.0588621375545,141.334457100525,kCDysʐ15-2-1 XR15r 1K,20401,PT,350,4,0101017,,14,DysdR@^PTډw k4 (280m),False
100001239207,NyydXvBGQXY,  ʂrbZX,43.0614292,141.3523182,kCDysʐ3-7,20073,,52,0,0101,aH,9,DyscnS^ʉw k4 (267m),False
100000907691,TElW_sHf3PM,齏悵,43.053641884212,141.35504027955,kCDysZ𐼑jar1F3,20513,L,199,2,0101,aH,9,DyscnSL^L̉w k4 (251m),True
100000069201,LXgWhI0hYhE,ԏH c,43.0520303,141.35355749999997,kCDys쎵4 vU74r 3F,20474,{莛O,390,4,0101011,{,9,DyscnSk^w k5 (379m),False
100001240186,3wvlQVxHKdQ,s Dy{X,43.0558269,141.35210789999996,kCDysl4-12-1 rʊ5F,20288,,88,1,0101,aH,8,DyscnSk^̉w k2 (128m),True
100000069166,nhjUOS5zDlk,r{X,43.052247,141.35517679999998,kCDys쎵3,20513,L,286,3,0101011,{,7,DyscnSL^L̉w k5 (358m),False
100001450968,wwQ2Uj8iS3-,C ͂傤 ʒ ˂,43.05645665277763,141.35431943465494,kCDysO3 sr5F,20288,,123,1,01,O,8,DyscnSk^̉w k2 (115m),True
100000034370,uyWBMpzLWwA,炩@X,43.05770998595861,141.3499728494951,kCDys5-30-3,20073,,299,3,0101034,CN,8,DysdR@^Sډw k3 (241m),True
100001224954,C8qOCRqbsg6,,43.0561411,141.35889299999997,kCDys܏1-11,20513,L,210,2,0101,aH,8,DyscnSL^L̉w k4 (260m),False
100001424917,GDbJ_vWxAZE,؂ ,43.05833131736634,141.34988014846203,kCDys5-7-1 Lr,20416,S,204,2,0101017,,8,DyscnS^ʉw k2 (155m),False
100001273627,6hU8oKt1yYc, ܂,43.0548217,141.35450170000001,kCDys܏3-8 NOfr B1F,20288,,178,2,0101,aH,8,DyscnSk^̉w k3 (174m),False
100000902485,f7SW3S5zDlk, ,43.051628659116,141.35452987544,kCDys쎵𐼐痼r 1F3,20373,,352,4,0101,aH,8,DyscnSk^w k4 (307m),False
100001313337,ndQ1SAmEYOg,܂ƂĂ̓X shigi 36,43.05827415512404,141.34565452015397,kCDys8-13-2,20413,W,112,1,0110,ArAz[,8,DysdR@^Wډw k2 (95m),False
100001275513,ifgciYkFXQw,YĂƘa  ȂȂӂ,43.057174794346395,141.35531028509138,kCDysO2-15 AKVr 1F,20513,L,158,1,0110,ArAz[,7,DyscnSk^̉w k4 (276m),True
100000001235,ES35_XSWP_M,k̍K C,43.05633000000001,141.3559103061342,kCDysl2 42r 5F,20513,L,60,0,0110,ArAz[,6,DyscnSL^L̉w k3 (179m),False
100001428739,C-aozhT19R6,iEhgEĒ@CNOꂳԂ낤 ̓X,43.05652975427995,141.3577042241327,kCDysl1-15-2 Iуr,20513,L,137,1,0101034,CN,7,DyscnSL^L̉w k2 (135m),True
100000076525,D7A0yH8LXCU,cv,43.05654398031129,141.35433777875096,kCDysO3-3 G DINING SAPPORO 6F,20288,,135,1,0101,aH,7,DyscnSk^̉w k2 (147m),False
100000063466,gKU3k0ycIZU,[񂹂,43.053612,141.35465699999997,kCDysZ3 Hr 1F,20513,L,230,2,0101003,ۂ,7,DyscnSk^̉w k4 (286m),False
100001233347,Jq3OYY0hYhE,ƍ@vۓc,43.0524651729713,141.35340859889982,kCDys쎵4 vU7.4r1F,20513,L,372,4,0101034,CN,7,DyscnSk^̉w k5 (368m),False
100001434656,dZs86ctZogA, ׂ,43.055751,141.35569340000006,kCDysl2 RECOLTE SapporoB1F,20513,L,85,1,0108001,ē,7,DyscnSL^L̉w k1 (82m),True
100001214250,gKDeVhgL60U,ԂCN̓X ̑䏊 ʓ@,43.05829362158739,141.35854125022888,kCDysO1̂񉡒1F,20456,oXZ^[O,318,3,0101,aH,7,DyscnS^oXZ^[Ow k5 (394m),False
100000072513,OCdcpWUkfEI,齐R,43.054259,141.35021200000006,kCDys܏6ڃj[jar 1F,20299,ُwZO,227,2,0101,aH,7,DysdR@^ُwZOw k2 (121m),False
100001229370,pssjrbY8pRo,YĂC^A Yb`  4{X,43.05568972494428,141.350919508934,kCDysl5 ACr4.5 2F,20288,,207,2,0110,ArAz[,6,DysdR@^ُwZOw k2 (146m),False
100001418696,A1jpL0vIAP2,퍑H,43.054503444258316,141.35254221748517,kCDys܏4-9-10 tH[54r1F,20288,,210,2,0111,HAH,7,DyscnSk^̉w k2 (110m),False
100001352125,G8TT21u2bxg, ,43.05764851222692,141.34752589264235,kCDys7-8-2 2r1K,20413,W,178,2,0101,aH,7,DysdR@^Wډw k2 (128m),False
100000903060,jZBGrBqsn4A,܂␅Y DywOX,43.065392300328,141.35226020697,kCDyskO3-1-56 }Qr 2F,20210,ۂ,104,1,0110,ArAz[,6,DyscnSk^ۂw k3 (243m),False
100001482419,MmPnuVwcyw6,銱ƊCN łĉ vX,43.0631206,141.35349599999995,kCDysk2-1DyvrBF1,20073,,293,3,0101034,CN,7,DyscnS^ʉw k3 (217m),False
100001231118,NdHqu1bhvIs,,43.05732100105491,141.3498843004144,kCDys5ړ25r B1F,20416,S,322,4,0110,ArAz[,7,DysdR@^ُwZOw k3 (235m),False
100001509193,P9NZLTZXzUU,Ƃ񂩂 DyʓX,43.05847102654364,141.35017070000004,kCDys5-5-1,20416,S,167,2,0101015,Ƃ񂩂,6,DyscnS^ʉw k2 (153m),True
100001245681,NkJ2VUmUcI6,{ ܂,43.04412298344665,141.30696883201597,kCDys~R8-4-26,20540,~R,2201,27,0101001,Η,6,DyscnS^~Rw k23 (1833m),False
100001241483,JQVW0x5I6EA,ԂǂƎ@,43.05855954136399,141.35943256011888,kCDysO2-7,20456,oXZ^[O,313,3,0101027,,6,DyscnS^oXZ^[Ow k4 (322m),False
100001512787,ujnnzWhklqM,ɗr r ˂,43.05686840129399,141.35121306288875,kCDysO5-35-2 NKCr1F,20288,,269,3,0108002,WMXJ,6,DysdR@^KHw k3 (183m),False
100001488716,0Kvxm1BuQGY,O xmR,43.05850679288171,141.35405760429921,kCDys3-11-1 k-23r2F,20073,,214,2,0110,ArAz[,6,DyscnS^ʉw k3 (169m),True
100001163966,uhF1J6lti5I,~RO ނȌ`,43.05796576035438,141.31802002933023,kCDysk26-1-15 ~ROr1F,20540,~R,355,4,0101011,{,5,DyscnS^~Rw k4 (281m),True
100001263511,2qc1S2PDS2g,aH ÍRv,43.056175588319746,141.34642926995798,kCDysO8-7 mr2K,20413,W,262,3,0101007,,5,DysdR@^Wډw k3 (238m),False
100000069232,Wtb8fp_1oyM,Northern@Food@Design@TAKU@~R,43.05680287029934,141.3164078460154,kCDysk27-1-7,20540,~R,178,2,0101011,{,5,DyscnS^~Rw k4 (306m),False
100000824306,Bj_vXC5zDlk,鐭i ̓X,43.05165940876243,141.35483880546803,kCDys쎵3,20513,L,372,4,0101,aH,5,DyscnSk^w k4 (307m),True
100001529554,O1n0_LDJKaM,C ͂傤 a,43.0569737,141.353707,kCDysO3 FA-S3r1K,20288,,146,1,01,O,5,DysdR@^KHw k2 (97m),False
100001422149,ADdNHbzwABk,齂킽Ȃׁ@DyX,43.05284716479452,141.35377390735766,kCDysZ4-1 vU64r4F,20513,L,333,4,0101,aH,5,DyscnSk^̉w k4 (288m),True
100000910834,24Em57Xgff-,Ώ ێR,43.05449402171365,141.35280803070953,kCDys܏4-9-1 obJXr1F,20288,,229,2,0101017,,11,DyscnSk^̉w k2 (151m),True
100001470995,LsbusrbjmFY,aH ΂,43.055472256303986,141.34961588067983,kCDysl6-8-3 ΂r2F,20299,ُwZO,112,1,0101028,ł,5,DysdR@^ُwZOw k1 (71m),True
100001491217,bjFwok6fSfE,ȂƃC 񂽂-VARIO-,43.056261992109874,141.35554432361937,kCDys42-11-7 TOMORUr 5F,20513,L,92,1,0119004,_CjOo[,5,DyscnSL^L̉w k1 (83m),False
